,constituency,ward,clat,clon,place_id,place_name,place_lat,place_long,place_type
0, Kibra,Lindi,-1.31516185,36.79284123,54c5746a15de1a8ce74591a8bf0402c389dd8a84,Kent pharmacy,-1.2950586,36.7990489,pharmacy
1, Kibra,Lindi,-1.31516185,36.79284123,0aa9890387c40a928baf7b14a61f42741bab40a8,Yaya Chemists Limited,-1.292666,36.788214,pharmacy
2, Kibra,Lindi,-1.31516185,36.79284123,a900078c9094aae2d8464cb207176bb839d06ca1,Omaera Pharmeceutical Ltd,-1.309439,36.7982695,pharmacy
3, Kibra,Lindi,-1.31516185,36.79284123,7d449dc4151951bd58b6af567345f998c95adadd,DOVEYPHARMA LTD-MY CHEMIST,-1.324206,36.7830325,pharmacy
4, Kibra,Lindi,-1.31516185,36.79284123,c672f51af9c75e8ae6aa6320d139c4c6db812149,"Goodlife Pharmacy, Total Ngong Road",-1.3000812,36.7885217,pharmacy
5, Kibra,Lindi,-1.31516185,36.79284123,e75c0c3058d76dff2eb148dc7da4c923dfc8f0c2,Goodlife Pharmacy Hurlingham,-1.2955247,36.8015757,pharmacy
6, Kibra,Lindi,-1.31516185,36.79284123,2843538dc4830f8ccbbcd791bd0517a9841a8f68,Lifecheck Pharmacy,-1.298755,36.778267,pharmacy
7, Kibra,Lindi,-1.31516185,36.79284123,e9eab25441ea89c9063d9311b03f4fec32c4639e,Eltons Pharmacy C.C Ltd,-1.2952288,36.8062419,pharmacy
8, Kibra,Lindi,-1.31516185,36.79284123,32e69167458f4936294f134d817b75cee7738ae1,Goodlife Pharmacy Shell Madaraka,-1.3108328,36.8176434,pharmacy
9, Kibra,Lindi,-1.31516185,36.79284123,59107eba4f0575506eff3d6599251f9c8ef05ab7,DOVEYPHARMA KILIMANI,-1.2847393,36.7931107,pharmacy
10, Kibra,Lindi,-1.31516185,36.79284123,33e8b03e7ba46f3f044ad3086030d708b438782d,Samkor Pharmacy,-1.3102937,36.7627336,pharmacy
11, Kibra,Lindi,-1.31516185,36.79284123,b90fe068fe5c1f9ccfd679c7fad10a36cc7a1bd4,"Haltons pharmacy -nssf, nairobi",-1.290109,36.811972,pharmacy
12, Kibra,Lindi,-1.31516185,36.79284123,d61cb45d6f52b8e85bd0e2adf9e023019a1e6f12,Goodlife Pharmacy Valley Arcade,-1.291197,36.7704999,pharmacy
13, Kibra,Lindi,-1.31516185,36.79284123,a13a9abf8b166a9cd568b8eb2dcdd0140ccab0f8,Leleshwa Pharmacy,-1.283385,36.784354,pharmacy
14, Kibra,Lindi,-1.31516185,36.79284123,8e73a3e1845623cc9fdf5041c7b0349829fc1fda,Kobil Valley Arcade,-1.290042,36.769891,pharmacy
15, Kibra,Lindi,-1.31516185,36.79284123,3c71ceaa30cdbcfbcc35492dfdcc49763e9f733d,Goodlife Pharmacy Junction Mall,-1.2980197,36.76244560000001,pharmacy
16, Kibra,Lindi,-1.31516185,36.79284123,8458f00958d164c11d4194f103d3698c94cda458,Pharmart,-1.3435952,36.7656156,pharmacy
17, Kibra,Lindi,-1.31516185,36.79284123,c3b528e891cf16953fee3fce33d71d6c68ad591e,Maxim pharmaceuticals ltd,-1.2828012,36.81606909999999,pharmacy
18, Kibra,Lindi,-1.31516185,36.79284123,83ad855679a8a0039324e4937fa98255026e41be,Eurox Pharmaceutical Ltd,-1.2823107,36.815955,pharmacy
19, Kibra,Lindi,-1.31516185,36.79284123,2681c222921904a594ee183fb02a4de8762681ec,Savannah Healthcare Services,-1.2849315,36.8198419,pharmacy
20, Kibra,Lindi,-1.31516185,36.79284123,53699e1683c1231c6ef27ddf05542b592c68dea1,Dr. Martin Otieno Oloo,-1.2860346,36.8219584,pharmacy
21, Kibra,Lindi,-1.31516185,36.79284123,e91868cf534e8b21e437a3820ea86d7dc540f9c0,Airtel Money Agent-Vikamed Pahrmacy,-1.2747601,36.78116719999999,pharmacy
22, Kibra,Lindi,-1.31516185,36.79284123,431ae9f3fa7bdd3b804b7f200a234b23d388e69b,Eltons' Pharmacy Ltd,-1.2873677,36.8247303,pharmacy
23, Kibra,Lindi,-1.31516185,36.79284123,4b3ab1b0b23110506bc0b2b87ce4f7af3a17660f,Malibu Pharmacy Ltd,-1.2851585,36.8229522,pharmacy
24, Kibra,Lindi,-1.31516185,36.79284123,02499beed24afb74e05241d52e10a1d9a4f65c72,Kam pharmacy,-1.284424,36.823318,pharmacy
25, Kibra,Lindi,-1.31516185,36.79284123,c2c3aee2c93c379c54a300623be20f520d5a457a,Inkamed Pharmaceuticals,-1.287495,36.8254463,pharmacy
26, Kibra,Lindi,-1.31516185,36.79284123,ef804512ef95083a5b8b32a6e9ccfb4a5e8cab95,Easton Pharmacy,-1.2868471,36.82536410000001,pharmacy
27, Kibra,Lindi,-1.31516185,36.79284123,ac3943a7bfa54af2e971b70f7845457de992a62b,drugs.co.ke,-1.2867996,36.82600559999999,pharmacy
28, Kibra,Lindi,-1.31516185,36.79284123,016be2f19ae18c65aeb2cbb089ee7784d2f6cd20,Nairobi Veterinary Center,-1.287867,36.82748600000001,pharmacy
29, Kibra,Lindi,-1.31516185,36.79284123,1c21f916d9d11a6a583297e0775618eac9a72917,Penta Pharm Limited,-1.2868857,36.8271961,pharmacy
30, Kibra,Lindi,-1.31516185,36.79284123,b0280c6981a4e5c9817a06c06168cb5de4bedf8a,Chemist Medipharm (EA Ltd),-1.286566,36.826746,pharmacy
31, Kibra,Lindi,-1.31516185,36.79284123,2dbe3f3612fb6468c7a07214b168a4f36446b7b6,The New Lemuma Pharmacy,-1.2864603,36.8268283,pharmacy
32, Kibra,Lindi,-1.31516185,36.79284123,f3389a3ece0640079acd1d457ef18546c04bb9bd,Northern Pharmacy,-1.2859268,36.8265541,pharmacy
33, Kibra,Lindi,-1.31516185,36.79284123,f9dd7302d753ea2084969e74dabaf28dd294d42f,Dischem Pharmacie,-1.282101,36.82303999999999,pharmacy
34, Kibra,Lindi,-1.31516185,36.79284123,c60a8ec4376ecb6afc94c4e1a88ee90821dbd286,Halton's Pharmacy,-1.3117324,36.8375672,pharmacy
35, Kibra,Lindi,-1.31516185,36.79284123,b2f2f387737d24fde79ce0ce753e0e84ded97ee3,Nila Chemist Wholesale and Retail,-1.2860453,36.8270928,pharmacy
36, Kibra,Lindi,-1.31516185,36.79284123,5aebfb37c36c4c7f9d97a31fe3ec5da6b334e006,Jomac Pharmacy,-1.314757,36.791965,pharmacy
37, Kibra,Lindi,-1.31516185,36.79284123,c0dec00dd372b0199f46cf4ad5f15fbfe8af04a8,Good Shepherd Pharmacy,-1.3162915,36.78969289999999,pharmacy
38, Kibra,Lindi,-1.31516185,36.79284123,bd32013f144a515339b3b87def2f4e8f485c5d5e,La Dawa Sprout Pharmacy & Medical Clinic,-1.3147212,36.7964425,pharmacy
39, Kibra,Lindi,-1.31516185,36.79284123,db03904bc170751d7118c598c2ef3e0d055d1899,Molina Chemist,-1.3147323,36.79652319999999,pharmacy
