,constituency,ward,clat,clon,place_id,place_name,place_lat,place_long,place_type
0, Makadara,Maringo,-1.2920714,36.86572592,4c82b2671ffc90be31960113d2384d5d268e0558,Mission for Essential Drugs and Supplies,-1.3200995,36.867886,pharmacy
1, Makadara,Maringo,-1.2920714,36.86572592,2dda8d876f158a0393430c55bf25c3c4c75a7b5a,Yvonne Chemist,-1.2774223,36.8822649,pharmacy
2, Makadara,Maringo,-1.2920714,36.86572592,cf43e89e54deef6e79f9853c69f9ca1e7a0ea6ec,Haltons Pharmacy,-1.2957719,36.8607567,pharmacy
3, Makadara,Maringo,-1.2920714,36.86572592,a24d34b6af4b1c77cbe31bdf5a56501fe2272b54,Haltons Pharmacy,-1.2943096,36.8759617,pharmacy
4, Makadara,Maringo,-1.2920714,36.86572592,a1e18a8d9e5ade06e2816113c746090ab43f381c,Delton Pharmacy,-1.29562,36.877077,pharmacy
5, Makadara,Maringo,-1.2920714,36.86572592,36aded088bae80216d0b5c6944678276bf68c81a,Njimia Pharmaceutical,-1.2875316,36.88090160000001,pharmacy
6, Makadara,Maringo,-1.2920714,36.86572592,e635ecf29cb8a02f4f3f0a1d98e14dcb89907784,Eastleigh Pharmaceutical Ltd,-1.2779357,36.85174070000001,pharmacy
7, Makadara,Maringo,-1.2920714,36.86572592,67e4c307c0e9db396bb4b9bd8e29b1b1d0c69712,Haltons Pharmacy,-1.2841047,36.88709559999999,pharmacy
8, Makadara,Maringo,-1.2920714,36.86572592,e3ca215a91ada4ad4356d66fedef1b130f12eeac,Bimeda Limited,-1.3042489,36.8429983,pharmacy
9, Makadara,Maringo,-1.2920714,36.86572592,5ba797f91d35e2be39f49e06ad574dbf1966d3aa,Krishna Chemists,-1.2982678,36.8384866,pharmacy
10, Makadara,Maringo,-1.2920714,36.86572592,9be3cbb96203317101b2d952acd7ffd7ea9b58c8,Lued Chemicals Ltd,-1.2871957,36.8377883,pharmacy
11, Makadara,Maringo,-1.2920714,36.86572592,3f5a5f0ede80660e4f43018691067e7900246797,Kamed Pharm Limited,-1.2873893,36.8374477,pharmacy
12, Makadara,Maringo,-1.2920714,36.86572592,cdb4c64d081b2e843c3d5ca7138351c0a72b6192,Penda Chemist,-1.2777964,36.89288199999999,pharmacy
13, Makadara,Maringo,-1.2920714,36.86572592,c017f09e596c7616af9e7aa64e4fc95c3b86e920,Mike Chem Pharmacy,-1.2811228,36.8963116,pharmacy
14, Makadara,Maringo,-1.2920714,36.86572592,59547f80da47fb4e2c26513d4b2071656f65a617,Njimia Pharmaceuticals,-1.2852486,36.8316707,pharmacy
15, Makadara,Maringo,-1.2920714,36.86572592,c60a8ec4376ecb6afc94c4e1a88ee90821dbd286,Halton's Pharmacy,-1.3117324,36.8375672,pharmacy
16, Makadara,Maringo,-1.2920714,36.86572592,fb619bbcddb4e2acf6b87f950c975fb761e355f5,Goodlife Pharmacy Greenspan Mall,-1.2888641,36.9010449,pharmacy
17, Makadara,Maringo,-1.2920714,36.86572592,8742ebc068eeff235639c786d11055e1b70c6499,Haltons Pharmacy,-1.2883696,36.9010511,pharmacy
18, Makadara,Maringo,-1.2920714,36.86572592,ef894a1135e7e10d7b70af64c3b053eff00d37ab,Touchstone Pharmacy,-1.2782077,36.8325463,pharmacy
19, Makadara,Maringo,-1.2920714,36.86572592,364ece01e9929e8eb79234f4fa40042d9ad157dc,M-Pesa RangeChem,-1.2870626,36.8291334,pharmacy
20, Makadara,Maringo,-1.2920714,36.86572592,18368a2ef5b8efbe0a480600bd2a92a8de9b68d8,Jeys Pharmacy,-1.2775149,36.8308113,pharmacy
21, Makadara,Maringo,-1.2920714,36.86572592,d446b551009db09d50f1586764d6a0cb1f306b66,Haltons Pharmacy,-1.3138917,36.8958496,pharmacy
22, Makadara,Maringo,-1.2920714,36.86572592,016be2f19ae18c65aeb2cbb089ee7784d2f6cd20,Nairobi Veterinary Center,-1.287867,36.82748600000001,pharmacy
23, Makadara,Maringo,-1.2920714,36.86572592,75e8865d2cdb2a64adf2a19088287bf03947a394,Haltons Pharmacy,-1.2825185,36.9025585,pharmacy
24, Makadara,Maringo,-1.2920714,36.86572592,1c21f916d9d11a6a583297e0775618eac9a72917,Penta Pharm Limited,-1.2868857,36.8271961,pharmacy
25, Makadara,Maringo,-1.2920714,36.86572592,dd3511db6f7e3bc61e4c53782c7e5bfa60c97ff7,Descan Medicare,-1.2544883,36.8758571,pharmacy
26, Makadara,Maringo,-1.2920714,36.86572592,b2f2f387737d24fde79ce0ce753e0e84ded97ee3,Nila Chemist Wholesale and Retail,-1.2860453,36.8270928,pharmacy
27, Makadara,Maringo,-1.2920714,36.86572592,efdd9dc75e5b0d34198b159b6dc7c089c220af8c,Laboratory & Allied,-1.3312175,36.86502019999999,pharmacy
28, Makadara,Maringo,-1.2920714,36.86572592,2dbe3f3612fb6468c7a07214b168a4f36446b7b6,The New Lemuma Pharmacy,-1.2864603,36.8268283,pharmacy
29, Makadara,Maringo,-1.2920714,36.86572592,b0280c6981a4e5c9817a06c06168cb5de4bedf8a,Chemist Medipharm (EA Ltd),-1.286566,36.826746,pharmacy
30, Makadara,Maringo,-1.2920714,36.86572592,f3389a3ece0640079acd1d457ef18546c04bb9bd,Northern Pharmacy,-1.2859268,36.8265541,pharmacy
31, Makadara,Maringo,-1.2920714,36.86572592,afb57224ed19674ffcca3d5bc6265376910f9d18,East End Chemists Ltd,-1.3180449,36.895699,pharmacy
32, Makadara,Maringo,-1.2920714,36.86572592,ac3943a7bfa54af2e971b70f7845457de992a62b,drugs.co.ke,-1.2867996,36.82600559999999,pharmacy
33, Makadara,Maringo,-1.2920714,36.86572592,c2c3aee2c93c379c54a300623be20f520d5a457a,Inkamed Pharmaceuticals,-1.287495,36.8254463,pharmacy
34, Makadara,Maringo,-1.2920714,36.86572592,ef804512ef95083a5b8b32a6e9ccfb4a5e8cab95,Easton Pharmacy,-1.2868471,36.82536410000001,pharmacy
35, Makadara,Maringo,-1.2920714,36.86572592,431ae9f3fa7bdd3b804b7f200a234b23d388e69b,Eltons' Pharmacy Ltd,-1.2873677,36.8247303,pharmacy
36, Makadara,Maringo,-1.2920714,36.86572592,f0874632637ce79e1e98b6f0edb8d938ad297861,Viva Afya,-1.3196481,36.8963273,pharmacy
37, Makadara,Maringo,-1.2920714,36.86572592,d9a5c3f3ce0b3ebb6ef6ec543e6716485fb24d67,Viva Afya-Pipeline Pharmacy,-1.319629,36.896365,pharmacy
38, Makadara,Maringo,-1.2920714,36.86572592,c38016981d07fcb38f80fd390c1275c40dc8d163,Astrazeneca Chemist,-1.2818022,36.8249853,pharmacy
39, Makadara,Maringo,-1.2920714,36.86572592,02499beed24afb74e05241d52e10a1d9a4f65c72,Kam pharmacy,-1.284424,36.823318,pharmacy
40, Makadara,Maringo,-1.2920714,36.86572592,4b3ab1b0b23110506bc0b2b87ce4f7af3a17660f,Malibu Pharmacy Ltd,-1.2851585,36.8229522,pharmacy
41, Makadara,Maringo,-1.2920714,36.86572592,0b0aeb4702f053bd1426ee5227630c08b66f2004,St. Teresa Medicare,-1.2789564,36.90740290000001,pharmacy
42, Makadara,Maringo,-1.2920714,36.86572592,f9dd7302d753ea2084969e74dabaf28dd294d42f,Dischem Pharmacie,-1.282101,36.82303999999999,pharmacy
43, Makadara,Maringo,-1.2920714,36.86572592,53699e1683c1231c6ef27ddf05542b592c68dea1,Dr. Martin Otieno Oloo,-1.2860346,36.8219584,pharmacy
44, Makadara,Maringo,-1.2920714,36.86572592,2ed6525bd0990b3275f6499915f82572a96b2bc2,Jaste Top Pharmacy,-1.2931675,36.865608,pharmacy
45, Makadara,Maringo,-1.2920714,36.86572592,62aad2df3ee84ea666eb3351eb1748af8ba90a97,Uwezo Medical Services,-1.2932658,36.8654364,pharmacy
46, Makadara,Maringo,-1.2920714,36.86572592,5ce1d20b3f68c3e660ade4eea9dec34b29bd5fac,Lexus Chemist,-1.2934604,36.86499730000001,pharmacy
47, Makadara,Maringo,-1.2920714,36.86572592,fdd8d536e2b32f6784f30dc3c4863109d995f129,Maringo Medical Centre & Chemist,-1.2937363,36.865887,pharmacy
48, Makadara,Maringo,-1.2920714,36.86572592,1f46d4477b9916329efaf06b02481d622fbb0ca9,Rikipharm chemist,-1.2940292,36.861292,pharmacy
49, Makadara,Maringo,-1.2920714,36.86572592,1f6d7642be7923d2e3f0fe1c28d2bfea6d825147,Greenlanes Pharmacy,-1.2947412,36.86992070000001,pharmacy
50, Makadara,Maringo,-1.2920714,36.86572592,bb2fcfe699e7e2540c9af46c2f872d9c6166196d,Kikwetu Chemist,-1.2949549,36.8612562,pharmacy
51, Makadara,Maringo,-1.2920714,36.86572592,08c6cc51a132b3fb0d205e6929872be16be7b500,Rupa pharmacy,-1.2945153,36.8609816,pharmacy
52, Makadara,Maringo,-1.2920714,36.86572592,ee7545a3a5f31bbad2b5d75463263ff1ffeedf27,Alken Pharmaceuticals Ltd. Chemist Laboratory Services & Cosmetics,-1.2882344,36.8620322,pharmacy
53, Makadara,Maringo,-1.2920714,36.86572592,0e12f7664bab5c1c2eb2e3dfe667232808f2e795,Health Lane Chemist,-1.295771,36.8698141,pharmacy
54, Makadara,Maringo,-1.2920714,36.86572592,d1853bae3a98c3a24b781170554c05aa61ab7691,Alken Pharmacy,-1.2958695,36.8700343,pharmacy
55, Makadara,Maringo,-1.2920714,36.86572592,21c8f8e8d2d6ed1f0bcc90fd75ad6e5dd1f4598a,Translab Chemist,-1.2951401,36.86089500000001,pharmacy
56, Makadara,Maringo,-1.2920714,36.86572592,ba2371b009b88c9ca7530e5bc67e92ba30f84363,Narwa Chemist,-1.2953282,36.86085919999999,pharmacy
57, Makadara,Maringo,-1.2920714,36.86572592,72f1ef2d9a080ab57524dd2c50319e8d8f2e2a32,Gita Pharmacy K Limited,-1.2953436,36.86086149999999,pharmacy
58, Makadara,Maringo,-1.2920714,36.86572592,bf638cb7ffb5e236fed8f9b12bb984d96b4dd67e,Phamacy,-1.2951901,36.8601072,pharmacy
59, Makadara,Maringo,-1.2920714,36.86572592,1d2e9a8df0e7dafbee6ec9eb1bcd2b2688ed52b6,Citipharm Chemist,-1.2974667,36.869401,pharmacy
