,constituency,ward,clat,clon,place_id,place_name,place_lat,place_long,place_type
0, Westlands,Kitisuru,-1.2395542,36.7839651,3b818dfc2b3fe408a15b26b5a080f36c40f297af,School Library,-1.258007,36.7667322,library
1, Westlands,Kitisuru,-1.2395542,36.7839651,8895513ad0a94f06b2276cc1e9a88b380eb1f7ca,Nairobi School Library,-1.2580251,36.7667149,library
2, Westlands,Kitisuru,-1.2395542,36.7839651,d845700a7f831cd1681413904f62249e51e16cf4,The World's Loudest Library,-1.2626154,36.80373689999999,library
3, Westlands,Kitisuru,-1.2395542,36.7839651,8922273d03a10082af8f0bd1ce1745e77a73727f,KTTC Library,-1.241071,36.81527139999999,library
4, Westlands,Kitisuru,-1.2395542,36.7839651,028acecb7f6b93da757f56cd9ceae0d527521013,Kenya High School Library,-1.2748876,36.7810668,library
5, Westlands,Kitisuru,-1.2395542,36.7839651,3afe9074c93d331e816cb359e12a670facff58ba,Chiromo Campus Library,-1.2736159,36.8038996,library
6, Westlands,Kitisuru,-1.2395542,36.7839651,9e4e29046de3d9d2468dd4a9a23d53bbb220253c,KSG Library,-1.2393671,36.7439332,library
7, Westlands,Kitisuru,-1.2395542,36.7839651,d2c20cd05e666546a535e2ace1551179eafc288f,Chiromo Library University of Nairobi,-1.2738393,36.8039548,library
