,constituency,ward,clat,clon,place_id,place_name,place_lat,place_long,place_type
0, Lang'ata,Mugumoini,-1.1991235,36.846741200000004,a27d334f2a0ccdcc49791644a71cdbde7c95de34,"Ciata City Mall, Ridgeways",-1.2178709,36.8358656,shopping_mall
1, Lang'ata,Mugumoini,-1.1991235,36.846741200000004,387afd5ce776448f7cd0ce4e0e10a1ca67e3b909,Desert Traders,-1.2300554,36.8415828,shopping_mall
2, Lang'ata,Mugumoini,-1.1991235,36.846741200000004,1dd7613ba102ffeb7e973be333ac8ad381143f5d,Saldana Suppliers,-1.1690241,36.8264723,shopping_mall
3, Lang'ata,Mugumoini,-1.1991235,36.846741200000004,ab447e62820f13246b7008e540c7e9712f886388,Kiambu Mall,-1.1650622,36.82408299999999,shopping_mall
4, Lang'ata,Mugumoini,-1.1991235,36.846741200000004,8fed2bef8a2830b67b08ed44b52c409ebc62742e,Muteti Place Centre,-1.2023453,36.8408427,shopping_mall
5, Lang'ata,Mugumoini,-1.1991235,36.846741200000004,d352184476a4d5e97d6f702ef57c5448a326c5dd,TREEHOUSE APARTMENTS THINDIGUA,-1.2071433,36.84608829999999,shopping_mall
6, Lang'ata,Mugumoini,-1.1991235,36.846741200000004,31f89ab3f3ed530d0eefd640758b4ce29af729e2,CINTAKA,-1.1891805,36.8399397,shopping_mall
7, Lang'ata,Mugumoini,-1.1991235,36.846741200000004,fa41551ad989df60d9a734e7155835a3a25a18f8,Fathers Oasis Limited Flats,-1.2026883,36.8348441,shopping_mall
8, Lang'ata,Mugumoini,-1.1991235,36.846741200000004,de59bef5231668285e6a0ccee5cd7343973cc281,"Quickmart, Kiambu Road, Thindigua",-1.2022673,36.83306879999999,shopping_mall
9, Lang'ata,Mugumoini,-1.1991235,36.846741200000004,7e7af2049d0edf7f8a03a7f8d1e6abddb3708f9b,DAMASCUS ROAD,-1.2041793,36.8329166,shopping_mall
10, Lang'ata,Mugumoini,-1.1991235,36.846741200000004,bb33ffcd433ebfbd8f9b1762eaed2c23c0d967ea,lagran group limited,-1.2057018,36.832533,shopping_mall
11, Lang'ata,Mugumoini,-1.1991235,36.846741200000004,9fd3f4419068a6e8d239e160585769b5e7359b9b,Run Gas Thindigua,-1.2055197,36.8323959,shopping_mall
12, Lang'ata,Mugumoini,-1.1991235,36.846741200000004,a029cebb4552ea7ac6da7b7bc1f3bcf65b9817cb,Kasarini Trading Center,-1.2058117,36.8325093,shopping_mall
13, Lang'ata,Mugumoini,-1.1991235,36.846741200000004,dd7ca6f90178be527784da2f1a8af897da0bed69,Kungu Maitu apartments,-1.1772309,36.8400791,shopping_mall
14, Lang'ata,Mugumoini,-1.1991235,36.846741200000004,f335c9109796e04d59c84d6abbc703aaa09c1dde,Kinco complex,-1.2222552,36.8443081,shopping_mall
15, Lang'ata,Mugumoini,-1.1991235,36.846741200000004,80a9f7a37c5b09dc55f64ee520e9da1886c3aa75,Man Fashion b hz,-1.190861,36.8686178,shopping_mall
16, Lang'ata,Mugumoini,-1.1991235,36.846741200000004,059d7ffd59897d9dd59d43eee9e864324633b724,Amazing Grace Apartments,-1.2082516,36.86917739999999,shopping_mall
17, Lang'ata,Mugumoini,-1.1991235,36.846741200000004,de9ef2c341db7466f8299ba86af9d2d9114b62cf,Ridgeways Mall,-1.225263,36.839868,shopping_mall
18, Lang'ata,Mugumoini,-1.1991235,36.846741200000004,8d2752cf0eb38588ccb9e0a86886806148491873,ELLY'S BOOKSHOP AND STATIONERY,-1.1722114,36.8426975,shopping_mall
19, Lang'ata,Mugumoini,-1.1991235,36.846741200000004,2f38ccdf3fed895923aa73ba7f7efca7ec73c49a,Lucille Business Center,-1.1720771,36.8434218,shopping_mall
20, Lang'ata,Mugumoini,-1.1991235,36.846741200000004,3625df9d47dd76b5bf3ae22214c7bc779ec510ad,JAMU CEREALS,-1.2099561,36.8718525,shopping_mall
21, Lang'ata,Mugumoini,-1.1991235,36.846741200000004,9ddf303a06e0a2f2e2199a204e07e11a8419f100,JAYNE CEREALS,-1.2097094,36.87195980000001,shopping_mall
22, Lang'ata,Mugumoini,-1.1991235,36.846741200000004,59e2086c6a0e151eb2bf7a813782b1300a7414a8,"Makokha General shop, mpesa, etc",-1.2163062,36.8250128,shopping_mall
23, Lang'ata,Mugumoini,-1.1991235,36.846741200000004,5a8cec8c276bbdf4e279ae3a32ed697646f0dd7a,W3mall,-1.221208,36.86353539999999,shopping_mall
24, Lang'ata,Mugumoini,-1.1991235,36.846741200000004,968911c3e794bc4bcffa4c21cecc5c4fd9842321,Kamivillas Flats,-1.1710769,36.84314760000001,shopping_mall
25, Lang'ata,Mugumoini,-1.1991235,36.846741200000004,d1128338b7c25cc8a594cdc196ac78a2c9bfff15,Giteei Shopping Centre.,-1.1714459,36.8549962,shopping_mall
26, Lang'ata,Mugumoini,-1.1991235,36.846741200000004,3ce0d9320e612746aa6894f3613ed2f424219b87,WaJoe's Poshomill,-1.1706273,36.84110839999999,shopping_mall
27, Lang'ata,Mugumoini,-1.1991235,36.846741200000004,461ee97b0c15dcc724632f83483f7c5aefc04d1e,"Mustard Seed Shop, Bookshop and Mpesa",-1.215388,36.8224526,shopping_mall
28, Lang'ata,Mugumoini,-1.1991235,36.846741200000004,a3685843a0e2eac2286d5f77dad42e0a0b0bb36e,Ess Cereals Shop,-1.2104316,36.8743284,shopping_mall
29, Lang'ata,Mugumoini,-1.1991235,36.846741200000004,07036e1b9bf318e6dd09391ce07adf861410c6e7,Union apartments,-1.1691182,36.84229699999999,shopping_mall
30, Lang'ata,Mugumoini,-1.1991235,36.846741200000004,ffff650e8f72968cdefda79c39e339fdc3b6ce3f,Unique Stalls,-1.2294973,36.8412352,shopping_mall
31, Lang'ata,Mugumoini,-1.1991235,36.846741200000004,08a022e5a0e62bed43b8cea2e0269caac2794439,Milestone Business Centre,-1.2297385,36.84167619999999,shopping_mall
32, Lang'ata,Mugumoini,-1.1991235,36.846741200000004,8293c4e33baeba8397cef88d6f68df1b227b34e8,Vam Shopping Complex,-1.1713276,36.8280146,shopping_mall
33, Lang'ata,Mugumoini,-1.1991235,36.846741200000004,91595cbce035cc7c85982fc0c8a235b9ae777017,brooks animal feeds,-1.172621,36.82619299999999,shopping_mall
34, Lang'ata,Mugumoini,-1.1991235,36.846741200000004,087a7ef02ca6fc77beb3943171ab18c20318e321,Fireside Communications ltd,-1.1710795,36.8278972,shopping_mall
35, Lang'ata,Mugumoini,-1.1991235,36.846741200000004,2468b4c223995d0f090beb5734ab61fcb424fa06,Ngegu Shopping Centre,-1.1767745,36.8197914,shopping_mall
36, Lang'ata,Mugumoini,-1.1991235,36.846741200000004,35324e34f5fc196a97f87f3d445612a8320db8a4,Biz Hub Mall,-1.1692034,36.8279663,shopping_mall
37, Lang'ata,Mugumoini,-1.1991235,36.846741200000004,33aeafb0a06439d60145ba612cc7ae9452ae8c10,Xcite & Cool Scent,-1.1691715,36.82793809999999,shopping_mall
38, Lang'ata,Mugumoini,-1.1991235,36.846741200000004,d880a6b5222e3c676ac6060f44b62ee57a7d2b42,Pongezi Plaza,-1.1696237,36.8270352,shopping_mall
39, Lang'ata,Mugumoini,-1.1991235,36.846741200000004,aa8f457ae10ebe27a33bcbd4c87e08c3f1748f03,Pima Gas Ralu,-1.1689034,36.8275626,shopping_mall
