,constituency,ward,clat,clon,place_id,place_name,place_lat,place_long,place_type
0, Lang'ata,Nyayo Highrise,-1.31600475,36.80173345,2bb5ac5303a6d3d5f9717d8231aea3b57deb8fa7,NIC Bank Limited,-1.300464,36.822577,atm
1, Lang'ata,Nyayo Highrise,-1.31600475,36.80173345,1c91caea8610fb3cfda57573f1dc343e320b5adc,PesaPoint POS Arata Services - Prestige Plaza,-1.300695,36.787258,atm
2, Lang'ata,Nyayo Highrise,-1.31600475,36.80173345,94df6b55e0f17fcd5fb8825fd2a59324a156ab23,Co-operative Bank of Kenya,-1.2997621,36.8211883,atm
3, Lang'ata,Nyayo Highrise,-1.31600475,36.80173345,90a0e22aab4c455548668867b84bd749a24facd1,Equity Bank Equity Centre,-1.3010432,36.8123084,atm
4, Lang'ata,Nyayo Highrise,-1.31600475,36.80173345,bf9b7f91d5ce4f0d45aa8d8d42280af0bebd4e5d,Standard Chartered Bank ATM,-1.300419,36.80227299999999,atm
5, Lang'ata,Nyayo Highrise,-1.31600475,36.80173345,73da5d0cbcc255f7be7427359389b3f86b81217e,PesaPoint ATM KCB - NSSF Building,-1.291752,36.813812,atm
6, Lang'ata,Nyayo Highrise,-1.31600475,36.80173345,f63862eed820c3679edd3731fdd92d10722e8f96,KCB ATM - Uchumi Ngong Rd,-1.300019,36.790852,atm
7, Lang'ata,Nyayo Highrise,-1.31600475,36.80173345,adef063b8af3b86fa68e06f65048bbab2a3ae7a4,M-Pesa National Bank of Kenya,-1.2998679,36.8127653,atm
8, Lang'ata,Nyayo Highrise,-1.31600475,36.80173345,38905a3c5b0463ca614696da6b864b5e221b05d1,Barclays Bank ATM,-1.307458,36.8235755,atm
9, Lang'ata,Nyayo Highrise,-1.31600475,36.80173345,01ad4027577a16492dff8cb3f5096e70ea1ca630,PesaPoint ATM NIC - Masaba Road,-1.300448,36.822701,atm
10, Lang'ata,Nyayo Highrise,-1.31600475,36.80173345,d2f487e33f877c3f411af9e496f9ffbb4a2d1e44,Standard Chartered Bank ATM,-1.2954271,36.8014744,atm
11, Lang'ata,Nyayo Highrise,-1.31600475,36.80173345,0bb3471f2f968714381c018bb445a7b8e8cc2fac,Barclays Bank ATM,-1.3004378,36.7868507,atm
12, Lang'ata,Nyayo Highrise,-1.31600475,36.80173345,fd373af65d33fb304b935e2caecb3923e675fe2c,PesaPoint ATM KCB - Prestige,-1.300394,36.786829,atm
13, Lang'ata,Nyayo Highrise,-1.31600475,36.80173345,263094760dd2cc968a0badee1991e7cd931b7160,Standard Chartered Bank ATM,-1.30184,36.825404,atm
14, Lang'ata,Nyayo Highrise,-1.31600475,36.80173345,29e78d84a9911c4574614727863c263cf1d9ea4d,Standard Chartered Bank ATM,-1.312484,36.816698,atm
15, Lang'ata,Nyayo Highrise,-1.31600475,36.80173345,b7baed95e1232473558a93091a6c1830ad99238e,PesaPoint ATM Madaraka,-1.312515,36.816794,atm
16, Lang'ata,Nyayo Highrise,-1.31600475,36.80173345,11337e56dd35ad473f748944695b430336d768e4,PesaPoint ATM KCB - Nairobi West,-1.307787,36.822564,atm
17, Lang'ata,Nyayo Highrise,-1.31600475,36.80173345,f724af662723138ae1e582ff7613489337374503,Standard Chartered Bank ATM,-1.300228,36.787298,atm
18, Lang'ata,Nyayo Highrise,-1.31600475,36.80173345,1423fe5dc67b0fcf88d2bbfd8e4e4b2d881b84e3,PesaPoint ATM DTK - Capital Centre,-1.306964,36.828038,atm
19, Lang'ata,Nyayo Highrise,-1.31600475,36.80173345,997d02fa8d81f186688f2b485ea000ecd908dccf,M-Pesa Equity Bank,-1.2946293,36.8126817,atm
20, Lang'ata,Nyayo Highrise,-1.31600475,36.80173345,e43523f43e31b9380af2ec07a1fb06cfba4fe509,PesaPoint ATM Capital Centre,-1.306937,36.828065,atm
21, Lang'ata,Nyayo Highrise,-1.31600475,36.80173345,349f77103d01b03b8f963fc52c9ab609c476de48,NIC Bank ATM,-1.2930422,36.7880201,atm
22, Lang'ata,Nyayo Highrise,-1.31600475,36.80173345,4aa9664c7db6b7c72ef91419df77da4b67deea03,NIC Bank ATM,-1.3003091,36.78696869999999,atm
23, Lang'ata,Nyayo Highrise,-1.31600475,36.80173345,217e8b2823cf1dd889cf91a41eeea0a2bddd6a9c,Standard Chartered Bank ATM,-1.30004,36.79009,atm
24, Lang'ata,Nyayo Highrise,-1.31600475,36.80173345,2fd267d99e6eedac7c345b5a3355200af937b009,National Bank Atm,-1.3002072,36.8079543,atm
25, Lang'ata,Nyayo Highrise,-1.31600475,36.80173345,03aef625207001016141015a3f92f30c4c234777,PesaPoint ATM NIC - Hurlingham,-1.2949241,36.800198,atm
26, Lang'ata,Nyayo Highrise,-1.31600475,36.80173345,0afc478d70e44afa6ac96bd476e6b5cb32707ece,PesaPoint ATM NIC - Uchumi Langata,-1.324271,36.803104,atm
27, Lang'ata,Nyayo Highrise,-1.31600475,36.80173345,1eec516142914d09aca776d9e8d6f4c0dc9a9f6b,PesaPoint ATM NIC - Capital Centre,-1.307176,36.828226,atm
28, Lang'ata,Nyayo Highrise,-1.31600475,36.80173345,5bc554694dc70fbc1a23fd3c6a2c1051ee8df997,PesaPoint ATM KCB - Langata Uchumi,-1.32426,36.803126,atm
29, Lang'ata,Nyayo Highrise,-1.31600475,36.80173345,6d41c360285a868179476f75fab11cad74a71183,Ecobank ATM,-1.3094121,36.8221513,atm
30, Lang'ata,Nyayo Highrise,-1.31600475,36.80173345,ec0599ac95f8379d4c26a6ac8ce1336059167253,Equity Bank Community,-1.2926925,36.8129556,atm
31, Lang'ata,Nyayo Highrise,-1.31600475,36.80173345,9b09dc940df82dbbc2de7ed5f7806c1f428ce434,PesaPoint ATM NIC - Prestige,-1.30047,36.78702200000001,atm
32, Lang'ata,Nyayo Highrise,-1.31600475,36.80173345,3f54dd3e2201e2b07d668065813180c1205a105d,PesaPoint ATM KCB - Uchumi,-1.323724,36.802842,atm
33, Lang'ata,Nyayo Highrise,-1.31600475,36.80173345,3cbb1c25a9eedaac7bbea8ebfa7342f7e9006d01,KCB ATM - Uchumi Langata Rd,-1.32419,36.80306100000001,atm
34, Lang'ata,Nyayo Highrise,-1.31600475,36.80173345,cec532e63ba465154dda3bd971ab8be4a8decd90,Equity Bank ATM,-1.3076082,36.8021343,atm
35, Lang'ata,Nyayo Highrise,-1.31600475,36.80173345,112ee32807813e8dd7542d60d92b405688ef8a6a,Co-op Bank ATM - Kenyatta Market Branch,-1.3070438,36.8024075,atm
36, Lang'ata,Nyayo Highrise,-1.31600475,36.80173345,5af076ef442e5b0777ce0f2d3001058fd39b4177,PesaPoint ATM Prestige,-1.30014,36.78702699999999,atm
37, Lang'ata,Nyayo Highrise,-1.31600475,36.80173345,3bfb9e39a3c361b382a707a2d60a0e315d820cdb,Standard Chartered Bank ATM 1,-1.292827,36.787954,atm
38, Lang'ata,Nyayo Highrise,-1.31600475,36.80173345,7668d72891f4c9c400c93cc8cb59f030854a981c,Kenya Comercial Bank ATM,-1.312696,36.81668519999999,atm
39, Lang'ata,Nyayo Highrise,-1.31600475,36.80173345,d0753db72f97ec966b4cb89202d4d9ebfb1b5490,Co-op Bank ATM - Tuskys T - Mall Branch,-1.3124449,36.8166618,atm
40, Lang'ata,Nyayo Highrise,-1.31600475,36.80173345,63627284fc04609f3ac8f092510091ae2db5df45,Cooperative Bank ATM,-1.3125878,36.8167201,atm
41, Lang'ata,Nyayo Highrise,-1.31600475,36.80173345,d978f5296cee97cd32ec6f56be2b3e4f04731140,National Bank ATM-T-MALL,-1.312456,36.816789,atm
42, Lang'ata,Nyayo Highrise,-1.31600475,36.80173345,724170c235d78f12e9f5d22b3702470b1f5ea0c6,PesaPoint ATM KCB - Kenyatta National Hospital,-1.300941,36.807771,atm
43, Lang'ata,Nyayo Highrise,-1.31600475,36.80173345,166f67a612c784cae9ad963f2c7e9095a307d743,Co-op Bank ATM - KNH Branch,-1.3001838,36.8079821,atm
44, Lang'ata,Nyayo Highrise,-1.31600475,36.80173345,c28b04cb5497c01d09ba0781d4545170e45d3ba0,Equity Bank,-1.2950426,36.8001866,atm
45, Lang'ata,Nyayo Highrise,-1.31600475,36.80173345,3ec6ac9b24c2cb2c3a2b1ae454a61bf7760181df,Standard Chartered Bank ATM,-1.307569,36.823318,atm
46, Lang'ata,Nyayo Highrise,-1.31600475,36.80173345,bcb24a3094b4dd99687df3b69fd61551523de910,Co-op Bank ATM - Nairobi Business Centre Branch,-1.2993774,36.7969188,atm
47, Lang'ata,Nyayo Highrise,-1.31600475,36.80173345,f72864f5a773d555857b761544b3198c22ea033f,Airtel Money Agent-Gospel Church Of God,-1.3011815,36.81156860000001,atm
48, Lang'ata,Nyayo Highrise,-1.31600475,36.80173345,5f8e7eb650ab6d47f346ed08c75892ef44dc1954,PesaPoint ATM KCB - Kanu Street,-1.291513,36.806076,atm
49, Lang'ata,Nyayo Highrise,-1.31600475,36.80173345,975e331a2661e0db6d90628c0312425cbe6f2be6,KCB ATM,-1.292993,36.78802,atm
50, Lang'ata,Nyayo Highrise,-1.31600475,36.80173345,d5465eb65d3156ac42ab6105c57461f64c88d869,Co-op Bank ATM - Total Hurlingham Branch,-1.295471,36.8016122,atm
51, Lang'ata,Nyayo Highrise,-1.31600475,36.80173345,85ba3d74b7007503bb5c1d4bc040eb3b3be1c5c0,NIC Bank ATM,-1.2954207,36.8016055,atm
52, Lang'ata,Nyayo Highrise,-1.31600475,36.80173345,54d1062820fc9d313c08a192a43cac704c30fc73,Chase Bank ATM-Total Madaraka,-1.3061431,36.8200595,atm
53, Lang'ata,Nyayo Highrise,-1.31600475,36.80173345,39316572796fcf54e0f6bd03bc82cc6a9869427a,KCB ATM - Kenol Hurlingham,-1.2950064,36.8002128,atm
54, Lang'ata,Nyayo Highrise,-1.31600475,36.80173345,fa1d1b695e2f7907c1aff4f939c41d3a6fa3b279,PesaPoint ATM KCB - Capital Centre,-1.306894,36.828124,atm
55, Lang'ata,Nyayo Highrise,-1.31600475,36.80173345,20f516d0adda2be627e3c4cf93d5c254bfce1084,Equity Bank ATM,-1.2994983,36.7870317,atm
56, Lang'ata,Nyayo Highrise,-1.31600475,36.80173345,08dcadbad51b3842c36bd6257f7caa34f95396b0,National Bank ATM-Nairobi West,-1.3078522,36.822461,atm
57, Lang'ata,Nyayo Highrise,-1.31600475,36.80173345,6f9f6a02b877c65a2045c4558144a992ab3f04ae,Co-op Bank ATM - Kibera Branch,-1.3096214,36.78034459999999,atm
58, Lang'ata,Nyayo Highrise,-1.31600475,36.80173345,948815d063c9861ce6fb9eded47b3a104a3f21aa,KCB ATM,-1.307817,36.822609,atm
59, Lang'ata,Nyayo Highrise,-1.31600475,36.80173345,d5c3f92d83e6d79bb78820c5d35d297a11427581,Co-op Bank ATM - Upper Hill Branch,-1.2987109,36.81623190000001,atm
