,constituency,ward,clat,clon,place_id,place_name,place_lat,place_long,place_type
0, Makadara,Makongeni,-1.2873101,36.87210716,88b462bc62204289d8777c5025218fc65b922b2e,Recilia Basket,-1.2958578,36.889405,shopping_mall
1, Makadara,Makongeni,-1.2873101,36.87210716,c4f5a48382696e8113b94a24b00aef1e7b4f479c,The Point Mall Buruburu,-1.2939241,36.87591340000001,shopping_mall
2, Makadara,Makongeni,-1.2873101,36.87210716,23af5665c3b90c9be2cbffaf730aa47d38869f84,mwannim floors and walls,-1.291753,36.841664,shopping_mall
3, Makadara,Makongeni,-1.2873101,36.87210716,e2069400214ffd3502fe9aab0bcc3da2a0d28229,Barclays house,-1.2739657,36.8497983,shopping_mall
4, Makadara,Makongeni,-1.2873101,36.87210716,3e49abd8d0321d5e47318f07446e6435ca747cda,Cuatro Bro Company Limited,-1.2784148,36.9004406,shopping_mall
5, Makadara,Makongeni,-1.2873101,36.87210716,ca71a3ad7de781c2e4634c4fd1e34276d4136b24,Young Traders Building,-1.2923773,36.8419788,shopping_mall
6, Makadara,Makongeni,-1.2873101,36.87210716,c54ba7f8b24a2da350cbf3b2d3c96c5da216fca6,JOTICH ENTERPRISES,-1.2884196,36.8410608,shopping_mall
7, Makadara,Makongeni,-1.2873101,36.87210716,caf6b51894c186a23a996ee289903656db1f012e,Muthurwa Shopping Complex,-1.2874633,36.8379964,shopping_mall
8, Makadara,Makongeni,-1.2873101,36.87210716,dc41037a6087495a0a39eddd1236e664d0fce1ca,Shujaa Mall,-1.2810523,36.9057543,shopping_mall
9, Makadara,Makongeni,-1.2873101,36.87210716,46a909ffd16864fd4360d41a409e14c978e97607,LAVISTER ENTERPRISES,-1.3070263,36.8439965,shopping_mall
10, Makadara,Makongeni,-1.2873101,36.87210716,f5277024a405852850f8694181c84578bfc4f6a8,Fab Communications,-1.278499,36.907423,shopping_mall
11, Makadara,Makongeni,-1.2873101,36.87210716,d92b1b93f3e2862c0f021467eb325c8d9a92c717,Tiiga -Living your dreams,-1.3214344,36.85459729999999,shopping_mall
12, Makadara,Makongeni,-1.2873101,36.87210716,d15e1954957a7c4aa30b213dbed26ad929efecde,K-MALL,-1.2668435,36.9054594,shopping_mall
13, Makadara,Makongeni,-1.2873101,36.87210716,489b0fdf09f268290a909c12deaed323128e9264,Ukwala house,-1.2852711,36.8319333,shopping_mall
14, Makadara,Makongeni,-1.2873101,36.87210716,0ec73885b32efb2769503cd410ebd6b1fc4cb25e,Mid Plaza,-1.282158,36.830457,shopping_mall
15, Makadara,Makongeni,-1.2873101,36.87210716,f35f784d80bb53b41d084bdf0f5fbb7779bf4944,Intelly Wave Tech,-1.284233,36.830184,shopping_mall
16, Makadara,Makongeni,-1.2873101,36.87210716,2ea4aad5a78dea41864f9954bdc177252daedabb,Mama Leo's shop,-1.3171149,36.9019279,shopping_mall
17, Makadara,Makongeni,-1.2873101,36.87210716,ce44912bfd8c6f434e42644f94f42e4044dd93e7,Timed Enterprises,-1.2866307,36.8297338,shopping_mall
18, Makadara,Makongeni,-1.2873101,36.87210716,f84edb20db3e7fb1b5a22c17505365ad6d0c98d7,Costwise Electricals,-1.2829381,36.82961219999999,shopping_mall
19, Makadara,Makongeni,-1.2873101,36.87210716,afedd164cdc84958cb783ad909b0daf371fd83aa,GATOYO ENTERPRISES NELLEA PLAZA NGARA,-1.2779502,36.8294334,shopping_mall
20, Makadara,Makongeni,-1.2873101,36.87210716,bc25c7f4976f5e4bbdc1293480856372ac94c089,sunda housemart kenya,-1.3210425,36.90011500000001,shopping_mall
21, Makadara,Makongeni,-1.2873101,36.87210716,c6442303226435e0f56f4572fdaa5c8cd16244d0,Oretin,-1.3268747,36.8527485,shopping_mall
22, Makadara,Makongeni,-1.2873101,36.87210716,e5b3f4cae8e9ef83badcecb5e139db21abe92644,Sawah Store,-1.3268955,36.8526944,shopping_mall
23, Makadara,Makongeni,-1.2873101,36.87210716,28d417989333431c6e4304195569ced835f119b0,Drymz Enterprises,-1.2846664,36.8279918,shopping_mall
24, Makadara,Makongeni,-1.2873101,36.87210716,1a56f5f0159587cc565c71ae7b72f86a2887702e,FASAM,-1.2772922,36.8290579,shopping_mall
25, Makadara,Makongeni,-1.2873101,36.87210716,9009331339f13e915962e9f4f56311a6dfadab55,Burale 254,-1.2841915,36.8278878,shopping_mall
26, Makadara,Makongeni,-1.2873101,36.87210716,9d3ca660b448066848884498771daca5e665f84c,TEAMSMART,-1.3309959,36.8811914,shopping_mall
27, Makadara,Makongeni,-1.2873101,36.87210716,49bd09bc62e5a9016b1822df73f1da30d24d9288,Toprank Shop,-1.2756189,36.828775,shopping_mall
28, Makadara,Makongeni,-1.2873101,36.87210716,b9b4e736474728684073d83b42a203108a65391c,Autobahn Motor Spares Ltd,-1.280972,36.82765899999999,shopping_mall
29, Makadara,Makongeni,-1.2873101,36.87210716,7301fb2db60f7a9b379d5fcc9bd264539bf3d7e6,Kalsi House,-1.2846459,36.8272055,shopping_mall
30, Makadara,Makongeni,-1.2873101,36.87210716,56c5bbf9cc7082a3b6f283caf5a8ed630c491d0f,Nawal Medix Ofafa M-pesa,-1.286333,36.8708146,shopping_mall
31, Makadara,Makongeni,-1.2873101,36.87210716,0c101f5ca2acef4475422e6564cb1c36833be60e,"Enl Shop Buru,selling Hotel Appliance",-1.283979,36.8690533,shopping_mall
32, Makadara,Makongeni,-1.2873101,36.87210716,e6e644a9376b9b58620db9f17bc178014d97c737,Lumumba Shopping Centre,-1.2920171,36.8703113,shopping_mall
33, Makadara,Makongeni,-1.2873101,36.87210716,6f6c01d9deb4afa0465d5cc9f3fecc5a463a0143,EugenegArts Shop,-1.2860763,36.8669002,shopping_mall
34, Makadara,Makongeni,-1.2873101,36.87210716,0f121b557125f1e2dfe1b6a053e601c9d4f57e3e,Nguruman Court,-1.28383,36.87711700000001,shopping_mall
35, Makadara,Makongeni,-1.2873101,36.87210716,88c12d35fc177248c71896dd7777ebb83a5ddd99,Mesora shoping center,-1.2849124,36.87804850000001,shopping_mall
36, Makadara,Makongeni,-1.2873101,36.87210716,6d428b37d3183c4f82d40d5edcbd5436cf4771a3,Friends Shop Kiambiu,-1.281116,36.867735,shopping_mall
37, Makadara,Makongeni,-1.2873101,36.87210716,6d03d4cdc5ea4cfcac1eff38f7ed074a5589c868,The POINT NAIVAS BURU BURU HAMZA,-1.2939482,36.87591440000001,shopping_mall
38, Makadara,Makongeni,-1.2873101,36.87210716,4f266d3c6637cef8981f54ec80cdbacaff302230,Nairobi Water Buruburu,-1.2941501,36.87601910000001,shopping_mall
39, Makadara,Makongeni,-1.2873101,36.87210716,f713a44f7c0311c56760d0b747d7694de5589fa3,Thaisu Kisukioni,-1.2845125,36.8795219,shopping_mall
