,constituency,ward,clat,clon,place_id,place_name,place_lat,place_long,place_type
0, Kasarani,Clay City,-1.2208721000000002,36.9012224,845e14d904a1b3cc99c0c15cdc71707b849135a0,Shacs Gym And Fitness Centre,-1.2180147,36.896034,gym
1, Kasarani,Clay City,-1.2208721000000002,36.9012224,6b7efea99e004bc9c3866eb8f3f29d4d8ed2b571,KalFitness Gym,-1.2120808,36.8933504,gym
2, Kasarani,Clay City,-1.2208721000000002,36.9012224,9d2c1be4fd1ce30f26bfdf02ecf4731e700ec992,Oilibya Babadogo,-1.20802,36.914266,gym
3, Kasarani,Clay City,-1.2208721000000002,36.9012224,4f230b2a1e0f1d344a15d47b709bd49cb20c3b79,Sanctuary of Truth Centre Ministries,-1.2388591,36.89077209999999,gym
4, Kasarani,Clay City,-1.2208721000000002,36.9012224,a3ffdc587f44618fe4a61396cfb4df3b2af5502b,Blaklite Fitness Centre,-1.233747,36.88483849999999,gym
5, Kasarani,Clay City,-1.2208721000000002,36.9012224,299a065fb428be11efcc76d9d6ef388ac360ea29,Eurobond Kinyozi,-1.2048259,36.9172185,gym
6, Kasarani,Clay City,-1.2208721000000002,36.9012224,ea10e0629d668aef3bbc73e70bd9156cb09d47d1,Genesis Fitness Centre,-1.182889,36.90028799999999,gym
7, Kasarani,Clay City,-1.2208721000000002,36.9012224,cc9f23629c3e63dca468c2ff7c107084dda735da,Qwetu | Student Residences | Ruaraka,-1.2469296,36.8707706,gym
8, Kasarani,Clay City,-1.2208721000000002,36.9012224,98e0722ae577c12a448ffd713fb63f28f21470e1,KELCO PRO GYM,-1.1914404,36.9317616,gym
9, Kasarani,Clay City,-1.2208721000000002,36.9012224,a2166a10e25c2a02732a8938e2d258300ea8a844,Zoezi Fitness,-1.218849,36.9014179,gym
10, Kasarani,Clay City,-1.2208721000000002,36.9012224,25dc9941262bb3e140f41f5c0bcaa2c6c3a0842e,Kasarani Sports View Gym,-1.223225,36.8996644,gym
11, Kasarani,Clay City,-1.2208721000000002,36.9012224,947914914f2475ff55e4813928bd4edc26428e0b,Kasarani Gym,-1.21772,36.9012341,gym
12, Kasarani,Clay City,-1.2208721000000002,36.9012224,011130f1ef14a5ab448058ae17fae396492d32d3,Elite Fitness Centre,-1.2175773,36.90344789999999,gym
13, Kasarani,Clay City,-1.2208721000000002,36.9012224,5119a72e55bb1619c2ab555e560ff744363aa81e,BODYFIT GYM KASARANI,-1.2172662,36.90324409999999,gym
14, Kasarani,Clay City,-1.2208721000000002,36.9012224,0fa7ff35457db168679394773396703071d95c60,Tina Fitness Center,-1.2160627,36.9022359,gym
15, Kasarani,Clay City,-1.2208721000000002,36.9012224,69ff4e48f454a6a8174e8b7f094fd42971b7f64d,B$C Barbers And SPA,-1.2246195,36.8963267,gym
16, Kasarani,Clay City,-1.2208721000000002,36.9012224,7e7c7bb505501bfe3198279b8f6e525cf1af3bdd,Kasarani GoodLife Fitness Center & Gym,-1.22,36.894302,gym
17, Kasarani,Clay City,-1.2208721000000002,36.9012224,28191a5af5e3749c9eddd9a2026c56c9e994b5c5,DImanga Gym,-1.2194616,36.9088721,gym
18, Kasarani,Clay City,-1.2208721000000002,36.9012224,59478bc220b7476f20d627735a764d1623875a48,Divas Beauty parlour & salon,-1.2126981,36.8939084,gym
19, Kasarani,Clay City,-1.2208721000000002,36.9012224,34ebe5f942306ffb4f71bb2498af0cc03ec595ae,Zimmer Fitness Centre,-1.2100969,36.896899,gym
20, Kasarani,Clay City,-1.2208721000000002,36.9012224,b713254c235f9a9d89d6de04169bcc97eb2c730b,Zimm Aerobics,-1.2120796,36.89348760000001,gym
21, Kasarani,Clay City,-1.2208721000000002,36.9012224,65079a2dee17a4ab91f43f1526a0aa7a5cb49453,Easy gym,-1.219026,36.8880938,gym
22, Kasarani,Clay City,-1.2208721000000002,36.9012224,d8d5295d183dc3180d2898d07217478563bda629,Easy Gym- Thika Road Mall (TRM),-1.2195214,36.8880219,gym
23, Kasarani,Clay City,-1.2208721000000002,36.9012224,1c4aeba88b1f4d60ad3a784e15bfd6afc73de32f,Wab Aerobics And Gym,-1.2152392,36.8889785,gym
24, Kasarani,Clay City,-1.2208721000000002,36.9012224,96949b488907c7f575ac354c666a6ab2d374eb38,Hevensis Gym-roysambu,-1.2188769,36.8876524,gym
25, Kasarani,Clay City,-1.2208721000000002,36.9012224,1e86b7d28816636c1857cbdff6121d3d90fd59e3,Wab appartment,-1.2184586,36.8869064,gym
26, Kasarani,Clay City,-1.2208721000000002,36.9012224,0ef1ac43602d6d224bdf15315843ff8ed2fa7517,Safara Gym,-1.2160762,36.8874087,gym
27, Kasarani,Clay City,-1.2208721000000002,36.9012224,c15c39620d0b88d5eed592e69cf4fb3d9a18ddb5,Joash Apartments,-1.2191749,36.9162671,gym
28, Kasarani,Clay City,-1.2208721000000002,36.9012224,95c7c0b8f80a0cc9d3343aa15b06bfe05bbb83a4,Ken Ben And Nyamu Dam,-1.2103852,36.912431,gym
29, Kasarani,Clay City,-1.2208721000000002,36.9012224,14dd95273c9647d43d060b0121550484d3b53278,Ruflo Fitness Centre,-1.2057879,36.8962727,gym
30, Kasarani,Clay City,-1.2208721000000002,36.9012224,88f95f39f409857a7d91803632ce36da70f5ef44,Wazito Fitness Gym,-1.2378276,36.9034483,gym
31, Kasarani,Clay City,-1.2208721000000002,36.9012224,bb24948f142263cd96070d8772ff0628a5a0dd7e,FIT 'N' FUN CLUB,-1.2107708,36.88644600000001,gym
32, Kasarani,Clay City,-1.2208721000000002,36.9012224,76581c547295cb4c007cd56caf23e8e317f9b170,Steel City Gym.,-1.2391133,36.8944551,gym
33, Kasarani,Clay City,-1.2208721000000002,36.9012224,79354ca56c60279e5ff81858c0074ea28b20e79a,Beauty Spot Gym,-1.2226073,36.9206993,gym
34, Kasarani,Clay City,-1.2208721000000002,36.9012224,f81c4c37b3fd3188e3270ea3ff09842273f727ba,Lucky Summer Gym,-1.2404406,36.89873389999999,gym
35, Kasarani,Clay City,-1.2208721000000002,36.9012224,e49c71eaca4c35c978e53af80b32ce5ddedc759b,NDAGO APARTMENT,-1.2406778,36.89974290000001,gym
36, Kasarani,Clay City,-1.2208721000000002,36.9012224,9a2f4f766b922a82714ef9eec7207bc671104087,WASWARISE FITNESS TRAINING INSTITUTE,-1.2053412,36.9135832,gym
37, Kasarani,Clay City,-1.2208721000000002,36.9012224,76aeec36db230156ceea72f7a757913a8e10789b,Barstarzz Health and Fitness Center-Gym,-1.2010589,36.8991353,gym
38, Kasarani,Clay City,-1.2208721000000002,36.9012224,51a8aac0fb66454bb334f1e515a90905731faa09,2nd Street Off Road,-1.2296009,36.9192549,gym
39, Kasarani,Clay City,-1.2208721000000002,36.9012224,3f34b8754f2f4599dce6f42ef325c9bac2d9cb28,Ebony Eye Gym,-1.2079935,36.9167179,gym
