,constituency,ward,clat,clon,place_id,place_name,place_lat,place_long,place_type
0, Ruaraka,Mathare North,-1.251788,36.87077217,f8687f2956ecc051825f9cc829a5ce2faea2f0fb,Consulate of Lebanon,-1.2455261,36.8688525,embassy
1, Ruaraka,Mathare North,-1.251788,36.87077217,d883028a8aede8faf21b867da6907f22a06d2944,Honorary Consulate Of Lebanon,-1.245525,36.86782,embassy
2, Ruaraka,Mathare North,-1.251788,36.87077217,6e0c52f175542394b11386b37390d26c10cbb70b,Brazillian Embassy Kenya,-1.2626925,36.8417233,embassy
3, Ruaraka,Mathare North,-1.251788,36.87077217,a7c4e1eda7fa4c52b75690c2b7294fc306bd1ca4,Embassy Of Algeria,-1.261341,36.840889,embassy
4, Ruaraka,Mathare North,-1.251788,36.87077217,800164dd13a66390314750543254c20e753dac22,Embassy of Algeria,-1.2613421,36.8395201,embassy
5, Ruaraka,Mathare North,-1.251788,36.87077217,4e09a694f659e16d8985f9a4f5b89e9cbdad331b,Embassy of Saudi Arabia,-1.2606139,36.8370121,embassy
6, Ruaraka,Mathare North,-1.251788,36.87077217,e665b8d8122544653a3e78c89e9f1dac4ebdadb9,Royal Embassy Of Saudi Arabia,-1.261818,36.837326,embassy
7, Ruaraka,Mathare North,-1.251788,36.87077217,6523633dd92e58bfddffbc3bbd277e494d111be1,Embassy of the state of Kuwait,-1.2599359,36.83493199999999,embassy
