,constituency,ward,clat,clon,place_id,place_name,place_lat,place_long,place_type
0, Embakasi Central,Spring Valley,-1.2477029,36.789235600000005,4678cc162e270cde9254023b9ef0cb73f9e2474f,"Warwick Centre, Gigiri.",-1.235574,36.811389,shopping_mall
1, Embakasi Central,Spring Valley,-1.2477029,36.789235600000005,beda60ff462b7f62e443a1c7ff5d0f4c1d5b8e86,Westgate Shopping Mall,-1.2572267,36.8032074,shopping_mall
2, Embakasi Central,Spring Valley,-1.2477029,36.789235600000005,3ead2390ec60bb4097b34cc513bb4ab216821a09,Mpaka Plaza,-1.2647083,36.8050588,shopping_mall
3, Embakasi Central,Spring Valley,-1.2477029,36.789235600000005,33aa0848e98aec8c36fc1b42b1fde61bb9fa8e0f,Viking House,-1.2643854,36.8011288,shopping_mall
4, Embakasi Central,Spring Valley,-1.2477029,36.789235600000005,9560a37f5fa6524b82d20e8a18388929fc3766ef,Escapade Fashions,-1.2648789,36.80077199999999,shopping_mall
5, Embakasi Central,Spring Valley,-1.2477029,36.789235600000005,347c68b61e8b465ef7020f4c8b4c78e39cedb400,MediaSpace Kenya,-1.2623056,36.7973114,shopping_mall
6, Embakasi Central,Spring Valley,-1.2477029,36.789235600000005,a241e173d165e0787a3754809d7ebac94e346783,"Sarit, your city!",-1.2610974,36.8019788,shopping_mall
7, Embakasi Central,Spring Valley,-1.2477029,36.789235600000005,245361cea774f4ce26ebc59c9d919a6852cab7b0,Mosquito Specialists Kenya,-1.2669169,36.7936942,shopping_mall
8, Embakasi Central,Spring Valley,-1.2477029,36.789235600000005,52cea94c652095217d5f96ade83a8e68455c3e06,Gigiri Shopping Centre,-1.2374187,36.81015639999999,shopping_mall
9, Embakasi Central,Spring Valley,-1.2477029,36.789235600000005,800fe4e6ed895ba3682a8fa0ce97fb3102288ecb,Gigiri Square,-1.2361074,36.8112125,shopping_mall
10, Embakasi Central,Spring Valley,-1.2477029,36.789235600000005,9cc932e8d73866f08957b8f0c09e4089ae628499,Nunuza Stores Ltd.,-1.268732,36.809501,shopping_mall
11, Embakasi Central,Spring Valley,-1.2477029,36.789235600000005,2023318b6df8a426978237ce7a93662dd08ca703,Khushbu Plaza & Residency,-1.2613078,36.8167906,shopping_mall
12, Embakasi Central,Spring Valley,-1.2477029,36.789235600000005,7ffb962f5d10bba34e12e0661175c067f807bd9a,Morganite Limited,-1.2828276,36.791849,shopping_mall
13, Embakasi Central,Spring Valley,-1.2477029,36.789235600000005,3bcc5c6c8c0373694ec3887a3d33a61f095ca140,Ukken Imports Ltd,-1.2572056,36.824606,shopping_mall
14, Embakasi Central,Spring Valley,-1.2477029,36.789235600000005,6b4b6ec58cf475bbad7763709fb317438b380f82,Two Rivers Mall,-1.210846,36.7946976,shopping_mall
15, Embakasi Central,Spring Valley,-1.2477029,36.789235600000005,93eddb1efd06ead42d55bc92993a311b4b3f9432,Sky Mall,-1.2571961,36.8180089,shopping_mall
16, Embakasi Central,Spring Valley,-1.2477029,36.789235600000005,093ae5650a13ad5447219e8fe2aad3aa7d964346,Quick Mart Ruaka,-1.2068367,36.7834295,shopping_mall
17, Embakasi Central,Spring Valley,-1.2477029,36.789235600000005,2cb0bc9369ddd3787a35b602c11e07198e5787bd,Althaus Services Limited,-1.2822691,36.7665787,shopping_mall
18, Embakasi Central,Spring Valley,-1.2477029,36.789235600000005,0171b7334237fabeec180777180309411a19725f,Ruaka Square,-1.2062762,36.78455299999999,shopping_mall
19, Embakasi Central,Spring Valley,-1.2477029,36.789235600000005,cd4675fea6969c6932fc82d271e822e33d4d8c49,Amani Music Instruments Ltd,-1.2815606,36.8164251,shopping_mall
20, Embakasi Central,Spring Valley,-1.2477029,36.789235600000005,3adaa305c48a029921e7dec35e6b4a16f3c21b04,The Village Market,-1.2294041,36.80480290000001,shopping_mall
21, Embakasi Central,Spring Valley,-1.2477029,36.789235600000005,54e6fce918fd713f4fe625781b3d91ffcc072bc9,Niche Traders,-1.2824823,36.8158293,shopping_mall
22, Embakasi Central,Spring Valley,-1.2477029,36.789235600000005,8b1bf8a1bacfd08af843afe10b9fa31cba967971,Prosper Win Enterprises,-1.2814951,36.8171733,shopping_mall
23, Embakasi Central,Spring Valley,-1.2477029,36.789235600000005,e69bca4469cbe8c730700d5de9b8bf7da62da64d,Kampus Towers,-1.2801299,36.8188306,shopping_mall
24, Embakasi Central,Spring Valley,-1.2477029,36.789235600000005,0a3235ed04870b93721fc045f0e7a7858e035306,Lavington Mall,-1.2799071,36.77020999999999,shopping_mall
25, Embakasi Central,Spring Valley,-1.2477029,36.789235600000005,e3b73f27161e6dea1df77ef88a6fe073b19fb045,Malls Guide Africa,-1.29254,36.78875500000001,shopping_mall
26, Embakasi Central,Spring Valley,-1.2477029,36.789235600000005,2c350a4d5b1ee2730aa791e4bc086c3a4191eee0,e-fam [Every Family],-1.249734,36.7855841,shopping_mall
27, Embakasi Central,Spring Valley,-1.2477029,36.789235600000005,e207dd7e6c17f8878b6c7db7dc0d85a036e55e82,Pavilion Plaza,-1.2510502,36.7858633,shopping_mall
28, Embakasi Central,Spring Valley,-1.2477029,36.789235600000005,0ee73a4b26667222232543631fa99c136ee028e8,Spring Valley Mall,-1.2518478,36.78595409999999,shopping_mall
29, Embakasi Central,Spring Valley,-1.2477029,36.789235600000005,017f13066869ce28c0e086d48ea55381a8e6a939,lwala lwa nyama,-1.2519888,36.7935695,shopping_mall
30, Embakasi Central,Spring Valley,-1.2477029,36.789235600000005,6ea0fb6d1aed972ac61e9a5b5e823b50acfdf54d,Spring Valley Shopping Center,-1.2543135,36.79225929999999,shopping_mall
31, Embakasi Central,Spring Valley,-1.2477029,36.789235600000005,90c45d238f399986c953601ef93f35996b64448d,New Muthaiga Shopping Mall,-1.2365575,36.7928814,shopping_mall
32, Embakasi Central,Spring Valley,-1.2477029,36.789235600000005,51bc37569c339428c419349e8e4fd67318cc280c,Muthaiga Mall,-1.2365183,36.7928667,shopping_mall
33, Embakasi Central,Spring Valley,-1.2477029,36.789235600000005,98e4b76780b689e587a4323177221d11ccacb72d,Azalea Heights,-1.2539757,36.7996946,shopping_mall
34, Embakasi Central,Spring Valley,-1.2477029,36.789235600000005,ee41ec3d022af78e0288131f78496eb59689b175,Spinners Web,-1.2389013,36.78076379999999,shopping_mall
35, Embakasi Central,Spring Valley,-1.2477029,36.789235600000005,688ef834ec4807c5436442e77f30ef7f3e817866,Damson Investments,-1.2415233,36.775704,shopping_mall
36, Embakasi Central,Spring Valley,-1.2477029,36.789235600000005,045f9bcd4a56ac385b17dea2aa7218281c686c97,Salute I World,-1.2572275,36.80229320000001,shopping_mall
37, Embakasi Central,Spring Valley,-1.2477029,36.789235600000005,0dd6d0f256d593002da3d10ed40075386728f91b,Abc Place Nairobi,-1.2595978,36.7772749,shopping_mall
38, Embakasi Central,Spring Valley,-1.2477029,36.789235600000005,b26082b30a40b76a166dd6e6d9da63978f16e373,Pop Up Market - Westgate,-1.2577349,36.8035138,shopping_mall
39, Embakasi Central,Spring Valley,-1.2477029,36.789235600000005,29c543677d6e59535d5b20eda9a6860d2fe5b7de,Sarit Center Phase III,-1.2606546,36.801329,shopping_mall
40, Embakasi Central,Spring Valley,-1.2477029,36.789235600000005,1bf143aa74917b908df73aebcabc48c9507538c2,Art Oro Jewellers,-1.2561325,36.80502320000001,shopping_mall
41, Embakasi Central,Spring Valley,-1.2477029,36.789235600000005,5b1fdb68c62ed6863710bea09475eed49623c0dc,Kasuku Center,-1.2748229,36.794951,shopping_mall
42, Embakasi Central,Spring Valley,-1.2477029,36.789235600000005,eea28265a95dd87ebfcbd9e7c19e73dc3c369a96,Utawala Trading Centre,-1.2611605,36.80197769999999,shopping_mall
43, Embakasi Central,Spring Valley,-1.2477029,36.789235600000005,f224d04c13408c21ab334b2db9eaf4480975b165,Microcity Kenya Ltd,-1.261534,36.8017447,shopping_mall
44, Embakasi Central,Spring Valley,-1.2477029,36.789235600000005,406c7c0e17b0510b4d41106242d45932c096e57d,Westlands Maasai Market Commercial Center,-1.2570573,36.8062855,shopping_mall
45, Embakasi Central,Spring Valley,-1.2477029,36.789235600000005,0b4af2161c172cb10188c509fd4719c01d51f07e,Sarit Centre Security Office,-1.2616893,36.8027461,shopping_mall
46, Embakasi Central,Spring Valley,-1.2477029,36.789235600000005,74b93bfb2a59848481793af9e2edd99a088950cb,Annas Center,-1.2612358,36.8032159,shopping_mall
47, Embakasi Central,Spring Valley,-1.2477029,36.789235600000005,1d8a760be937b2eab4de5f737611fe8fc22353b3,Beauty Galore Kenya,-1.2575904,36.8060884,shopping_mall
48, Embakasi Central,Spring Valley,-1.2477029,36.789235600000005,7123a86a81a2add6020729c87f7d4ca3d3643dca,Sarit centre,-1.2662263,36.7967299,shopping_mall
49, Embakasi Central,Spring Valley,-1.2477029,36.789235600000005,88deffa6efd2fc872756a8692a60dd75a50e652c,JOPET HEIGHTS,-1.2344675,36.7741276,shopping_mall
50, Embakasi Central,Spring Valley,-1.2477029,36.789235600000005,f17ffc4c94a7c1fe3cd87d88ebe9489244f21dbe,Kenrail Towers,-1.2614909,36.8043191,shopping_mall
51, Embakasi Central,Spring Valley,-1.2477029,36.789235600000005,f23037a791fdfb219225a3cd7dd6f9547a2a8fbf,Brooks Apartments,-1.2364104,36.8068486,shopping_mall
52, Embakasi Central,Spring Valley,-1.2477029,36.789235600000005,0d32da0d8c20709a1be1a55f417246b79c8a679f,Corner Plaza,-1.2622399,36.8043053,shopping_mall
53, Embakasi Central,Spring Valley,-1.2477029,36.789235600000005,0fadf81c8ef89b2f095c1530e84f70237c9747ab,Lane1 1 Mpesa,-1.2663455,36.7992874,shopping_mall
54, Embakasi Central,Spring Valley,-1.2477029,36.789235600000005,a241bed369ae67f8b19260682119ab83c4e6da86,Amee Arcade Building,-1.2627019,36.804277,shopping_mall
55, Embakasi Central,Spring Valley,-1.2477029,36.789235600000005,c6951010abce02bd35f950e1ebdc6b198a87162d,Shamneel Court,-1.2627379,36.8043697,shopping_mall
56, Embakasi Central,Spring Valley,-1.2477029,36.789235600000005,4bdfbb7c281dec7c06b57be60db59179ddb8a952,htc kenya customer service,-1.2634529,36.80362899999999,shopping_mall
57, Embakasi Central,Spring Valley,-1.2477029,36.789235600000005,913ee9b12623823334eb27c31e8dac06935dfc67,"The Mall, Westlands",-1.2642987,36.8026913,shopping_mall
58, Embakasi Central,Spring Valley,-1.2477029,36.789235600000005,457af29ae21bf34ebcc674a9fb9b69955b542b16,The Mall,-1.2642902,36.8027238,shopping_mall
59, Embakasi Central,Spring Valley,-1.2477029,36.789235600000005,9ea0ffd2f1d6ebc72ba360fa81c0790a56459988,Adam and Eve Shopping Centre,-1.2635265,36.8039203,shopping_mall
