,constituency,ward,clat,clon,place_id,place_name,place_lat,place_long,place_type
0, Dagoretti South,Mutuini,-1.3,36.7,5567c9340278b0b9cb00be57f7093ae99e89e155,Green Garden,-1.2855943,36.6865186,night_club
1, Dagoretti South,Mutuini,-1.3,36.7,028534844461d0bf166a5c24a4df470e72fee653,CLH VIP Lounge,-1.3184978,36.6922726,night_club
2, Dagoretti South,Mutuini,-1.3,36.7,f47e73550c95a8c2083d1a625915a98dd0b77a3b,Club Silent,-1.278870299999999,36.7119326,night_club
3, Dagoretti South,Mutuini,-1.3,36.7,d7742f5f333d7f7a0611d8094a68a3bc138a56a7,Ivor Mead,-1.3370618,36.7077942,night_club
4, Dagoretti South,Mutuini,-1.3,36.7,8f2653b04ca2b75599b1d4d26b7e79e8ce8b170e,Swahili Lounge,-1.2686241,36.72191979999999,night_club
5, Dagoretti South,Mutuini,-1.3,36.7,1bd2f84de5edc8beae4945422227e9432f0dba5c,Club Sting,-1.2640403,36.72020880000001,night_club
6, Dagoretti South,Mutuini,-1.3,36.7,30449fc5d272ab844a633304edf4d195f10ddd5f,Club Hush Pub,-1.2637882,36.72008710000001,night_club
7, Dagoretti South,Mutuini,-1.3,36.7,a9bafc7471adfcb9ae42ba6a7c8004c0e551de12,Villagers Inn,-1.2579933,36.71495240000001,night_club
