,constituency,ward,clat,clon,place_id,place_name,place_lat,place_long,place_type
0, Embakasi East,Embakasi,-1.3247280000000001,36.887724,3eb7d7d75d18bc6876a250dffaa6aab201bb43cc,School Library,-1.3258531,36.8896678,library
1, Embakasi East,Embakasi,-1.3247280000000001,36.887724,6350fa23bb75485a47415f7ae9702cd46e03ed60,Mbotela VGR Lending Library,-1.2986726,36.861665,library
2, Embakasi East,Embakasi,-1.3247280000000001,36.887724,e36d2e4d63e108f17bd8b7f774402a1b645e7178,"McMillan Memorial Library, Eastlands Branch (Makadara)",-1.2931705,36.8625676,library
3, Embakasi East,Embakasi,-1.3247280000000001,36.887724,0093e4309113128b58dd133ad8912fe19aa0da26,"Kenya National Library Service,Buruburu",-1.2828872,36.8792689,library
4, Embakasi East,Embakasi,-1.3247280000000001,36.887724,8b18aa7d111536d64a4f238b3ae83517e1409428,Kenya National Library Service - Buruburu Branch,-1.2811734,36.87877599999999,library
5, Embakasi East,Embakasi,-1.3247280000000001,36.887724,b904b66b1181957fdd31242e439a6e8ab4a5ffc4,Makadara Public Library,-1.2932224,36.8621106,library
