,constituency,ward,clat,clon,place_id,place_name,place_lat,place_long,place_type
0, Westlands,Mountain View,-1.27113135,36.74300262,99d3ad9855c14fc8b89bc684b9da3777765ed7d6,Ascend Sports Limited,-1.239702,36.7463546,gym
1, Westlands,Mountain View,-1.27113135,36.74300262,0f55ed8d2989ea017ae7faf7ab9dac2b4af9cbfd,Maxfit Gym And Fitness Centre,-1.3053611,36.7423636,gym
2, Westlands,Mountain View,-1.27113135,36.74300262,d3feba51daea4b93026d7c3aea470f31e6556eb0,Planet House,-1.2542144,36.7768524,gym
3, Westlands,Mountain View,-1.27113135,36.74300262,4c8bf20e5d1298b3d7fe0cdbb1066730351e0dad,Senses Health Club and Spa,-1.294332,36.7753467,gym
4, Westlands,Mountain View,-1.27113135,36.74300262,c0f1c64ff382e15a428603c9459e32e287cdfeb9,Prime Serviced Residence Westlands,-1.2639207,36.78249080000001,gym
5, Westlands,Mountain View,-1.27113135,36.74300262,453e1120c5957a25d110463e03da4167fe0a72d3,Zeal Fitness,-1.2978931,36.7735389,gym
6, Westlands,Mountain View,-1.27113135,36.74300262,ad1697002b5a7f3ef99bc6dd79e91bf542678c20,Lion's Lair Apartments,-1.2870158,36.7816546,gym
7, Westlands,Mountain View,-1.27113135,36.74300262,c4c266bd2d1649e7bb537eb9f5047bebec375808,Alpha Fit,-1.3008771,36.7726902,gym
8, Westlands,Mountain View,-1.27113135,36.74300262,26195291d824d9626dc2713ac98b010d209a6695,Power Vibe Studio/ Westlands branch,-1.260254,36.784195,gym
9, Westlands,Mountain View,-1.27113135,36.74300262,2708aa532d345059909246c937da26ed961ebf73,"VLCC Slimming | Beauty | Fitness, Nairobi",-1.2605329,36.7842846,gym
10, Westlands,Mountain View,-1.27113135,36.74300262,64577eccdb57d3bff0fa3fa9d6d9bb738b79cd47,White estate,-1.2822722,36.7523652,gym
11, Westlands,Mountain View,-1.27113135,36.74300262,bbf0504dd470baa1439d28d9d9b77de240a54499,Redefined Body Fitness,-1.2851444,36.73822129999999,gym
12, Westlands,Mountain View,-1.27113135,36.74300262,3605285ac569023c79a283bfaaf189e607361198,Dreams Gym,-1.2860773,36.74146,gym
13, Westlands,Mountain View,-1.27113135,36.74300262,e018ec91ec8116388ad0b85c658a52d6bd4fb4e8,Dream Gym,-1.286034,36.7397783,gym
14, Westlands,Mountain View,-1.27113135,36.74300262,cf7db432d0e2096c64ab33f18c15facccbd0d58e,Kenkana Gym,-1.2790848,36.72876410000001,gym
15, Westlands,Mountain View,-1.27113135,36.74300262,1e575534ea804d5a0f23caf9cefd988724b9decf,Karakan Sports Club Gym,-1.2790685,36.7287493,gym
16, Westlands,Mountain View,-1.27113135,36.74300262,813890061d7968c1a3af752da417073c4d6ebdf1,Colds Gym,-1.2887464,36.750429,gym
17, Westlands,Mountain View,-1.27113135,36.74300262,d1d01d1ceb110cbc6e9ac8aa832da9f34a66a210,Gold's Gym,-1.288796,36.75047199999999,gym
18, Westlands,Mountain View,-1.27113135,36.74300262,9f2d3aec1c26ba1b05432678f17f2a55136ffd66,Las Vegas Gym,-1.2896018,36.7500883,gym
19, Westlands,Mountain View,-1.27113135,36.74300262,ff207ebadf0f6dd810b3bbb79cfe6a7f0a31d77f,Yaya Center,-1.2907469,36.73996539999999,gym
20, Westlands,Mountain View,-1.27113135,36.74300262,8e4d6b393503691843bdad6230ca68712fb38c82,Fit Madadi,-1.2902886,36.749622,gym
21, Westlands,Mountain View,-1.27113135,36.74300262,79617293f243c94f29a832b873c21fe893456e5a,Fit Madadi Gym,-1.2903165,36.7496434,gym
22, Westlands,Mountain View,-1.27113135,36.74300262,6767add8d3dd5cc84d5477f7f7abe4ba07315f20,hopecenter篮球场,-1.2849832,36.7581102,gym
23, Westlands,Mountain View,-1.27113135,36.74300262,f8c21faaf024a08d96f4769b6bcc4287131b59a6,Flex Gym & Fitness Center,-1.2940732,36.7402513,gym
24, Westlands,Mountain View,-1.27113135,36.74300262,603d7c032df72234def95374af345fd7015fabaf,Gym,-1.2587829,36.76602159999999,gym
25, Westlands,Mountain View,-1.27113135,36.74300262,7ff9e9a2ba0841faa6025fc9036fa7f75739d477,Jaffery Sports Club Ground,-1.2769218,36.7686113,gym
26, Westlands,Mountain View,-1.27113135,36.74300262,507a9c3b11fa1c41abe93054f5d03d24d1956aa6,Zarnash Gym,-1.2771622,36.76959069999999,gym
27, Westlands,Mountain View,-1.27113135,36.74300262,fb6ccdb2afca82233c33f80fc33819e10fba28cf,Bikram Yoga Nairobi,-1.2798274,36.7706731,gym
28, Westlands,Mountain View,-1.27113135,36.74300262,2827631ab3442a1d2bffe4aebebf25a81a3e8bef,AVFitness Kenya,-1.2928994,36.7624216,gym
29, Westlands,Mountain View,-1.27113135,36.74300262,e6f1092d9e7d59a88188151ed143e3d16d32b6f5,TipwaTipwa,-1.2799796,36.7708024,gym
30, Westlands,Mountain View,-1.27113135,36.74300262,9e83cf0a12601fd088412c390ac99852d249c2bd,Spin Fitness Boutique Gym,-1.280075,36.7708617,gym
31, Westlands,Mountain View,-1.27113135,36.74300262,2e419057823afda684b7fb65e6b177af143aa83a,House of sweat fitness,-1.3007455,36.7466222,gym
32, Westlands,Mountain View,-1.27113135,36.74300262,31e194aedf36c9a3eece6c5e4b84643d834ca87b,Kids gymnastic and events company,-1.281437,36.771554,gym
33, Westlands,Mountain View,-1.27113135,36.74300262,059b90575c3c0816897898a4430a0bed17c5ec56,Tuzidi Fitness,-1.2890425,36.7684831,gym
34, Westlands,Mountain View,-1.27113135,36.74300262,bbe2fb6b0920f050c537eda9b7075f67e5f63f16,STEPPIN RAZORS KINYOZI AND FITTNESS CENTRE,-1.2793326,36.71274199999999,gym
35, Westlands,Mountain View,-1.27113135,36.74300262,c08c3fdf95d77ab2176966b872b47e3f1f43a7c0,Body World Gym,-1.3012544,36.7535835,gym
36, Westlands,Mountain View,-1.27113135,36.74300262,246ed7abccd36af029e5c572720c507542bb951f,Whips Gym,-1.2599727,36.7129796,gym
37, Westlands,Mountain View,-1.27113135,36.74300262,bcf690d63c0bc03e34d98e7afb2e5c66a5edb2b4,Westgate Villas & Gym,-1.292699,36.7668672,gym
38, Westlands,Mountain View,-1.27113135,36.74300262,6d457ac55893b5eae93d88555eeae9ca7a795058,Lavish Spa,-1.2972616,36.7619259,gym
39, Westlands,Mountain View,-1.27113135,36.74300262,95c33b4c6a454b1cc453f51abbed33d38e964a1e,Hawk Fitness Gym,-1.303205,36.7377622,gym
40, Westlands,Mountain View,-1.27113135,36.74300262,4bb66b06081a3e632318f7f9a52430bf2f1027b0,Smart Gyms Junction,-1.2977751,36.7619112,gym
41, Westlands,Mountain View,-1.27113135,36.74300262,82145c37fe89c00fd3c817d2e8f17a9bb3e253b5,The HIIT Box Ke,-1.2907232,36.7691572,gym
42, Westlands,Mountain View,-1.27113135,36.74300262,48ae9770420d25ad013f6900c2eeb3e806e39eac,MDA Studios,-1.2901653,36.7700396,gym
43, Westlands,Mountain View,-1.27113135,36.74300262,c7be742ecd8c68c01c887863272964a80836432c,Forever Living,-1.2981364,36.7625425,gym
44, Westlands,Mountain View,-1.27113135,36.74300262,322a510fd28fd0f9124ad93efe19cda567e2e972,Doctore Athletics,-1.260593,36.77523,gym
45, Westlands,Mountain View,-1.27113135,36.74300262,3b5f9a4aec8a01542423e825cc25076d80257c9e,Fitness - One,-1.26483,36.7799728,gym
46, Westlands,Mountain View,-1.27113135,36.74300262,d2aa21837f71e21f7563ba41e45f81438a03f8f1,BODY by Alison Caroline,-1.2607203,36.7753494,gym
47, Westlands,Mountain View,-1.27113135,36.74300262,f3a1ad6744ad92693df31f3b05a98a2a9543ffc3,24 Farasi,-1.293094,36.771029,gym
48, Westlands,Mountain View,-1.27113135,36.74300262,8b5f9495243a01921feee81f57d589d8da706a6f,Core Vibrations Health Studio - Power Plate Center,-1.2351238,36.7492799,gym
49, Westlands,Mountain View,-1.27113135,36.74300262,ab6bd75f4061d34afb2459afd2465d7675666403,Space Of The Heart,-1.245284,36.76978139999999,gym
50, Westlands,Mountain View,-1.27113135,36.74300262,dcc8b9b054458e26b099e6d29f810c1e93309619,Classic Villa Resort,-1.2385865,36.7245485,gym
51, Westlands,Mountain View,-1.27113135,36.74300262,5fff7ea04e52080d9aec6347eea627ea04e84a44,NicKo Gym & Fitness Studio,-1.2376653,36.7257892,gym
52, Westlands,Mountain View,-1.27113135,36.74300262,c993acdcbf5be63f033267fe96f4e8c1273b6bb5,suguta court,-1.2869672,36.7777714,gym
53, Westlands,Mountain View,-1.27113135,36.74300262,15edac33a6360856ced2c5752e515416ede15440,Kenya High School Gymnasium,-1.2766439,36.7813193,gym
54, Westlands,Mountain View,-1.27113135,36.74300262,a62aaf4c4c7ba7261a76c2d4406027ae555586be,Gigiri serenity spa,-1.2506205,36.7758432,gym
55, Westlands,Mountain View,-1.27113135,36.74300262,9d08eef460272ad31f951b5b968592f59626b1f5,School Pavilion and Gym,-1.2616615,36.7808492,gym
56, Westlands,Mountain View,-1.27113135,36.74300262,a1414de8f5f713f5bc19ebd2c9823709d1666b0e,River Bank Estate,-1.2789528,36.7814135,gym
57, Westlands,Mountain View,-1.27113135,36.74300262,25b07593cecf19ad8671681d8c445cf07301e0bf,Possible Gradian Office,-1.2857005,36.77969089999999,gym
58, Westlands,Mountain View,-1.27113135,36.74300262,66c58873168eb02494698f7f50daaa02f7a9fc7b,Melon Park Apartments,-1.2948439,36.77468419999999,gym
59, Westlands,Mountain View,-1.27113135,36.74300262,3f44adb6302fea737e588aa21316b9639f64e16c,Nadiano Wonder Fitness Center,-1.2640547,36.7823255,gym
