,constituency,ward,clat,clon,place_id,place_name,place_lat,place_long,place_type
0, Dagoretti South,Waithaka,-1.2833,36.7166,9504514ff0c727c001cd10e1d8fde25567d40099,Masera Nick,-1.2869501,36.6854092,gym
1, Dagoretti South,Waithaka,-1.2833,36.7166,0f55ed8d2989ea017ae7faf7ab9dac2b4af9cbfd,Maxfit Gym And Fitness Centre,-1.3053611,36.7423636,gym
2, Dagoretti South,Waithaka,-1.2833,36.7166,e451d4d8cac38a8f028cca788ab731ddd4bf4b54,Imagelift Gym And Fitness Centre,-1.25574,36.69407100000001,gym
3, Dagoretti South,Waithaka,-1.2833,36.7166,bbe2fb6b0920f050c537eda9b7075f67e5f63f16,STEPPIN RAZORS KINYOZI AND FITTNESS CENTRE,-1.2793326,36.71274199999999,gym
4, Dagoretti South,Waithaka,-1.2833,36.7166,1e575534ea804d5a0f23caf9cefd988724b9decf,Karakan Sports Club Gym,-1.2790685,36.7287493,gym
5, Dagoretti South,Waithaka,-1.2833,36.7166,cf7db432d0e2096c64ab33f18c15facccbd0d58e,Kenkana Gym,-1.2790848,36.72876410000001,gym
6, Dagoretti South,Waithaka,-1.2833,36.7166,bbf0504dd470baa1439d28d9d9b77de240a54499,Redefined Body Fitness,-1.2851444,36.73822129999999,gym
7, Dagoretti South,Waithaka,-1.2833,36.7166,e018ec91ec8116388ad0b85c658a52d6bd4fb4e8,Dream Gym,-1.286034,36.7397783,gym
8, Dagoretti South,Waithaka,-1.2833,36.7166,246ed7abccd36af029e5c572720c507542bb951f,Whips Gym,-1.2599727,36.7129796,gym
9, Dagoretti South,Waithaka,-1.2833,36.7166,ff207ebadf0f6dd810b3bbb79cfe6a7f0a31d77f,Yaya Center,-1.2907469,36.73996539999999,gym
10, Dagoretti South,Waithaka,-1.2833,36.7166,3605285ac569023c79a283bfaaf189e607361198,Dreams Gym,-1.2860773,36.74146,gym
11, Dagoretti South,Waithaka,-1.2833,36.7166,f8c21faaf024a08d96f4769b6bcc4287131b59a6,Flex Gym & Fitness Center,-1.2940732,36.7402513,gym
12, Dagoretti South,Waithaka,-1.2833,36.7166,60de4d6941c1623feee941f3b290e905955b4000,fridah's Fitness Studio,-1.2646069,36.69834999999999,gym
13, Dagoretti South,Waithaka,-1.2833,36.7166,95c33b4c6a454b1cc453f51abbed33d38e964a1e,Hawk Fitness Gym,-1.303205,36.7377622,gym
14, Dagoretti South,Waithaka,-1.2833,36.7166,9b2a63bfc733d3295bb143dcee561b87e6313dc2,FITNASIUM GYM 87,-1.2581137,36.7009337,gym
15, Dagoretti South,Waithaka,-1.2833,36.7166,2fc207f17f511ecab26f4abd5bb262673ad22290,Olympus Fitness Centre,-1.2772734,36.6864502,gym
16, Dagoretti South,Waithaka,-1.2833,36.7166,edd9843778ee9fd497769066f2e43a3084e435ae,New Way Of Life Gym,-1.2576671,36.6967326,gym
17, Dagoretti South,Waithaka,-1.2833,36.7166,8e4d6b393503691843bdad6230ca68712fb38c82,Fit Madadi,-1.2902886,36.749622,gym
18, Dagoretti South,Waithaka,-1.2833,36.7166,79617293f243c94f29a832b873c21fe893456e5a,Fit Madadi Gym,-1.2903165,36.7496434,gym
19, Dagoretti South,Waithaka,-1.2833,36.7166,e449a6fe016311bd9cec99fb444aa20bf2775b32,Meeting point for MALO Stables forest rides.,-1.289016,36.68310499999999,gym
20, Dagoretti South,Waithaka,-1.2833,36.7166,9f2d3aec1c26ba1b05432678f17f2a55136ffd66,Las Vegas Gym,-1.2896018,36.7500883,gym
21, Dagoretti South,Waithaka,-1.2833,36.7166,813890061d7968c1a3af752da417073c4d6ebdf1,Colds Gym,-1.2887464,36.750429,gym
22, Dagoretti South,Waithaka,-1.2833,36.7166,d1d01d1ceb110cbc6e9ac8aa832da9f34a66a210,Gold's Gym,-1.288796,36.75047199999999,gym
23, Dagoretti South,Waithaka,-1.2833,36.7166,2e419057823afda684b7fb65e6b177af143aa83a,House of sweat fitness,-1.3007455,36.7466222,gym
24, Dagoretti South,Waithaka,-1.2833,36.7166,64577eccdb57d3bff0fa3fa9d6d9bb738b79cd47,White estate,-1.2822722,36.7523652,gym
25, Dagoretti South,Waithaka,-1.2833,36.7166,eff47255d67e5aae795c243ca8a26efe6ee0f06f,Firm and Fit gymnasium,-1.2557152,36.6936258,gym
26, Dagoretti South,Waithaka,-1.2833,36.7166,b9f5cea04b02250d343408a530e896e75dceea46,Laban's gym,-1.3188709,36.7111534,gym
27, Dagoretti South,Waithaka,-1.2833,36.7166,c7a0200f0d8545a9159224bfd5830cf0be313657,Sugar mumiies dadies,-1.3162436,36.7015073,gym
28, Dagoretti South,Waithaka,-1.2833,36.7166,0213ad9b636475139580cfdc40fa20f235a39bbb,Yoga Eka Taka,-1.3157501,36.69982,gym
29, Dagoretti South,Waithaka,-1.2833,36.7166,6de3b2033908b3cd2335f6ed9ef523cb08084317,Way Of Life Gym,-1.2549578,36.6927557,gym
30, Dagoretti South,Waithaka,-1.2833,36.7166,b6bf7123e72ff9ca576affc46e0f3b046c8e4313,KARIANGO,-1.2526258,36.69302529999999,gym
31, Dagoretti South,Waithaka,-1.2833,36.7166,be47034def94215a4e13ab1972015f80995f59b7,Smart Gyms The Hub Karen,-1.3198945,36.70346079999999,gym
32, Dagoretti South,Waithaka,-1.2833,36.7166,f4e74fd9b12ba63c87c880ef93e06e1c453d71e3,Betty Charz Toneyt,-1.3138454,36.6912675,gym
33, Dagoretti South,Waithaka,-1.2833,36.7166,cbf995e8345640724a8c820c4b33643cde1ce973,Uppercut Fitness Boxing,-1.3229615,36.70743229999999,gym
34, Dagoretti South,Waithaka,-1.2833,36.7166,f5537cb1616c02543c45cd2dcf5ec542ef74140e,Karen Gym and Personal Training Center,-1.3229615,36.70743229999999,gym
35, Dagoretti South,Waithaka,-1.2833,36.7166,c08c3fdf95d77ab2176966b872b47e3f1f43a7c0,Body World Gym,-1.3012544,36.7535835,gym
36, Dagoretti South,Waithaka,-1.2833,36.7166,6767add8d3dd5cc84d5477f7f7abe4ba07315f20,hopecenter篮球场,-1.2849832,36.7581102,gym
37, Dagoretti South,Waithaka,-1.2833,36.7166,270f1d952f5607af6316f2b574ca939290f03820,Smartgyms,-1.316866,36.6903289,gym
38, Dagoretti South,Waithaka,-1.2833,36.7166,f882b9cd15c37baeab9eb2c2280768484ee816fc,Kcb gym,-1.316866,36.6903289,gym
39, Dagoretti South,Waithaka,-1.2833,36.7166,92d825d4c986f0b3583a097cfe5b564dff6d723b,Pema residency,-1.3262345,36.7161749,gym
