,constituency,ward,clat,clon,place_id,place_name,place_lat,place_long,place_type
0, Starehe,Pangani,-1.2648989,36.8372708,2bb5ac5303a6d3d5f9717d8231aea3b57deb8fa7,NIC Bank Limited,-1.300464,36.822577,atm
1, Starehe,Pangani,-1.2648989,36.8372708,a4fbc27b098175be31c04f379866db3075124888,PesaPoint ATM CFC - Corner House,-1.285051,36.82394,atm
2, Starehe,Pangani,-1.2648989,36.8372708,d3c2583cfa5275b8d4970d2ff481277076ab5d00,PesaPoint ATM NIC,-1.285828,36.82320199999999,atm
3, Starehe,Pangani,-1.2648989,36.8372708,0fa37b5f526fd0013548df837bf30e066a6d92cd,Standard Chartered Bank ATM 2,-1.2846146,36.8219704,atm
4, Starehe,Pangani,-1.2648989,36.8372708,33336b076286c668f4053505c77fb0743528df43,KCB ATM Kencom House,-1.286021,36.825206,atm
5, Starehe,Pangani,-1.2648989,36.8372708,3a74b4696489338f2f26071d2ed868f3a235e4c3,PesaPoint ATM KCB - KICC,-1.286255,36.826389,atm
6, Starehe,Pangani,-1.2648989,36.8372708,5d625a27cc8876dc497e91d2268d5b382157bd0a,PesaPoint ATM DTK - Nation Centre,-1.283141,36.822505,atm
7, Starehe,Pangani,-1.2648989,36.8372708,b96c311548761bfb10ecef5744990e46b8f111c6,PesaPoint ATM CFC - International Life House,-1.285925,36.823709,atm
8, Starehe,Pangani,-1.2648989,36.8372708,58c95794fa843b93f267c60393ed9844104a4df8,PesaPoint ATM KCB - River Road,-1.281476,36.82374100000001,atm
9, Starehe,Pangani,-1.2648989,36.8372708,416780a5b5c243058083f0d90c14fec137f5a3cb,Standard Chartered Bank ATM 2,-1.2817718,36.8179457,atm
10, Starehe,Pangani,-1.2648989,36.8372708,90b5b0bdda238f7589475a82eb2fa5d88b099cbc,PesaPoint ATM KCB - Afya Centre,-1.287545,36.82794200000001,atm
11, Starehe,Pangani,-1.2648989,36.8372708,a6bfb68ae64de65fc7279ed30c43d6f90b62cebc,CFC STANBIC BANK ATM,-1.2844445,36.8223381,atm
12, Starehe,Pangani,-1.2648989,36.8372708,205bc24c70d5cabb370b248bf701208ddfb7f907,Standard Chartered Bank ATM 1,-1.2880194,36.8259566,atm
13, Starehe,Pangani,-1.2648989,36.8372708,80aa447f6822e0ac8cc6323fc9627065cf65c7e4,Standard Chartered Bank Koinange Street,-1.281786,36.817894,atm
14, Starehe,Pangani,-1.2648989,36.8372708,1b81d65aa346d1ebce7b00ade48c96bc0ebf3fbb,PesaPoint ATM KCB - Kimathi Street,-1.2841109,36.82333479999999,atm
15, Starehe,Pangani,-1.2648989,36.8372708,4446005b584fa9ce1d8372e0b2cf14dbd650220a,PesaPoint ATM KCB - Limuru Road,-1.258509,36.827593,atm
16, Starehe,Pangani,-1.2648989,36.8372708,9923c844210e871a30f45fd8fb3fab9010cd9bf9,Standard Chartered Bank ATM,-1.26377,36.82435,atm
17, Starehe,Pangani,-1.2648989,36.8372708,2245c0496b623411c5f93acd0012cb0fc84bb88a,PesaPoint KCB,-1.2572358,36.8034638,atm
18, Starehe,Pangani,-1.2648989,36.8372708,a24d8a238ceab68fb7d292e087e5dc6ac923ff47,PesaPoint ATM KCB - Salama House,-1.286043,36.82278100000001,atm
19, Starehe,Pangani,-1.2648989,36.8372708,300801ebee579b14cc3a821a443b47a01e8d41e4,PesaPoint ATM Kisumu Eco Fedha,-1.2857677,36.8214356,atm
20, Starehe,Pangani,-1.2648989,36.8372708,6968ed01ca3d91adab24c9b0404a221316cb8742,PesaPoint ATM KCB - Pangani,-1.265489,36.83605500000001,atm
21, Starehe,Pangani,-1.2648989,36.8372708,12c3beece96013213fdd618e9a90ca79f236835a,KCB atm,-1.285941,36.82270949999999,atm
22, Starehe,Pangani,-1.2648989,36.8372708,776cf51fff6e34d6904233a00f1f760f384c7d7f,PesaPoint ATM CFC - Chiromo Branch,-1.268913,36.810572,atm
23, Starehe,Pangani,-1.2648989,36.8372708,273c0655fc356499e16926128925dafbee06278b,Standard Chartered Bank ATM,-1.2788301,36.8499644,atm
24, Starehe,Pangani,-1.2648989,36.8372708,337023a004d57bab3ce2c877c16c1537976ee2a1,K-rep ATM,-1.2847845,36.8216592,atm
25, Starehe,Pangani,-1.2648989,36.8372708,08f81ccd335a6952b9ef5d1a353896391434244b,PesaPoint ATM DTK - Aga Khan,-1.2624163,36.8246916,atm
26, Starehe,Pangani,-1.2648989,36.8372708,66e8c0ac27073f3ff63072eb8a59276cba8eee46,PesaPoint ATM KCB - Ngara,-1.276502,36.826483,atm
27, Starehe,Pangani,-1.2648989,36.8372708,bb4b19660c13f3282a5a7204b64093aef9e8e2d6,Family Bank ATM,-1.2821257,36.8188508,atm
28, Starehe,Pangani,-1.2648989,36.8372708,42afbe134f949ee3cb98c787b26e8e74cb76bfd0,PesaPoint ATM Commerce,-1.286853,36.825906,atm
29, Starehe,Pangani,-1.2648989,36.8372708,6cf95459c30f2e2f2f3d8f319dafd5ce623166d2,PesaPoint ATM KCB - Gikomba,-1.285539,36.837367,atm
30, Starehe,Pangani,-1.2648989,36.8372708,d29bc1fecb93e8c9cd4241e66b82c047e2464b38,PesaPoint,-1.279538,36.826815,atm
31, Starehe,Pangani,-1.2648989,36.8372708,7a7ceb90d02bd3d3bdc69a3ff9fc6311a29b7216,PesaPoint ATM CFC - Gikomba,-1.283758,36.84166099999999,atm
32, Starehe,Pangani,-1.2648989,36.8372708,c0ad4355ffa843f0d53a8293bcab1f3298842090,PesaPoint ATM Guardian,-1.281807,36.82104,atm
33, Starehe,Pangani,-1.2648989,36.8372708,ba146a5c02c92baf55b88eb4bb6c0ccb7804d6a5,PesaPoint ATM Eastleigh,-1.272115,36.850574,atm
34, Starehe,Pangani,-1.2648989,36.8372708,4640e618f1a208af91fe8715edc0d01356865c0f,PesaPoint ATM KCB - Savanis,-1.281921,36.825384,atm
35, Starehe,Pangani,-1.2648989,36.8372708,f173f43724850af72e7761113215f78a509aa004,PesaPoint ATM Stima,-1.27145,36.820512,atm
36, Starehe,Pangani,-1.2648989,36.8372708,5917f57e81948b15fa783197ce99c0e85d412443,I&M Bank ATM,-1.2672082,36.81713010000001,atm
37, Starehe,Pangani,-1.2648989,36.8372708,727e8f59a57aeb83149ce0bc7a0aea2284b5904e,Coop Bank ATM,-1.276119,36.8252324,atm
38, Starehe,Pangani,-1.2648989,36.8372708,e1948f37fd94a1ff83d722dd8e0e1b441b400c8c,Standard Chartered Bank ATM 2,-1.284268,36.823583,atm
39, Starehe,Pangani,-1.2648989,36.8372708,a8ac58b7394df9bb1b85c1b8816c938fc60545a1,ATM KCB - Kencom,-1.286142,36.825308,atm
