,constituency,ward,clat,clon,place_id,place_name,place_lat,place_long,place_type
0, Dagoretti South,Mutuini,-1.3,36.7,52e94bbb00e1099c6ec02a31983103a324b37156,Karen police station,-1.321943,36.706268,police
1, Dagoretti South,Mutuini,-1.3,36.7,5ab401c7fbbf9f9fa72793e0d0297a58d0a2c4f7,Dagoretti Police Station,-1.2811268,36.6900769,police
2, Dagoretti South,Mutuini,-1.3,36.7,24a5cf1248cd50bbb0c828263f4770f19a7f8d77,Williamson Tea (K) Ltd,-1.326035,36.709505,police
3, Dagoretti South,Mutuini,-1.3,36.7,3570e7a30a102e84de839e280e50c15987e78d22,Uthiru/Ruthimitu Chief's and AP Camp,-1.2689674,36.7196677,police
4, Dagoretti South,Mutuini,-1.3,36.7,ad6ff98e076e230f949a5554003f5b06e0702b74,Riruta Police Station,-1.2934404,36.7394755,police
5, Dagoretti South,Mutuini,-1.3,36.7,56f15062cf5d56dbbc0374aa9ae810c7fa76be82,Karen Plains Police Post,-1.3269901,36.7295855,police
6, Dagoretti South,Mutuini,-1.3,36.7,5b341e16cccd58481d2f0bcd189f68de06da82c1,Riruta Administration police,-1.2872658,36.7405554,police
7, Dagoretti South,Mutuini,-1.3,36.7,3a0d048354801950018a5270a2257f9e64304242,Kerarapon Police Post,-1.3178516,36.6609317,police
