,constituency,ward,clat,clon,place_id,place_name,place_lat,place_long,place_type
0, Embakasi South,Kwa Reuben,-1.3139148,36.869364000000004,db7c546962a3012f0754ab3c51cd9f3403bf149e,Mukuru Health Center,-1.324922,36.8875341,hospital
1, Embakasi South,Kwa Reuben,-1.3139148,36.869364000000004,7d4db5a9d8511264b6b58c61450a6ec3812c4f86,The Wentworth Hospital,-1.3205062,36.8986881,hospital
2, Embakasi South,Kwa Reuben,-1.3139148,36.869364000000004,63f398d6ef59c24539d323d7b9352af9960f5371,Mater Misericordiae Hospital,-1.3067471,36.8338343,hospital
3, Embakasi South,Kwa Reuben,-1.3139148,36.869364000000004,9fce24e90d6ebbc527eacf3b0b3a70db2a624187,"Penda Medical Centre, Embakasi",-1.3249924,36.88941640000001,hospital
4, Embakasi South,Kwa Reuben,-1.3139148,36.869364000000004,6ca4f65cd97c510ba18d13515959cbd0ff8681f2,Avenue Healthcare Industrial Area Clinic,-1.3140747,36.8585944,hospital
5, Embakasi South,Kwa Reuben,-1.3139148,36.869364000000004,802708c10d5cdb6f33fc774aafabf4a57778d415,Access Afya Clinic Kisii,-1.3109856,36.84279349999999,hospital
6, Embakasi South,Kwa Reuben,-1.3139148,36.869364000000004,598bda5052fd9a5d2cf95df38a9a4b4cdff78e8e,Fikiria Jamii Clinic,-1.3020356,36.8883847,hospital
7, Embakasi South,Kwa Reuben,-1.3139148,36.869364000000004,1f0274db9ece0da8f53f175eccdddc835ea9502d,Alpha Medical Center,-1.3218986,36.8687045,hospital
8, Embakasi South,Kwa Reuben,-1.3139148,36.869364000000004,d8bccbbc35cbb7d9d3389023e36475aeaf9113d7,Makadara Health Centre,-1.2969203,36.872973,hospital
9, Embakasi South,Kwa Reuben,-1.3139148,36.869364000000004,e028f77fa05c9dc278118d2f503d8f1f332ae47a,Melihep,-1.3113669,36.8686679,hospital
10, Embakasi South,Kwa Reuben,-1.3139148,36.869364000000004,563e500911819aed07b1416728ea5b56a6dc595a,Medicross Lunga Lunga Square,-1.30864,36.8607604,hospital
11, Embakasi South,Kwa Reuben,-1.3139148,36.869364000000004,b9bf9314d163436aa2ee206908fe85b8559e511d,Cana Family Life,-1.3092054,36.88001779999999,hospital
12, Embakasi South,Kwa Reuben,-1.3139148,36.869364000000004,6676a77f1a2e20a0a3da85a9061313b8a1fe3ba0,clinix healthcare mfi,-1.3318543,36.8569744,hospital
13, Embakasi South,Kwa Reuben,-1.3139148,36.869364000000004,e370203a933ac48a3c4e3c924f07a1ffd584a727,Gertrude's Children's Hospital,-1.3300926,36.8893084,hospital
14, Embakasi South,Kwa Reuben,-1.3139148,36.869364000000004,2e6592e65669ba2730ee1c1133681a7a969efa6f,Clinix Health Care,-1.3107278,36.847436,hospital
15, Embakasi South,Kwa Reuben,-1.3139148,36.869364000000004,10674708202d4063cd90ba950377ad62461ba14e,Jamaa Mission Hospital,-1.281695,36.8731424,hospital
16, Embakasi South,Kwa Reuben,-1.3139148,36.869364000000004,4dbcb89644e82acf73dafbfc88079814c8d3e306,Imara Health Care Center,-1.3242127,36.8890884,hospital
17, Embakasi South,Kwa Reuben,-1.3139148,36.869364000000004,648c2519860ff07e46daf5c0b26482254bb51d90,Eastern Deanery Aids Relief Program,-1.3017643,36.8884591,hospital
18, Embakasi South,Kwa Reuben,-1.3139148,36.869364000000004,687c9bf88fd2c18a26ec9a549eaa1ad166d0926a,"AAR Healthcare, Donholm Clinic",-1.301341,36.888382,hospital
19, Embakasi South,Kwa Reuben,-1.3139148,36.869364000000004,138778f021678bf39ce159daf70f54fae830b263,Milestone Medical Centre,-1.3050634,36.8441034,hospital
20, Embakasi South,Kwa Reuben,-1.3139148,36.869364000000004,e8924df4948a08b6c52d830a285f913c1b6f51cf,"Bristol Park Hospital, Fedha",-1.3131498,36.8945775,hospital
21, Embakasi South,Kwa Reuben,-1.3139148,36.869364000000004,ecd7921169c01cf33189fab050ab32f0a1077585,Gertrude's Children's Hospital,-1.2954959,36.8877996,hospital
22, Embakasi South,Kwa Reuben,-1.3139148,36.869364000000004,da802eb1b5a54ad7ff192325db0ed9c06f1946bf,Metropolitan Hospital,-1.2877303,36.8751656,hospital
23, Embakasi South,Kwa Reuben,-1.3139148,36.869364000000004,91f2c9a175c0e77fdb665068457b41414fbff965,Scion Hospital,-1.3280918,36.8922993,hospital
24, Embakasi South,Kwa Reuben,-1.3139148,36.869364000000004,aac4c847bf4e16190f0bf836c2916c44ae49abf1,Embakasi Medical Centre,-1.3280935,36.8926182,hospital
25, Embakasi South,Kwa Reuben,-1.3139148,36.869364000000004,411d9194c4c0627f91ce32ce4c264d3a8ab414c2,Near Home Medical Clinic,-1.2912617,36.8858242,hospital
26, Embakasi South,Kwa Reuben,-1.3139148,36.869364000000004,7a7f1361e49db9120ead50b530b919a7639015ec,The Mater Hospital Buruburu,-1.2879419,36.881129,hospital
27, Embakasi South,Kwa Reuben,-1.3139148,36.869364000000004,9cbdec631d1bab15c9668902faa2710035c99670,Jon Lee International Hospital Limited.,-1.2906627,36.886646,hospital
28, Embakasi South,Kwa Reuben,-1.3139148,36.869364000000004,6950073c9bdb0830195630f1c14f5e574a409c9f,Kpa Belle Vue Medical Clinic,-1.3237931,36.8414457,hospital
29, Embakasi South,Kwa Reuben,-1.3139148,36.869364000000004,8e6d9b933a130df7ac22d6bae5103affabbf2736,Meridian Medical Centre,-1.2831738,36.8797433,hospital
30, Embakasi South,Kwa Reuben,-1.3139148,36.869364000000004,da37f65f01299e219af7aa4776e6aeab0819db88,NHIF buruburu branch,-1.2834624,36.8798093,hospital
31, Embakasi South,Kwa Reuben,-1.3139148,36.869364000000004,243f81da412544839f2a495d2fd3a4f7eebf24f3,The LifeLine Hospital,-1.2865754,36.8523942,hospital
32, Embakasi South,Kwa Reuben,-1.3139148,36.869364000000004,5cd428776c058bcfab49e8672a7229f135b0f42b,Bliss Medical centre Buruburu,-1.281606,36.878916,hospital
33, Embakasi South,Kwa Reuben,-1.3139148,36.869364000000004,360c0b83fd138fd2289366898ba694778cf655ba,Mariekani Cottage Hospital,-1.3113119,36.83255719999999,hospital
34, Embakasi South,Kwa Reuben,-1.3139148,36.869364000000004,312f78cd843e34ebecf26865f04174afd55b56f3,Aga khan Hospital,-1.316701,36.83397100000001,hospital
35, Embakasi South,Kwa Reuben,-1.3139148,36.869364000000004,6611b1396a5656546b44a28f7956b8c558d3998e,Emmaus Nursing Home,-1.2834185,36.8941442,hospital
36, Embakasi South,Kwa Reuben,-1.3139148,36.869364000000004,33d17d8018052a53a207a65f643e3c9a83ad2392,Phadam Hospital,-1.2755749,36.8784837,hospital
37, Embakasi South,Kwa Reuben,-1.3139148,36.869364000000004,faefb36cb8ef2e35d7a55ebedf0c269e7e155620,Nairobi South Hospital,-1.3137358,36.8285279,hospital
38, Embakasi South,Kwa Reuben,-1.3139148,36.869364000000004,93ab8c0393662f17f961320fb29a7a656881dfce,International Health Centre,-1.278147,36.851415,hospital
39, Embakasi South,Kwa Reuben,-1.3139148,36.869364000000004,7b19b8e14ea994662e50830f80cd6fd52271c1bb,Nairobi ENT Clinic - Greenspan Mall Branch,-1.288918,36.9007721,hospital
40, Embakasi South,Kwa Reuben,-1.3139148,36.869364000000004,71fd223c22faa1be3df337d87cb31b797bb97f6d,Valley ear nose and throat centre,-1.2787469,36.8498343,hospital
41, Embakasi South,Kwa Reuben,-1.3139148,36.869364000000004,d63a996e2e76f46475fe128df48de0499fddb27e,Aga Khan University Hospital Medical Centre,-1.288722,36.900839,hospital
42, Embakasi South,Kwa Reuben,-1.3139148,36.869364000000004,d3433726162bea780ff2dcedd8d155fb40c89d60,Aga khan Hospital,-1.289068,36.901306,hospital
43, Embakasi South,Kwa Reuben,-1.3139148,36.869364000000004,813fd12810acaa1e3975089f40dade3e148aa80a,Healthways Medical Centre,-1.3165268,36.8280911,hospital
44, Embakasi South,Kwa Reuben,-1.3139148,36.869364000000004,8de99cdf914fb797bdce9acf0270d7d321260cce,CEKA MEDICAL CENTRE,-1.2851082,36.8996158,hospital
45, Embakasi South,Kwa Reuben,-1.3139148,36.869364000000004,1517f811408566cbe466a84f32418251f79ca67a,Madina Hospital,-1.276181,36.8506393,hospital
46, Embakasi South,Kwa Reuben,-1.3139148,36.869364000000004,52c6e8fd44410b375a12d6d209716d695e85d144,Aga Khan University Hospital Medical Centre,-1.276662,36.84953,hospital
47, Embakasi South,Kwa Reuben,-1.3139148,36.869364000000004,8256f527c947e5a161859c7efc8a8e75a8455e1e,Berachah Chemists,-1.2849668,36.8380929,hospital
48, Embakasi South,Kwa Reuben,-1.3139148,36.869364000000004,3533a55a428744e1a60df6d9b4bfda9a16f47eae,Bliss Medical Centre Embakasi,-1.3097986,36.912213,hospital
49, Embakasi South,Kwa Reuben,-1.3139148,36.869364000000004,1d820a8cbcf34f1cf4b096e3a71702ec630b13f0,Aga Khan University Hospital Buruburu Medical Centre,-1.282536,36.8795156,hospital
50, Embakasi South,Kwa Reuben,-1.3139148,36.869364000000004,9f2ebc592b0919506bba2888deede4cd519084bd,lea toto Clinic Mukuru Reuben,-1.3156712,36.869639,hospital
51, Embakasi South,Kwa Reuben,-1.3139148,36.869364000000004,cbc6dc6f4f4dd85acb364e6dc047cb47ca47ee17,Ruben Medical Clinic,-1.3159789,36.86952269999999,hospital
52, Embakasi South,Kwa Reuben,-1.3139148,36.869364000000004,89fea62b1db1e372886436548ecd3ac2ec26980e,Access Afya Clinic Ruben 2,-1.3152958,36.86427279999999,hospital
53, Embakasi South,Kwa Reuben,-1.3139148,36.869364000000004,f399ce90cf9969bebeafec9284b15caafb69e581,Access Afya Clinic Ruben 1,-1.3185995,36.87293990000001,hospital
54, Embakasi South,Kwa Reuben,-1.3139148,36.869364000000004,e090ec307d62abb33665bb43477b0f51802b3247,Access Afya Clinic Ruben 1,-1.3185995,36.87293990000001,hospital
55, Embakasi South,Kwa Reuben,-1.3139148,36.869364000000004,fec253f79df708f99ff70a04b672fb12ee7fcfde,Huduma Family Acces Medical Clinic,-1.315763,36.8751615,hospital
56, Embakasi South,Kwa Reuben,-1.3139148,36.869364000000004,2dced8cac9e5770c8084f96cb2903d484450a3a3,Olive Link Healthcare,-1.3075677,36.8703633,hospital
57, Embakasi South,Kwa Reuben,-1.3139148,36.869364000000004,b18e1dc6604bbf7a48d614349527a85cc7ca8dc8,Hamza Chemist,-1.3079303,36.8667131,hospital
58, Embakasi South,Kwa Reuben,-1.3139148,36.869364000000004,18ce581f97c71dc7bbf4a98b09290f83e5c31f44,acess afya,-1.3074645,36.8724596,hospital
59, Embakasi South,Kwa Reuben,-1.3139148,36.869364000000004,b2bdc93e6e348fd0b96b42924d97bab7a40b1df1,LUNGA LUNGA HEALTH CENTER,-1.3122596,36.8622196,hospital
