,constituency,ward,clat,clon,place_id,place_name,place_lat,place_long,place_type
0, Westlands,Parklands,-1.2630616000000001,36.810628799999996,a387a7fd396f95c8f9c555df0b67d8f31187ac07,Senior Staff Clinic,-1.2789984,36.8093813,hospital
1, Westlands,Parklands,-1.2630616000000001,36.810628799999996,63eb5eca37d0962e7a4bda1a74c72fdfc3c94cca,The Nairobi Hospital Cancer Centre,-1.2961939,36.8041156,hospital
2, Westlands,Parklands,-1.2630616000000001,36.810628799999996,f8355838ec63f464106a3e33d8fd56bb2575873f,Kenyatta National Hospital,-1.301301,36.8069899,hospital
3, Westlands,Parklands,-1.2630616000000001,36.810628799999996,dca4a94c2455af221c590ab97a97189363b39738,Mathura,-1.2609828,36.8167272,hospital
4, Westlands,Parklands,-1.2630616000000001,36.810628799999996,9a60a685fee66914050a655ecb7db821219fcdaa,Consolidated Diagnostic Imaging Centre (CDIC),-1.282234,36.8218522,hospital
5, Westlands,Parklands,-1.2630616000000001,36.810628799999996,7f4567a0d9a4c9ebb88d9efb3698774e49fc0556,Chiromo Lane Medical Centre ( Westlands Branch),-1.2691889,36.8096947,hospital
6, Westlands,Parklands,-1.2630616000000001,36.810628799999996,3eeea817b45823ed89d0ddd23cde0d724e2a7a9f,Metropolis K K Shah Laboratories,-1.2581152,36.8062157,hospital
7, Westlands,Parklands,-1.2630616000000001,36.810628799999996,a5841e693ce4477f298945d1b872cab15de6b709,Meridian Medical Centre-Head Office,-1.2831688,36.8224812,hospital
8, Westlands,Parklands,-1.2630616000000001,36.810628799999996,42a0afd08cb47adfc438b9ce55307ec27901819e,Jamia MedClinics,-1.283494,36.82156,hospital
9, Westlands,Parklands,-1.2630616000000001,36.810628799999996,9cc044af9bab5fd77a0b1f6237d610063b8eb962,Nairobi Ear Nose & Throat Clinic,-1.295874,36.80376700000001,hospital
10, Westlands,Parklands,-1.2630616000000001,36.810628799999996,6bdd66374394d71a4526061605a8a2ef3c28b935,Lords Healthcare Ltd,-1.2927259,36.8159929,hospital
11, Westlands,Parklands,-1.2630616000000001,36.810628799999996,222dbf774a81e2f3ee707222831d1239f986e31c,Migration Health Assessment Center (MHAC),-1.2318854,36.8043655,hospital
12, Westlands,Parklands,-1.2630616000000001,36.810628799999996,7e632e2a71aa18a44b9b9fb959a9baa1730437f8,Humming Health Medical Facility,-1.2617739,36.8398159,hospital
13, Westlands,Parklands,-1.2630616000000001,36.810628799999996,0eb507115dd603ea2d9d9cd0871a6730155bb890,Better Living Hospital,-1.2892383,36.80844800000001,hospital
14, Westlands,Parklands,-1.2630616000000001,36.810628799999996,633123605252d81305a871a931bdc8d7475ecf27,M.P Shah Hospital,-1.2631802,36.8118737,hospital
15, Westlands,Parklands,-1.2630616000000001,36.810628799999996,8744860e8ab889abb48c2808e9c3f16159167ac9,HCGCCK Cancer Centre,-1.262839,36.81243000000001,hospital
16, Westlands,Parklands,-1.2630616000000001,36.810628799999996,265d54ce241b80319e4bf62a4839eeae76656463,Meditest Diagnostic Service Ltd.,-1.2638579,36.8087941,hospital
17, Westlands,Parklands,-1.2630616000000001,36.810628799999996,d9356edc70a87a3c55911a996d1cb58e1995e8e3,AIC CURE International Hospital- Nairobi Clinic,-1.2623332,36.8071039,hospital
18, Westlands,Parklands,-1.2630616000000001,36.810628799999996,a04eb529a0cdc918caeeb51e1d41b3674506a7a4,International Health Centre,-1.2636372,36.8068017,hospital
19, Westlands,Parklands,-1.2630616000000001,36.810628799999996,dddf3fd5ec1928336ff455096f265b236b059070,Aga Khan University Hospital Medical Centre,-1.2686318,36.8099207,hospital
20, Westlands,Parklands,-1.2630616000000001,36.810628799999996,b1d4f7a6a9f59e92ad3254b49bf23b524d449f68,"Mater Misericordiae Hospital, Interstral Medical Centre",-1.2610249,36.804447,hospital
21, Westlands,Parklands,-1.2630616000000001,36.810628799999996,fc07aaa172a06933802e70934e76f18367f6d8c3,Aga Khan University Hospital Medical Centre,-1.260747,36.81697599999999,hospital
22, Westlands,Parklands,-1.2630616000000001,36.810628799999996,9e2f53d4b33f5a4c2a3c9d3963c2d8055015cbcb,BSR Hospital Nairobi,-1.2654703,36.81723099999999,hospital
23, Westlands,Parklands,-1.2630616000000001,36.810628799999996,69de50561714e278ae6d6e65a77dc3fb28622e08,Healthcare - Wellness Medical Services (K) Limited,-1.2612015,36.8215932,hospital
24, Westlands,Parklands,-1.2630616000000001,36.810628799999996,3cd891e4f3a2944abf23352f4f31ce3201913dee,Aga Khan University Hospital - Children's Ward,-1.2614711,36.8227732,hospital
25, Westlands,Parklands,-1.2630616000000001,36.810628799999996,5182d431278ed86e18d153a61586065d753b5390,The Aga Khan University Hospital,-1.2611565,36.8241229,hospital
26, Westlands,Parklands,-1.2630616000000001,36.810628799999996,41e45c47ff6ea2f3c985344d3f3eac9f82253792,Aga Khan University Hospital,-1.262241,36.82454550000001,hospital
27, Westlands,Parklands,-1.2630616000000001,36.810628799999996,a80724828e6256aaa48f199baa1f03bddc354a33,Aga Khan University Hospital Diagnostic Centre,-1.2621914,36.8246655,hospital
28, Westlands,Parklands,-1.2630616000000001,36.810628799999996,403ab1a1bed1d62c09731cbc4b59990ab062e201,Chiropractic & Physiotherapy Health Centre - Westlands.,-1.2613982,36.79599080000001,hospital
29, Westlands,Parklands,-1.2630616000000001,36.810628799999996,cf446d2604ad781d1266da7df92d8d6c766c57ca,Dr. K. C. Wafula,-1.280379999999999,36.82217,hospital
30, Westlands,Parklands,-1.2630616000000001,36.810628799999996,86d04a968968f6875e22d00ad1824dbeb37d940e,Stratus Medical Imaging Solutions,-1.2577126,36.8301695,hospital
31, Westlands,Parklands,-1.2630616000000001,36.810628799999996,e7da3417885c470266bc4d2055b583f8c84940ec,Co-op Kwa Jirani Peter Ndege Moute,-1.283333,36.816666,hospital
32, Westlands,Parklands,-1.2630616000000001,36.810628799999996,ef17a078fe8708ffc8bf881ffaf473454a0f77a3,Aga khan Hospital,-1.283062,36.821867,hospital
33, Westlands,Parklands,-1.2630616000000001,36.810628799999996,c32737ea932bc6e5f3e98de903e998e58a5da408,"AAR Healthcare, ICEA Clinic",-1.284225,36.82102200000001,hospital
34, Westlands,Parklands,-1.2630616000000001,36.810628799999996,2681c222921904a594ee183fb02a4de8762681ec,Savannah Healthcare Services,-1.2849315,36.8198419,hospital
35, Westlands,Parklands,-1.2630616000000001,36.810628799999996,af0e527883c89c6221074a1141c87d8738378ee9,Nairobi Center for Internal Medicine,-1.2854521,36.8203864,hospital
36, Westlands,Parklands,-1.2630616000000001,36.810628799999996,ea6ebdda17ae8f525a63323f1b717bba7119353e,Kileleshwa Medical Plaza,-1.2753612,36.7890441,hospital
37, Westlands,Parklands,-1.2630616000000001,36.810628799999996,c755c73757b0ec7b3f23851eab4d0a44dcf6a96a,Tai Medical Centre,-1.2847137,36.8238715,hospital
38, Westlands,Parklands,-1.2630616000000001,36.810628799999996,9cdd6bded35e8f81304616b2ec0e9b8ee8fd4b28,Lancet mercy Medical cardinal Otunga,-1.2865921,36.8202779,hospital
39, Westlands,Parklands,-1.2630616000000001,36.810628799999996,77a1d0555222fd7c9b56ccd4f0e9bcbedfab7eac,Ivory Health Solutions,-1.2849842,36.8240831,hospital
