,constituency,ward,clat,clon,place_id,place_name,place_lat,place_long,place_type
0, Embakasi West,Umoja 2,-1.2818728000000001,36.899339700000006,7d4db5a9d8511264b6b58c61450a6ec3812c4f86,The Wentworth Hospital,-1.3205062,36.8986881,hospital
1, Embakasi West,Umoja 2,-1.2818728000000001,36.899339700000006,db7c546962a3012f0754ab3c51cd9f3403bf149e,Mukuru Health Center,-1.324922,36.8875341,hospital
2, Embakasi West,Umoja 2,-1.2818728000000001,36.899339700000006,10674708202d4063cd90ba950377ad62461ba14e,Jamaa Mission Hospital,-1.281695,36.8731424,hospital
3, Embakasi West,Umoja 2,-1.2818728000000001,36.899339700000006,598bda5052fd9a5d2cf95df38a9a4b4cdff78e8e,Fikiria Jamii Clinic,-1.3020356,36.8883847,hospital
4, Embakasi West,Umoja 2,-1.2818728000000001,36.899339700000006,8e6d9b933a130df7ac22d6bae5103affabbf2736,Meridian Medical Centre,-1.2831738,36.8797433,hospital
5, Embakasi West,Umoja 2,-1.2818728000000001,36.899339700000006,da37f65f01299e219af7aa4776e6aeab0819db88,NHIF buruburu branch,-1.2834624,36.8798093,hospital
6, Embakasi West,Umoja 2,-1.2818728000000001,36.899339700000006,92d4d1b498815da80008cf3b40e7cf176955a3f3,Gertrude's Children's Hospital Komarocks CLinic,-1.2668841,36.911115,hospital
7, Embakasi West,Umoja 2,-1.2818728000000001,36.899339700000006,cb762a475e957c3b7f2291fb79057feded9dd21a,Gertrudes Childrens Hospital,-1.266939,36.9108537,hospital
8, Embakasi West,Umoja 2,-1.2818728000000001,36.899339700000006,0b0aeb4702f053bd1426ee5227630c08b66f2004,St. Teresa Medicare,-1.2789564,36.90740290000001,hospital
9, Embakasi West,Umoja 2,-1.2818728000000001,36.899339700000006,20c1480960bf0af480951314bef3d69c50df1a1d,KAYOLE MATERNITY AND NURSING HOME,-1.2755961,36.9134617,hospital
10, Embakasi West,Umoja 2,-1.2818728000000001,36.899339700000006,411d9194c4c0627f91ce32ce4c264d3a8ab414c2,Near Home Medical Clinic,-1.2912617,36.8858242,hospital
11, Embakasi West,Umoja 2,-1.2818728000000001,36.899339700000006,93e00a8e307fcaf564f509c91bb1e3c8e77c4f8f,St. Judes Medical Centre,-1.2660088,36.9103185,hospital
12, Embakasi West,Umoja 2,-1.2818728000000001,36.899339700000006,8de99cdf914fb797bdce9acf0270d7d321260cce,CEKA MEDICAL CENTRE,-1.2851082,36.8996158,hospital
13, Embakasi West,Umoja 2,-1.2818728000000001,36.899339700000006,6611b1396a5656546b44a28f7956b8c558d3998e,Emmaus Nursing Home,-1.2834185,36.8941442,hospital
14, Embakasi West,Umoja 2,-1.2818728000000001,36.899339700000006,d63a996e2e76f46475fe128df48de0499fddb27e,Aga Khan University Hospital Medical Centre,-1.288722,36.900839,hospital
15, Embakasi West,Umoja 2,-1.2818728000000001,36.899339700000006,7b19b8e14ea994662e50830f80cd6fd52271c1bb,Nairobi ENT Clinic - Greenspan Mall Branch,-1.288918,36.9007721,hospital
16, Embakasi West,Umoja 2,-1.2818728000000001,36.899339700000006,d3433726162bea780ff2dcedd8d155fb40c89d60,Aga khan Hospital,-1.289068,36.901306,hospital
17, Embakasi West,Umoja 2,-1.2818728000000001,36.899339700000006,0c94aac8029ff11418b849443ef57ffd4f988135,Viva Afya-Masimba,-1.278464,36.9084161,hospital
18, Embakasi West,Umoja 2,-1.2818728000000001,36.899339700000006,9d1e6d0079afc0bdc941bb19c78c12ed71e75187,venus community centre-Nairobi,-1.2837265,36.910007,hospital
19, Embakasi West,Umoja 2,-1.2818728000000001,36.899339700000006,1a9e098006b3b85aeada5b004d05abc16bb1799e,Arrow Web Hospital,-1.274196,36.91754299999999,hospital
20, Embakasi West,Umoja 2,-1.2818728000000001,36.899339700000006,6795db81d673844cb4edc1a00362d1af8180513d,Primed Medical Services,-1.2705742,36.90896559999999,hospital
21, Embakasi West,Umoja 2,-1.2818728000000001,36.899339700000006,9cbdec631d1bab15c9668902faa2710035c99670,Jon Lee International Hospital Limited.,-1.2906627,36.886646,hospital
22, Embakasi West,Umoja 2,-1.2818728000000001,36.899339700000006,ecd7921169c01cf33189fab050ab32f0a1077585,Gertrude's Children's Hospital,-1.2954959,36.8877996,hospital
23, Embakasi West,Umoja 2,-1.2818728000000001,36.899339700000006,791c940760b5e8f3f422fba6c85710becf2b5dac,Viva Afya-Doctors Plaza,-1.2650827,36.9078592,hospital
24, Embakasi West,Umoja 2,-1.2818728000000001,36.899339700000006,7a7f1361e49db9120ead50b530b919a7639015ec,The Mater Hospital Buruburu,-1.2879419,36.881129,hospital
25, Embakasi West,Umoja 2,-1.2818728000000001,36.899339700000006,413f7a4822d8d1222a79f6ae7fb0d917065b86ad,MIKULINZI HOSPITAL,-1.2628154,36.90360149999999,hospital
26, Embakasi West,Umoja 2,-1.2818728000000001,36.899339700000006,5cd428776c058bcfab49e8672a7229f135b0f42b,Bliss Medical centre Buruburu,-1.281606,36.878916,hospital
27, Embakasi West,Umoja 2,-1.2818728000000001,36.899339700000006,9d59ea051f7d54a34f8769e34e361552cdfcdd92,Viva Afya-Sabasaba,-1.2728649,36.91790639999999,hospital
28, Embakasi West,Umoja 2,-1.2818728000000001,36.899339700000006,33d17d8018052a53a207a65f643e3c9a83ad2392,Phadam Hospital,-1.2755749,36.8784837,hospital
29, Embakasi West,Umoja 2,-1.2818728000000001,36.899339700000006,687c9bf88fd2c18a26ec9a549eaa1ad166d0926a,"AAR Healthcare, Donholm Clinic",-1.301341,36.888382,hospital
30, Embakasi West,Umoja 2,-1.2818728000000001,36.899339700000006,648c2519860ff07e46daf5c0b26482254bb51d90,Eastern Deanery Aids Relief Program,-1.3017643,36.8884591,hospital
31, Embakasi West,Umoja 2,-1.2818728000000001,36.899339700000006,da802eb1b5a54ad7ff192325db0ed9c06f1946bf,Metropolitan Hospital,-1.2877303,36.8751656,hospital
32, Embakasi West,Umoja 2,-1.2818728000000001,36.899339700000006,60814d82c24ad4f0e8a4e4549814161c891a734b,Uwezo Hospital And Maternity,-1.2676285,36.9223156,hospital
33, Embakasi West,Umoja 2,-1.2818728000000001,36.899339700000006,d8bccbbc35cbb7d9d3389023e36475aeaf9113d7,Makadara Health Centre,-1.2969203,36.872973,hospital
34, Embakasi West,Umoja 2,-1.2818728000000001,36.899339700000006,48ac10566f4a95e6cdef7e7fbaea90ff2eaaaa70,Aga Khan University Hospital Medical Centre,-1.261599,36.878577,hospital
35, Embakasi West,Umoja 2,-1.2818728000000001,36.899339700000006,3533a55a428744e1a60df6d9b4bfda9a16f47eae,Bliss Medical Centre Embakasi,-1.3097986,36.912213,hospital
36, Embakasi West,Umoja 2,-1.2818728000000001,36.899339700000006,263d42ac42572f3b3193cbaa601a72dd4826593c,Makwk Community Health Center,-1.2522398,36.8889892,hospital
37, Embakasi West,Umoja 2,-1.2818728000000001,36.899339700000006,e8924df4948a08b6c52d830a285f913c1b6f51cf,"Bristol Park Hospital, Fedha",-1.3131498,36.8945775,hospital
38, Embakasi West,Umoja 2,-1.2818728000000001,36.899339700000006,1355a777ed522b830331e0dd0358d396f170edfa,Viva Afya-Matopeni,-1.2642226,36.9266102,hospital
39, Embakasi West,Umoja 2,-1.2818728000000001,36.899339700000006,b9bf9314d163436aa2ee206908fe85b8559e511d,Cana Family Life,-1.3092054,36.88001779999999,hospital
40, Embakasi West,Umoja 2,-1.2818728000000001,36.899339700000006,e028f77fa05c9dc278118d2f503d8f1f332ae47a,Melihep,-1.3113669,36.8686679,hospital
41, Embakasi West,Umoja 2,-1.2818728000000001,36.899339700000006,4dbcb89644e82acf73dafbfc88079814c8d3e306,Imara Health Care Center,-1.3242127,36.8890884,hospital
42, Embakasi West,Umoja 2,-1.2818728000000001,36.899339700000006,9fce24e90d6ebbc527eacf3b0b3a70db2a624187,"Penda Medical Centre, Embakasi",-1.3249924,36.88941640000001,hospital
43, Embakasi West,Umoja 2,-1.2818728000000001,36.899339700000006,05088f9f7f1ed8a595d7f0eb4ec63296988cfe43,Marura Nursing Home,-1.2531354,36.86601769999999,hospital
44, Embakasi West,Umoja 2,-1.2818728000000001,36.899339700000006,1d820a8cbcf34f1cf4b096e3a71702ec630b13f0,Aga Khan University Hospital Buruburu Medical Centre,-1.282536,36.8795156,hospital
45, Embakasi West,Umoja 2,-1.2818728000000001,36.899339700000006,dd295773334e1ae5f0c1f72843c6c59f6a553cb4,Mama Lucy Kibaki Hospital,-1.2739487,36.8989094,hospital
46, Embakasi West,Umoja 2,-1.2818728000000001,36.899339700000006,9ef217119c89e122af4c86c682e0c4e8bb16f49f,Embakasi Medical Center,-1.3059899,36.9174796,hospital
47, Embakasi West,Umoja 2,-1.2818728000000001,36.899339700000006,2cf09ed08e5f1596a458f2528c3ae1c8c66d887b,Unity Med Clinic,-1.2806878,36.89871290000001,hospital
48, Embakasi West,Umoja 2,-1.2818728000000001,36.899339700000006,1fc12d3a586b01c4043d009d21cc61a3987657df,Unity Maternity & Nursing Home,-1.2807886,36.8984594,hospital
49, Embakasi West,Umoja 2,-1.2818728000000001,36.899339700000006,d1f6eebc9f9a5a459699828a0ad7936afe962265,victory hospital,-1.2819874,36.8966562,hospital
50, Embakasi West,Umoja 2,-1.2818728000000001,36.899339700000006,b5661dfeb2e02c64ae4736aca3d9661c275f622f,Victory Hospital,-1.281273,36.896545,hospital
51, Embakasi West,Umoja 2,-1.2818728000000001,36.899339700000006,2985689e5b18cd7b224722c0035f6483f87c4b08,Victory Hospital,-1.2816513,36.8964175,hospital
52, Embakasi West,Umoja 2,-1.2818728000000001,36.899339700000006,cfa020be86cd34f3338c43d03d102f50afc0ffd1,Ali muchiri mhogo,-1.28122,36.89648,hospital
53, Embakasi West,Umoja 2,-1.2818728000000001,36.899339700000006,c6dcd0ea1ace2a85a55237ea4cee9a9768fb48dc,Quick Medical Services Limited,-1.2822869,36.9022593,hospital
54, Embakasi West,Umoja 2,-1.2818728000000001,36.899339700000006,3a810b5612127961ba27c8773e7f12253957b008,Vienna Hospital,-1.2788001,36.8990963,hospital
55, Embakasi West,Umoja 2,-1.2818728000000001,36.899339700000006,e304b89b1c1d1dc46280c0cb63132381437cd9cc,BRIGHTSTAR MEDICARE CENTRE,-1.2848186,36.9004188,hospital
56, Embakasi West,Umoja 2,-1.2818728000000001,36.899339700000006,a550c092ed4a779175c1d45fad064241edb38731,Ceka Medical And Skin Clinic,-1.2850653,36.8995229,hospital
57, Embakasi West,Umoja 2,-1.2818728000000001,36.899339700000006,625388e539bfc392a24c0af40cd98c58413a53a4,Bridges Medical Center,-1.2798933,36.89679,hospital
58, Embakasi West,Umoja 2,-1.2818728000000001,36.899339700000006,d44c82e17c0b717cb1c3caf74bbaa72af4402dbf,Bliss Medical Centre Umoja,-1.2820781,36.9026661,hospital
59, Embakasi West,Umoja 2,-1.2818728000000001,36.899339700000006,c324d86ad247c0e3a1ca259a51f4c4c271cf296e,Emmanuel Medical Center,-1.2831366,36.8959735,hospital
