constituency,ward,clat,clon,place_id,place_name,place_lat,place_long,place_type,distance_km
 Lang'ata,Karen,-1.3283746,36.7049676,fedc8291bde951f57c790534d43b6b1d9aac05fa,Tamasha Joint Restaurant,-1.3553598,36.73646610000001,restaurant,4.608427467862271
 Lang'ata,Karen,-1.3283746,36.7049676,f6043c6debea2e045e906de01559a63f98efc131,Nest Reloaded - Zamunda,-1.3423938999999998,36.6662763,restaurant,4.572017796064923
 Makadara,Makongeni,-1.2873101,36.87210716,70636efadb25c200df0ce4f9019f89580bd2d452,Pizza Inn,-1.2988589,36.8370907,restaurant,4.096438301694943
 Roysambu,Kahawa,-1.1869631,36.912022,a3f7c83404d59a3677a10e01a6fbe60c5889c3cf,Masala Bistro,-1.1528094,36.92098729999999,restaurant,3.9238627216492032
 Dagoretti South,Uthiru,-1.2631329,36.7188955,668bc5b2f64c7b0faff36c9c6eac154e856311e6,TULIA - PETALS GARDEN HOTEL,-1.2515762,36.68663220000001,restaurant,3.8075178084606134
 Kibra,Sarangombe,-1.31226715,36.77745932,255c463dff5d3cb9f0809756d3c24bcb732a6d18,Java House - Galleria Mall,-1.3434212,36.7657184,restaurant,3.6995651644806165
 Kibra,Sarangombe,-1.31226715,36.77745932,77c2c39042441fe677376958a5e2af462296d0fd,Galito's,-1.3425889,36.7643708,restaurant,3.6698653412801927
 Dagoretti North,Gatina,-1.1655719999999998,36.85526373,17e1aa1933d5ee484f8452e7548ef39c1857abf2,Pizza inn Kiambu Mall,-1.165018,36.8240884,restaurant,3.4641926767876874
 Dagoretti North,Gatina,-1.1655719999999998,36.85526373,27a45cb54db3dc2ed917907bd94a9799c0c4ab17,Bahamas Bar & Restaurant,-1.1657896,36.8242564,restaurant,3.4450648360048977
 Dagoretti North,Gatina,-1.1655719999999998,36.85526373,d9135a2dfe105de27924a59e36d0df283e1bd943,Green Bite Hotel,-1.1654337,36.82427119999999,restaurant,3.4433701760190045
 Dagoretti North,Gatina,-1.1655719999999998,36.85526373,084e611b91f795e78b02ed3509f6f1e1a865413f,Kenchic restaurant,-1.1654124,36.8242951,restaurant,3.440726261386973
 Dagoretti North,Gatina,-1.1655719999999998,36.85526373,0bccf27b5ef177c74ce4d3ed53e21886b1eedb0f,Khole Khole Cafe,-1.1665425,36.8252619,restaurant,3.335010571852945
 Dagoretti North,Gatina,-1.1655719999999998,36.85526373,c504df61da3ffab75a50857fead1837e84e3275e,Nyumbani sports club ad lounge,-1.174265,36.8265413,restaurant,3.3341280970961016
 Makadara,Harambee,-1.290941,36.89721585,3e5e903d744f39cf887e3e2d8a48cae9cf8e1a04,Just Fish,-1.309681,36.920623,restaurant,3.3315303860790313
 Dagoretti North,Gatina,-1.1655719999999998,36.85526373,2cd40f1b54a79add47c58969388417b5ca74e736,Atlantic Foods Cafe,-1.16848,36.82548990000001,restaurant,3.3236807905738117
 Dagoretti North,Gatina,-1.1655719999999998,36.85526373,eb0d84239e1e6450b5216b2da05aa2d7ebee6409,Ikons Pub & Resturant,-1.1670882,36.8254878,restaurant,3.312455903223467
 Dagoretti North,Gatina,-1.1655719999999998,36.85526373,84919ca55e290094fb777c7d6c4cd434aa586ffb,Ikonz Lounge,-1.1672629,36.8258614,restaurant,3.2720598955233746
 Dagoretti North,Gatina,-1.1655719999999998,36.85526373,e8297e3914dfec9fdc8ce5fd566b2493b2c445ba,Rhema Restaurant,-1.1688899,36.826147,restaurant,3.255872197696861
 Dagoretti North,Gatina,-1.1655719999999998,36.85526373,53e5be3868ea8c67b52689e88af89f468334a342,Utatu Quality Snack & Bites,-1.1691178999999998,36.82628820000001,restaurant,3.243266505975591
 Dagoretti North,Gatina,-1.1655719999999998,36.85526373,a2d6cb7640fc1530ecf9f244a86baba023988106,Degakenias Cafe,-1.1677581,36.8261609,restaurant,3.24249794867822
 Dagoretti North,Gatina,-1.1655719999999998,36.85526373,1addc83f5184eacb2492891b0229d090e08143d6,Buffallo Restaurant,-1.1693098999999998,36.8264196,restaurant,3.2314494491751415
 Dagoretti North,Gatina,-1.1655719999999998,36.85526373,b98041ff99df20f31e1552f3bb8a87962886dee2,Farm Fresh White Meat,-1.1680492,36.8264736,restaurant,3.210466653554123
 Westlands,Kitisuru,-1.2395542,36.7839651,82de2456fbbdaab692d3608ea70f7ccbf0e50401,Yummy Tikka Bbq,-1.2157096,36.7996123,restaurant,3.1690876264625074
 Dagoretti North,Gatina,-1.1655719999999998,36.85526373,c49dbf6da59e722fffff2e5078d42b9efabfd1d9,Zaesco Restaurant and Bar,-1.168792,36.827029,restaurant,3.1572786162281536
 Dagoretti North,Gatina,-1.1655719999999998,36.85526373,eda171a5356c1c6215c40bc8366d273939f190a0,Opelaika Snacks,-1.1689985,36.8270694,restaurant,3.1555056655315634
 Dagoretti North,Gatina,-1.1655719999999998,36.85526373,06f69f341a3fe31502cc2767949e984b01813c8b,Zaesco Restaurant,-1.168895,36.82705900000001,restaurant,3.1552860428080445
 Westlands,Kitisuru,-1.2395542,36.7839651,2dd6b1929bf3ea1f53fa70340820f57274909b88,Fonda NBO,-1.2160514,36.79971419999999,restaurant,3.143685804634322
 Dagoretti North,Gatina,-1.1655719999999998,36.85526373,7ec249c6dd7dc888c669bb4ece3936b53767f4a2,The Office Bar & Restaurant,-1.1677174,36.8270995,restaurant,3.138173529898739
 Dagoretti North,Gatina,-1.1655719999999998,36.85526373,756646ee227bc1bfec33e02421db53862343b5f1,The Office Lounges,-1.1678474,36.82725310000001,restaurant,3.1222944602584146
 Dagoretti North,Gatina,-1.1655719999999998,36.85526373,8dbee530182dd3873813038522cd8b5916e439fd,Lajoh Dishes Hotel,-1.1683496000000002,36.8274942,restaurant,3.100653550433194
 Dagoretti North,Gatina,-1.1655719999999998,36.85526373,2af5f648296beab778366ffd3a26b91cb7c8ef24,Falcons View Delicacies,-1.1704004,36.827873,restaurant,3.090105100637429
 Dagoretti North,Gatina,-1.1655719999999998,36.85526373,e5dc271d6af6c15fac3e00929684c358740c5751,Hatchers Inn,-1.17127,36.828075,restaurant,3.0863724764896703
 Dagoretti North,Gatina,-1.1655719999999998,36.85526373,d20ed04be101a5b2a474d90ec828a333a39bf17e,Club House Pub & Restaurant,-1.169022,36.8277071,restaurant,3.0855088182626833
 Dagoretti North,Gatina,-1.1655719999999998,36.85526373,646a18dba11e75dad28501b39e9ae1bd3b63e100,Wahongo Bar,-1.1691417,36.8277785,restaurant,3.079322973108918
 Dagoretti North,Gatina,-1.1655719999999998,36.85526373,36b507e9d55ffadd435d592751712a40e9420ad3,Chicken Inn,-1.1711989,36.8281326,restaurant,3.078494910812871
 Dagoretti North,Gatina,-1.1655719999999998,36.85526373,54c0799e07cf0c9b1f0d9024d3397be34c2434e8,Hatchers Inn,-1.1712203,36.82815809999999,restaurant,3.0762052498804704
 Dagoretti North,Gatina,-1.1655719999999998,36.85526373,3a8ca2ef690f34b2b362c4e3ae69feb18c9b4c62,Kingangi bar and restaurant,-1.1693355,36.8279616,restaurant,3.0620177711208623
 Dagoretti North,Gatina,-1.1655719999999998,36.85526373,49a04c6390ede3c58e321e30ce63de727a2b5cad,Foundation Hotel And Catering Services,-1.1716061000000002,36.8286375,restaurant,3.0332710881809946
 Dagoretti North,Gatina,-1.1655719999999998,36.85526373,d144d9aa3130a2e4502502880bb14dd376e160d9,VIP Kamiti Corner,-1.1598367,36.8819169,restaurant,3.029036252898623
 Dagoretti South,Uthiru,-1.2631329,36.7188955,6677a97d4294152f7029b944a66027c1ae049765,Tai's Chciken,-1.2546451,36.6933972,restaurant,2.9857153503604326
 Dagoretti North,Gatina,-1.1655719999999998,36.85526373,5d34d98433dc2f32024bd62e8b2d63389f59315e,The Prince Cafe,-1.1726530000000002,36.829654700000006,restaurant,2.9520192576739306
 Dagoretti North,Gatina,-1.1655719999999998,36.85526373,a30c0134cb7739a4eb3414982e6a8e4b5b43311b,THREE BARRELS LOUNGE,-1.1748105,36.8304102,restaurant,2.9459479511739355
 Makadara,Harambee,-1.290941,36.89721585,4ed9cc32255c28e6195ad0f288eee00bc382ca5b,pizza inn,-1.3114656,36.91393239999999,restaurant,2.941266057599583
 Makadara,Harambee,-1.290941,36.89721585,8be407a4c51a0f694c3903a91cbb51e906397f45,Ricos Place,-1.31146,36.91344600000001,restaurant,2.90696009824419
 Dagoretti North,Gatina,-1.1655719999999998,36.85526373,1c6f89ccbe9a2290daa4a28165d1abb4d8dc46a9,Maximum restaurant,-1.1725169,36.83025959999999,restaurant,2.8832157734231374
 Lang'ata,Karen,-1.3283746,36.7049676,68fd55165ed5cbef76675c5ecfdaad197a00b417,215 Karen Garden,-1.324021,36.7305313,restaurant,2.8809205093476122
 Dagoretti North,Gatina,-1.1655719999999998,36.85526373,025b243ce868933ab0e69525f15684dccad8103c,Urban Spoon Restaurant,-1.1726496000000002,36.83049689999999,restaurant,2.861839403157975
 Dagoretti South,Uthiru,-1.2631329,36.7188955,44be770ada5161ef932d28062644396a2320fb14,Mayy Lounge & Hotel Kinoo,-1.2540403,36.69480060000001,restaurant,2.8612493853436254
 Dagoretti North,Gatina,-1.1655719999999998,36.85526373,8cddc780eff2a35a1114326a5092db0e51852cbc,Emirates Bar And Restaurant,-1.1726875,36.8306485,restaurant,2.8468155531295065
 Dagoretti North,Gatina,-1.1655719999999998,36.85526373,54ff7c8bbff7d1968ec28193d49317a71e972d5c,Flava's Restaurant,-1.1725861000000002,36.8308084,restaurant,2.8266258042416856
 Dagoretti North,Gatina,-1.1655719999999998,36.85526373,fc3664d0054b34bcc0d9dab5b28d4e36f06bbee7,Derby Restaurant,-1.1731888,36.8310948,restaurant,2.815458494565046
 Kamukunji,Eastleigh North,-1.2778285,36.8486835,c1c5a52772ca6d7f9d58761edde82a60a2259b9d,LILYS 3 in 1 CAFE,-1.2829388000000002,36.8240135,restaurant,2.7989859218092654
 Westlands,Kitisuru,-1.2395542,36.7839651,7e945b30a5b751a8146f252463ee54c8b16c8135,"Tribe Hotel, Village Market",-1.2271201,36.8058608,restaurant,2.797631637760003
 Westlands,Kitisuru,-1.2395542,36.7839651,3ae72338e9f59cf61e4670b2ba1a17678e3c8a61,Nest,-1.227115,36.80585,restaurant,2.79686844591033
 Ruaraka,Utalii,-1.25571935,36.8612155,666fdb2a43500a6741a8bab69eae37434a0bd68c,Muthaiga Country Club,-1.2595108,36.8364444,restaurant,2.784093097854941
 Kamukunji,Eastleigh North,-1.2778285,36.8486835,c1f87b66755ad427ef63bcc670020877df99c578,Berbers Oasis,-1.288774,36.82623100000001,restaurant,2.7751611494125763
 Kamukunji,Eastleigh South,-1.2778285,36.8486835,fe3b8a47f8c7378c87c1dbd903a406c07e9ce17c,Pizza Inn- Moi Avenue,-1.2846654,36.8249471,restaurant,2.744313799726257
 Westlands,Karura,-1.2369881,36.83255910000001,6fb30dcfe4f6e8457e7ddad4a30d92e15bc5f817,The Concord Hotel & Suites,-1.2545608,36.815443,restaurant,2.7256754289399967
 Westlands,Karura,-1.2369881,36.83255910000001,2ac8821acf7aa9ce89e86dcc3fce155c79061338,Bonhomie @ Concord,-1.2544886,36.8154458,restaurant,2.7197156115255696
 Westlands,Karura,-1.2369881,36.83255910000001,b4ce425a235045ea87a047db1d51f034ae89945e,Curry Flavors @ Concord,-1.2543337,36.8154426,restaurant,2.7076836272352747
 Lang'ata,Karen,-1.3283746,36.7049676,0b2d755debeae7556a6962ceed4be9b5fc782133,Piga Moja Restaurant -Karen Village,-1.3301492,36.6807858,restaurant,2.693710277947074
 Roysambu,Roysambu,-1.2188396000000001,36.88673920000001,6af945221e3404fa5a21f53b3ce41180e743e0a7,45 Degrees Kitchen,-1.2267218,36.8639018,restaurant,2.6841681856961386
 Westlands,Kitisuru,-1.2395542,36.7839651,d9ccc21a26390caaead5f8b0df50f20ae7605f81,Urban Gourmet Burger,-1.2280462,36.80512289999999,restaurant,2.675967988801806
 Dagoretti North,Gatina,-1.1655719999999998,36.85526373,47582f0dd4ed24d3042fecb5725cce661138a6d2,Riverside Hotel,-1.175535,36.83337279999999,restaurant,2.6722625414389496
 Westlands,Kitisuru,-1.2395542,36.7839651,6e3be1f20dcf7b2520434b4afdf11ec0121643d2,Habesha Restaurant,-1.2315866000000002,36.80649590000001,restaurant,2.655131205078936
 Westlands,Kitisuru,-1.2395542,36.7839651,4b80d32fcf16ac57c3bcaa165634dfacc50ab9b8,Shanema Homes,-1.2322325,36.8059789,restaurant,2.577501999163765
 Dagoretti South,Uthiru,-1.2631329,36.7188955,6bf9a1b65d69c5f66ff1e378fef1bd3bfa9a113c,Weaver Bird Gardens,-1.2406647,36.7230288,restaurant,2.538658081686788
 Makadara,Harambee,-1.290941,36.89721585,b2654a60641d29ad79d0f825ce5886e6f9a45cfe,NAIROBI,-1.3084394,36.911662,restaurant,2.5212862666314293
 Lang'ata,South C,-1.3204426999999999,36.83053678,2a482d7aa6f01bae90dc8c15ea31a75a6a7a69fc,My Shop-Lusaka,-1.298727,36.837061,restaurant,2.5196620052602183
 Lang'ata,Mugumoini,-1.1991235,36.846741200000004,893950c6ccc9128706df146c3f4cf6982f489372,Elysian Resort - Runda,-1.2121646,36.828262,restaurant,2.51300037764779
 Lang'ata,South C,-1.3204426999999999,36.83053678,23cd0a0c2eb51f5df1206a33a99c85362fca9cd3,Chicken Inn-Lusaka,-1.298791,36.836935,restaurant,2.5088495836586997
 Lang'ata,South C,-1.3204426999999999,36.83053678,6c4261d64b15e7a93f70ecdd422523871e0870d7,Creamy Inn-Lusaka,-1.29884,36.83702599999999,restaurant,2.5065170959466005
 Westlands,Karura,-1.2369881,36.83255910000001,4c21350c6fca0789f2a381d4d96722b60d1e38b6,Domino's Pizza Gigiri,-1.2376611000000002,36.810081,restaurant,2.498418562843064
 Lang'ata,South C,-1.3204426999999999,36.83053678,396a2b063868ae6b1cd402ec0a1d5c5bed73b48f,Pizza Inn-Lusaka,-1.298974,36.83717100000001,restaurant,2.4969666129333086
 Westlands,Kitisuru,-1.2395542,36.7839651,b4735f2e71de03888505d7d7418306f8df791904,RocoMamas Nairobi Kenya,-1.2302426000000002,36.8043942,restaurant,2.4944065337724304
 Lang'ata,South C,-1.3204426999999999,36.83053678,b9b0dcc2e30a850b4e9b4b8e57f915eeaf8c0e00,Galitos-Lusaka,-1.298974,36.83685200000001,restaurant,2.4867363451108893
 Dagoretti North,Gatina,-1.1655719999999998,36.85526373,ce85ec508eb9e973eba26df921b1ed88621152d7,Solopia Horse Farm,-1.15649,36.834897100000006,restaurant,2.477646581889517
 Westlands,Karura,-1.2369881,36.83255910000001,4f1b5a261d5fe26a0a8cffe918bb20445dadc173,Big square kenya gigiri,-1.237791,36.810465,restaurant,2.4562578389208434
 Dagoretti North,Gatina,-1.1655719999999998,36.85526373,70b2bfb21d4e2a99ddd9c4a7a22070470b19869b,Green Hotel,-1.1787317,36.8379183,restaurant,2.419149930472439
 Westlands,Karura,-1.2369881,36.83255910000001,9faea91a70e3de739e8129896cca1a28aedbdf27,Camellia Guest House Nairobi,-1.2246305,36.8146451,restaurant,2.4180212034704165
 Lang'ata,Mugumoini,-1.1991235,36.846741200000004,98580fd15bd1b08fde1b4743026edc02e57656d1,Carvers Bistro Coffee and Steakhouse,-1.2178709,36.8358656,restaurant,2.4083431583994854
 Lang'ata,Mugumoini,-1.1991235,36.846741200000004,f721944091350a40031702190d2dd6e0c7225bc8,Kidventurous,-1.2169789,36.858691,restaurant,2.3873790925981293
 Westlands,Kitisuru,-1.2395542,36.7839651,0c0a04f20b7232dea16fcb296a0d430fa6c0759c,Subway,-1.2306427,36.8034683,restaurant,2.382365160113506
 Dagoretti South,Mutuini,-1.3,36.7,98bd4b0b54174c3e7cb81483636fbb30487e60a8,Dormans air kenya,-1.319959,36.70735499999999,restaurant,2.3636743498469936
 Makadara,Harambee,-1.290941,36.89721585,64209847ae924827c52c6108ceb18db9e27ae05f,Eagles Furnished Apartments,-1.308534,36.909156,restaurant,2.362571862744972
 Starehe,Pangani,-1.2648989,36.8372708,c793094340718b8ca3678faa8ff04046d5a83598,AURA Restaurant,-1.2574379999999998,36.81750299999999,restaurant,2.3474549534406446
 Dagoretti South,Mutuini,-1.3,36.7,478cadaaa17873f1a0b47dc777466fe2415887d9,Big 5 Restaurant & Meeting Place,-1.280944,36.690982,restaurant,2.342643410293288
 Dagoretti South,Mutuini,-1.3,36.7,3ce384279d4375fe6f271eced9ba184cda152c59,DSC Mess Hall,-1.3193743,36.6917966,restaurant,2.3379205763785222
 Westlands,Karura,-1.2369881,36.83255910000001,0c96e28b024601ccb9f599ef97ad7df69dc342e3,Emerald Garden,-1.2303171999999998,36.81265250000001,restaurant,2.3325421989665562
 Dagoretti South,Mutuini,-1.3,36.7,81bd8eab1639c4b0300949dd3b290c387117bcc5,Josam Kuku Inn,-1.2855768,36.6848516,restaurant,2.3240454279142533
 Ruaraka,Mathare North,-1.251788,36.87077217,28bfd35e49d2bfc1b9a3a40c3df7e289d84f25a0,Heritage Caterers,-1.2313516000000002,36.86684760000001,restaurant,2.3124745310101718
 Embakasi Central,Spring Valley,-1.2477029,36.78923560000001,7e71c80a80ce3875e8761d7353c19ea9c5975fb0,Mama Rocks Gourmet Burgers @ The Yard (AKA The Alchemist Bar),-1.2624879999999998,36.80380100000001,restaurant,2.306075768767528
 Embakasi Central,Spring Valley,-1.2477029,36.78923560000001,f6ff0621556b0e78a172a25124161025043095c4,KFC,-1.2629178,36.80327929999999,restaurant,2.300649592413793
 Lang'ata,Mugumoini,-1.1991235,36.846741200000004,9c99049af9df91144812f59322beaf79fcfc6416,HEALTHY RANCHER & GENERAL STORE,-1.2161175,36.8349695,restaurant,2.2971133577957326
 Embakasi Central,Spring Valley,-1.2477029,36.78923560000001,1e42e429cb1bdd1558a5ec15daab551b7840c1b7,Casual Bite Cafe & Coffee House,-1.2635446,36.8024843,restaurant,2.2946817280801786
 Lang'ata,Mugumoini,-1.1991235,36.846741200000004,9ad5ac035e186437e47d983a948100fbcdbd1f1b,cafeteria kist,-1.1814357,36.8362406,restaurant,2.2857041710528123
 Lang'ata,Mugumoini,-1.1991235,36.846741200000004,22568094649ca6ebf33941939e422533b7407c9a,Bypass INN HOTEL,-1.2159243999999998,36.83500469999999,restaurant,2.2772637691840134
 Lang'ata,South C,-1.3204426999999999,36.83053678,8608dc9a45db39ad747352cdb962ca4beb18a6d8,Rigz Fries Chicken,-1.3030171,36.8413159,restaurant,2.276790797484483
 Lang'ata,Nyayo Highrise,-1.31600475,36.80173345,f153f58818093a6e64bee292ba4273d7c67b94c6,NOMA CAFFE UPPERHILL,-1.2991453000000002,36.8133545,restaurant,2.2752701651669613
 Dagoretti South,Riruta,-1.2917037,36.7346929,cdccad8549397a6b0afb2460cf357c1eff44b5f6,The Curragh Irish Pub & Bistro,-1.3109667,36.7416194,restaurant,2.2747145855192006
 Lang'ata,Mugumoini,-1.1991235,36.846741200000004,069063fe153c90d4bac61982f922bb592776cb2d,Moran Lounge Nairobi,-1.2149976,36.83415820000001,restaurant,2.2507943289206738
 Lang'ata,South C,-1.3204426999999999,36.83053678,0b5946792e09ae38ee345caa79f1f44b68425ad5,KFC DRIVE THROUGH,-1.3257228,36.8500545,restaurant,2.246315901227584
 Dagoretti South,Mutuini,-1.3,36.7,8e87a5354aa7183c26a6a6cef6ab5e3f411595cb,Village Park Restaurant,-1.2812399,36.692593,restaurant,2.2412510256477147
 Dagoretti South,Mutuini,-1.3,36.7,a8e1fa03d9a732d333774514ca19fb07c3827568,Village Park Inn,-1.281253,36.692568,restaurant,2.2409188813930143
 Embakasi Central,Spring Valley,-1.2477029,36.78923560000001,7fbd09183441fd8f45716a063bbd19f4ed7ab0ba,Mercado - Mexican Kitchen and Bar,-1.2612482,36.8040554,restaurant,2.2308109974190864
 Lang'ata,Mugumoini,-1.1991235,36.846741200000004,ae408a93b7b8968b6dffe4751a141024d8072c7f,"Mugumo Bar & Grill, Kigwa Conference Hotel",-1.2146878,36.83413640000001,restaurant,2.225439392250661
 Embakasi Central,Spring Valley,-1.2477029,36.78923560000001,197b5ed2a908b1e17d575af6868173288aa6426e,Graze Steakhouse,-1.2627046,36.8023394,restaurant,2.213254589256649
 Kamukunji,Pumwani,-1.2797575,36.8442693,c57e9e6f7a22da14b30f6133aceca91cacf0b7f1,Chicken Inn-Moi Avenue,-1.2846896,36.8249783,restaurant,2.212148923809089
 Kamukunji,Pumwani,-1.2797575,36.8442693,bbdb81b38d718fc5eedafe401f20689fa5966164,"Galitos-Moi Avenue, Nairobi.",-1.2846748,36.82498229999999,restaurant,2.211311415921268
 Dagoretti South,Mutuini,-1.3,36.7,2ca9369909dbcd4acd0a0f5dad09e6130c631b74,D'S Place,-1.3197661,36.702286,restaurant,2.2111434105229333
 Lang'ata,Nyayo Highrise,-1.31600475,36.80173345,4d0009525494b752f98ec7730178ddaa898c95d1,Upperhill Blueberry Restaurant,-1.2986251,36.811401,restaurant,2.2098678466140127
 Starehe,Pangani,-1.2648989,36.8372708,5d1a65c027e1febf82b6f80b308ae3a0b10a7b9c,ChicKing,-1.258294,36.818559,restaurant,2.20461256197794
 Dagoretti North,Gatina,-1.1655719999999998,36.85526373,b5402790757ad06fa4c732345d89cb21fd3dbd06,Ha Njeri Porridge,-1.1773439,36.8393124,restaurant,2.202734676216983
 Starehe,Pangani,-1.2648989,36.8372708,5c56ce5774440e01a4e9cdf94b3cc661b099709c,Shangrila Restaurant,-1.2579492,36.818718,restaurant,2.201113069122505
 Dagoretti South,Mutuini,-1.3,36.7,5f3a1d5b9fa1be58e31742105b3c3bc477a459c6,Mr. wok-two rivers mall,-1.319343,36.704027,restaurant,2.1955575228153297
 Starehe,Pangani,-1.2648989,36.8372708,8f5734441bfdeee7112c0dedc741802390a3a70b,Chowpaty,-1.259611,36.818586,restaurant,2.157413933068038
 Starehe,Pangani,-1.2648989,36.8372708,2c814ddacdd6ae3c48a9f925507d0809a780f3dc,Hashmi Barbeque,-1.2582948,36.81910120000001,restaurant,2.1478747209524522
 Lang'ata,Karen,-1.3283746,36.7049676,c828828abd299c7b34f8bba5290fca03577cc165,Tamambo Karen Blixen,-1.345252,36.7143885,restaurant,2.147768976374988
 Embakasi Central,Spring Valley,-1.2477029,36.78923560000001,aadc82360aadde7f90bfa3c7556682e59fa76781,LS hospitality Concept,-1.2605512,36.7748022,restaurant,2.1470512284976175
 Lang'ata,Karen,-1.3283746,36.7049676,b0bc73583dae9696a2c27e4c5be78dcfdb8e7c33,Karen Blixen Coffee Garden,-1.3455543,36.71375030000001,restaurant,2.1439830922843948
 Kamukunji,Pumwani,-1.2797575,36.8442693,0cbb26c2382bc88527634bcaed818e4b98cde10a,Lazarus Inn & Grill,-1.28593,36.82619,restaurant,2.122451892105977
 Dagoretti North,Kabiro,-1.2878118,36.751501399999995,9557f77c0c10c6771a21ee7baf3fc490dfeb80db,Meriada Gardens,-1.2871877,36.7705489,restaurant,2.1172573941388535
 Dagoretti South,Mutuini,-1.3,36.7,ddf3b0409b1f175eed36c42d8998c7e8a88edfa0,The Fun Bars & Butchery,-1.2866675,36.6863868,restaurant,2.117160487449919
 Dagoretti North,Kawangware,-1.2784631000000002,36.751643,3fbed1aee35b1931295ee8267bf21a113b4515ea,Subzone Restaurant,-1.280305,36.77059600000001,restaurant,2.1155540406839446
 Dagoretti North,Kawangware,-1.2784631000000002,36.751643,dab86ff5e5aedd9e1eabe954cefeca450f0e41d5,Stack & Squeeze,-1.2802348999999995,36.7705989,restaurant,2.115135389883164
 Kamukunji,Pumwani,-1.2797575,36.8442693,e5fe2b0b2a6b410a4fd71ca029dfe849b9876776,Bakers Inn-Moi Avenue,-1.28869,36.82747500000001,restaurant,2.1134126744919617
 Lang'ata,Mugumoini,-1.1991235,36.846741200000004,ef3b3b662a48436f2fd95fc0fa444f40b5ead80e,Oak Place Conference & Training Centre,-1.2173156,36.85227399999999,restaurant,2.1129871765601074
 Embakasi Central,Spring Valley,-1.2477029,36.78923560000001,f991c4dcf690c6574500d613b72a232b63a342fe,Ambience,-1.2607028,36.77536010000001,restaurant,2.11264786848019
 Kasarani,Ruai,-1.2677339,36.9911112,fb448430bdcb88220b5b486ce22bf979b1b581ad,Spanish town,-1.2595256,37.0081896,restaurant,2.1052449311656325
 Embakasi Central,Spring Valley,-1.2477029,36.78923560000001,411fc15e5cdb33c33f50802d5d1758fb3703bf87,Cheka Japanese Izakaya,-1.2606249,36.7753835,restaurant,2.1048364781628868
 Kasarani,Ruai,-1.2677339,36.9911112,abf3581e3b4e352d4c9654eedf7ff85c4c717dff,Veeken Limited,-1.2495106000000002,36.98598920000001,restaurant,2.10349856792022
 Embakasi North,Kariobangi North,-1.3151376000000001,36.86733961,8dd47c9cd960f5e58a137c83b96f010babcb7d4f,Mc Fry's-Mombasa Road,-1.3273102,36.85284779999999,restaurant,2.102800448957803
 Kamukunji,Pumwani,-1.2797575,36.8442693,f131719fe2013679c144bd4b96e2e6ada80c05b4,Bakers Inn-Ambassadeur,-1.285848,36.826413,restaurant,2.0960618996621294
 Lang'ata,Nyayo Highrise,-1.31600475,36.80173345,610a82140d6c6b40b1b13116222f7dbf24bd2177,Kikeweza Kitchen,-1.2999637,36.811655,restaurant,2.0958241994441456
 Dagoretti South,Mutuini,-1.3,36.7,a4fa94cd6e0ab7edb2f9d51c7d4ac21c88b824b3,Chicken Spot,-1.2868263999999998,36.6865548,restaurant,2.0914709754965592
 Kamukunji,Pumwani,-1.2797575,36.8442693,e3455237c52e41798db8a312e5b0acaa319fcb40,Vasilis Cookie Parlour-Ambassadeur,-1.285821,36.82646099999999,restaurant,2.0900463784912215
 Kamukunji,Pumwani,-1.2797575,36.8442693,566ffc33829d65506588cf0d34c2f746eb04ced5,Highlands Restaurant - Tom mboya St,-1.2861926,36.8266381,restaurant,2.085229173482105
 Kasarani,Njiru,-1.2539022,36.9343299,115dd20cafcc946b28d2a20119d56ce2d889a561,Flame Flavours Grill Restaurant,-1.2504686,36.95276949999999,restaurant,2.0838435371439563
 Dagoretti North,Kawangware,-1.2784631000000002,36.751643,9009948195b3a5fd7c2c10f384174aaeac26977f,Fries & More,-1.27979,36.77032200000001,restaurant,2.0804207258958782
 Embakasi Central,Spring Valley,-1.2477029,36.78923560000001,505c5fb1223b6c5a50c1f205fdbc13adcac36c8e,"The Node, Westlands, Nairobi",-1.262442,36.8007635,restaurant,2.079167770953753
 Lang'ata,Karen,-1.3283746,36.7049676,466f3f3d40c4c96ba60182afd05b76594d88467f,Tamarind,-1.3449087,36.7136307,restaurant,2.074158286431138
 Embakasi Central,Spring Valley,-1.2477029,36.78923560000001,f2767ae42edfc2a9ab58ce6984ffae4dfb57f707,The Wine Gallery Kenya,-1.2558787,36.8059802,restaurant,2.070304470191795
 Dagoretti North,Kawangware,-1.2784631000000002,36.751643,8e0e0f8ff3cf32adf1211ef7bae8e1104a624bfa,Gourmet Lynk,-1.2794485,36.7702451,restaurant,2.069544497143675
 Embakasi East,Mihango,-1.2692818000000001,36.95299050000001,b3bd6771d22f8d1ce1fc6b24e9857291f07f140f,Monc,-1.2574154,36.9671408,restaurant,2.051891758817891
 Embakasi East,Mihango,-1.2692818000000001,36.95299050000001,1fcd3dac09703999f433b168aa6e979abec94e90,Top Notch Restaurant,-1.2876767,36.9514033,restaurant,2.0517268246288225
 Embakasi East,Mihango,-1.2692818000000001,36.95299050000001,01dc771966cbd9af9944edcfea7544c5d111c474,Lady Boss Bar & Restaurant,-1.2876465,36.9513432,restaurant,2.048968864240911
 Embakasi East,Mihango,-1.2692818000000001,36.95299050000001,b3e443dd2585e38bd2acd5216d08e7e90261e6f7,Red Vickers Lounge,-1.2876401000000002,36.9514317,restaurant,2.0474054325338855
 Kibra,Laini Saba,-1.31234835,36.79611435,7cd5a68269fff71ba76f0a85c005869f0ef3d29f,ANPA Restaurant,-1.2941729,36.7989012,restaurant,2.0433412521135654
 Lang'ata,Mugumoini,-1.1991235,36.846741200000004,5974b2a195c728d5defb5da22227f785048d8ce8,Ridgeways Eateries,-1.2119648,36.83364869999999,restaurant,2.0376742277109345
 Kamukunji,Pumwani,-1.2797575,36.8442693,952a5b22dee45766630dcb125e8bf5097d161deb,Paleo Coffee & Grill,-1.2868466,36.8273695,restaurant,2.0360938928883106
 Dagoretti South,Mutuini,-1.3,36.7,3f77db73bc749f29ced1f3f45a1013ddf1ea03bd,Summary Chicken Point,-1.2867928999999998,36.6873193,restaurant,2.034365830113878
 Embakasi East,Mihango,-1.2692818000000001,36.95299050000001,c6b32a59174c87e20fc09f0935e89330ed6c03c0,Tripple N Caterers,-1.2874862,36.95156979999999,restaurant,2.0291140312553018
 Embakasi East,Mihango,-1.2692818000000001,36.95299050000001,ff82a12cdd2c7a4d2b00294763d0961b205408ab,Shooters Inn,-1.2875,36.9519444,restaurant,2.027832651730711
 Lang'ata,Mugumoini,-1.1991235,36.846741200000004,9af4382f1fb534f302025bb1c4a3e055340b6f17,Pizza Inn Four Ways,-1.2128905,36.8347724,restaurant,2.026987266408522
 Kamukunji,Pumwani,-1.2797575,36.8442693,ce2436aa0f2124b07b5e36b7f4500f3628646c92,Baker Inn-Tom Mboya,-1.288114,36.828113,restaurant,2.0209074758910544
 Embakasi Central,Spring Valley,-1.2477029,36.78923560000001,e942d0cf5359f80c66908c3b8116e04b39b1f09c,Alan Bobbe's Bistro,-1.264054,36.781331,restaurant,2.018110253132595
 Kamukunji,Pumwani,-1.2797575,36.8442693,e893603e46f35dfe7b0517c091cbae59fd7bf02f,Oilibya Lusaka Road,-1.2969620000000002,36.83846700000001,restaurant,2.017600258610728
 Dagoretti North,Kawangware,-1.2784631000000002,36.751643,51f81423de49fc83eeba9c214802e80b364f9647,Big Square Lavington,-1.278575,36.769791,restaurant,2.0162348376097183
 Dagoretti North,Kawangware,-1.2784631000000002,36.751643,302e56c5908938f184b9765a1d52a59328fef175,MAMBO ITALIA LAVINGTON,-1.2784938999999995,36.7697761,restaurant,2.0145440791634566
 Kibra,Laini Saba,-1.31234835,36.79611435,a0d9921aee4bef5d09bc10a56eeb5a7ff886f34b,Dominos Pizza- Hurlingham,-1.294389,36.7984859,restaurant,2.0130509590486043
 Embakasi East,Mihango,-1.2692818000000001,36.95299050000001,079269b5fe68e9ca971a2129511c85c07849935e,Vast-end Delicacies,-1.2873199,36.9524607,restaurant,2.0053498930801954
 Embakasi East,Mihango,-1.2692818000000001,36.95299050000001,609c63833389cb9fb6005ee5abd396cf0091b4d9,Six Plaza Court,-1.2513793,36.9541061,restaurant,1.9932743879794301
 Embakasi East,Mihango,-1.2692818000000001,36.95299050000001,0c19ae7eebc1cbccac6ba6fb62a9b00f3df09be0,Amicus Bar and Restaurant,-1.2513793,36.9541061,restaurant,1.9932743879794301
 Lang'ata,South C,-1.3204426999999999,36.83053678,2da000a9fb515778169997b5bc8e5e2a2a9ed56b,Eagles Steakhouse,-1.326171,36.847503,restaurant,1.9894577344580135
 Lang'ata,Karen,-1.3283746,36.7049676,08170fe7f2995ca10efde3e059848f7b008ea7d2,Dari Restaurant,-1.3295822,36.68719859999999,restaurant,1.9786069681537524
 Embakasi Central,Spring Valley,-1.2477029,36.78923560000001,3c3db6851234fafb708c14259f1b65be8f599d1e,360 Degrees Pizza - ABC Place,-1.2597629,36.77613970000001,restaurant,1.9781022208586343
 Kibra,Laini Saba,-1.31234835,36.79611435,d685d8ec467ab27c28236fcfdbfc082af562cb00,Jus Chicken,-1.2954418,36.8016019,restaurant,1.9751814341958338
 Embakasi North,Kariobangi North,-1.3151376000000001,36.86733961,cdbb733b1fb322ce6fef0f3171a7b0e175edfe66,Red Garnet @ Panari,-1.3288537,36.85607049999999,restaurant,1.972452431336994
 Embakasi East,Mihango,-1.2692818000000001,36.95299050000001,490b4cad0097e5efadf405c1d6718b3db0d6c44d,Happy Bar and Restaurant,-1.2515372,36.9531611,restaurant,1.971961775023567
 Westlands,Karura,-1.2369881,36.83255910000001,615afabd1fdf072afb787683f1ad60d77f0417e7,Shangrila,-1.250008,36.820623,restaurant,1.9626129099864695
 Westlands,Kangemi,-1.2654258999999999,36.7525183,06bf4db5f282bc6df949a361cfcd48155aed1db1,Wine Shop,-1.2504352,36.7618415,restaurant,1.9616061516349652
 Dagoretti North,Kawangware,-1.2784631000000002,36.751643,ef1c334a510096d9380c557897d06dfbf9775e3d,Tokyo Restaurant,-1.2815099,36.7690345,restaurant,1.9615906739950908
 Dagoretti South,Mutuini,-1.3,36.7,d5bdd9307f6059efb5947ed65f1abd8cb215c84b,Tule Fish,-1.2971601,36.68267720000001,restaurant,1.9502071593395252
 Westlands,Karura,-1.2369881,36.83255910000001,7c4c8702da9db75f38727cda8db1414c57bd7c86,Camp David Club and Restaurant,-1.249649,36.82041100000001,restaurant,1.9496211262015761
 Ruaraka,Mathare North,-1.251788,36.87077217,4ac9763c3673d9026c781ebaf5f2d6c9c7c0005b,Hagon Restaurant,-1.2343506000000002,36.86888909999999,restaurant,1.9489938446364055
 Embakasi East,Utawala,-1.285877,36.98408679999999,0c93cc8501eb9cde41d872f3325f0447021fa491,Supersol quality delicacy,-1.278991,36.96797890000001,restaurant,1.9462810097501937
 Embakasi East,Utawala,-1.285877,36.98408679999999,5e216403eb1c271fddff21278e7129863e6558f1,Fun City,-1.2743439,36.97099269999999,restaurant,1.9387503947723808
 Kibra,Laini Saba,-1.31234835,36.79611435,1f02685502014f078c41469f9341040b7b48384d,Java House - Hurlingham,-1.2951648,36.7989724,restaurant,1.9357427382607304
 Dagoretti South,Mutuini,-1.3,36.7,c83f7fba91d69270e54b3675a9e78f0b0a80608d,Saisa Foods,-1.288155,36.687298,restaurant,1.9297493922402165
 Embakasi East,Utawala,-1.285877,36.98408679999999,0627c46c7188d097e503949f42f2e6e7defbf3ac,Queens Way Eatery,-1.285771,36.966838,restaurant,1.9163284006487593
 Dagoretti South,Mutuini,-1.3,36.7,95d69492d2092d4eb7683fb207d75ed6e1031519,"The Garage, Karen End",-1.2968235,36.6830524,restaurant,1.915623627525042
 Embakasi East,Utawala,-1.285877,36.98408679999999,76d488f0a564c712222e4ed0f55323a1f71fd0da,Koffi Mapatano,-1.2776073,36.96901829999999,restaurant,1.909716737811282
 Embakasi East,Mihango,-1.2692818000000001,36.95299050000001,518928fae900392dbd795093526b3fd0be1ed3f6,Texas Gardens resorts (off kangundo RD -Kobil ),-1.2630961,36.9689843,restaurant,1.9052030976967105
 Lang'ata,Mugumoini,-1.1991235,36.846741200000004,f111bc228ad0823e391fa74169f17e86b882b969,Windsor The Place,-1.2052858999999998,36.86269899999999,restaurant,1.9005788205882082
 Lang'ata,Mugumoini,-1.1991235,36.846741200000004,15f14ed3eab94a69951325a4089f2ee9fb8b0a0b,Karima pub and rest,-1.2052858999999998,36.86269899999999,restaurant,1.9005788205882082
 Lang'ata,Mugumoini,-1.1991235,36.846741200000004,b55bfb50bd3cbcae7146da300db5a50f5d6e55e9,Karima pub,-1.2052858999999998,36.86269899999999,restaurant,1.9005788205882082
 Embakasi East,Utawala,-1.285877,36.98408679999999,607064973184a7b386c24b30ed100867f4d34423,Flavours Fast Food,-1.2793635,36.9682718,restaurant,1.9002543480951888
 Lang'ata,Nyayo Highrise,-1.31600475,36.80173345,f20663eacdf1411162c8cdf5ca9aa010833fb205,Park View Inn,-1.3329856000000002,36.80374359999999,restaurant,1.9001673403011974
 Dagoretti North,Kabiro,-1.2878118,36.751501399999995,998a854163da6e5748c7825e2ef177bb4c51d522,Chapo Chap Catering,-1.3039886,36.746438100000006,restaurant,1.8836042803754558
 Embakasi Central,Spring Valley,-1.2477029,36.78923560000001,3ffdc7cf6ac26401cd40e860db36e5d2eee9849f,Tapas Ceviche Bar,-1.2572646,36.803176,restaurant,1.878205125548747
 Westlands,Kangemi,-1.2654258999999999,36.7525183,c800078521ab2243f3539b381e46aff7d4f67555,Chabad House of Kenya (Jewish Center),-1.2660701,36.7693776,restaurant,1.8744019946799435
 Embakasi Central,Spring Valley,-1.2477029,36.78923560000001,6d9b045f82667811ec76a2dda12d5e309db730bf,Oh Cha Noodle Bar,-1.2572941999999998,36.8030787,restaurant,1.8711729981356962
 Embakasi Central,Spring Valley,-1.2477029,36.78923560000001,00df66e9b2d6ff5e6224ba8402057d16d0bd4626,Pizza Hut Westgate Mall,-1.2568547,36.8033493,restaurant,1.868940828916881
 Embakasi East,Mihango,-1.2692818000000001,36.95299050000001,75b3cb325027702191f3f8ce3b129afab203c16a,Texas Garden's Resort,-1.2648515,36.96918460000001,restaurant,1.8652746719693662
 Kibra,Woodley,-1.3056567,36.77600465,8e73a3e1845623cc9fdf5041c7b0349829fc1fda,Kobil Valley Arcade,-1.290042,36.769891,restaurant,1.8633809385347218
 Embakasi Central,Spring Valley,-1.2477029,36.78923560000001,eb4bb9c3646972efc4001b01a2d4385de4a18132,The Central at Oasis Suites,-1.259116,36.801511,restaurant,1.8623726776936924
 Embakasi East,Utawala,-1.285877,36.98408679999999,b9f44b5ce29248f154ed056177e0a66df9c46f0e,The Vogue,-1.2763783000000002,36.970295,restaurant,1.860620589404409
 Embakasi East,Mihango,-1.2692818000000001,36.95299050000001,f7d56e34733b193078b1d48b564bdc1c6913dc7c,Japlam Bar & Restaurant,-1.279131,36.966532,restaurant,1.8604358132955852
 Embakasi Central,Spring Valley,-1.2477029,36.78923560000001,d318a3f898ad6f0f41fa93739f16c7ee11205741,Artcaffe,-1.257139,36.80302199999999,restaurant,1.8562019337507012
 Embakasi East,Utawala,-1.285877,36.98408679999999,96bb619feceb00d163224d97c0bbb527244f907f,Password Cafe,-1.2732671,36.9732705,restaurant,1.8459603433330187
 Embakasi East,Mihango,-1.2692818000000001,36.95299050000001,9f484351368cab5735bba4a04d73a0214711360b,Utawala Fast Foods,-1.2802421999999998,36.965426,restaurant,1.8417809781546097
 Lang'ata,South C,-1.3204426999999999,36.83053678,23c1785fdbdc56dddaca4ead39d4c57e010c29a7,Big Five Restaurant,-1.3269355,36.8457694,restaurant,1.8396672467797905
 Embakasi East,Mihango,-1.2692818000000001,36.95299050000001,7abddc3ef6edf1f90a163a2e6dce5364367a4e56,Sunrise Eateries,-1.2802627,36.96530540000001,restaurant,1.8332675637603717
 Embakasi East,Utawala,-1.285877,36.98408679999999,ba5b6aae6c2a5799bdba42a3e8c3bf4b79c0a8bd,Tripple O Hotel,-1.2725636,36.9743854,restaurant,1.8304194396235964
 Roysambu,Githurai,-1.2062932,36.9206391,e6ace093f9f5baf43a0e1df72d83ab0510b56a7c,Hamburger Resturant,-1.1918877,36.92861079999999,restaurant,1.8294805287068159
 Embakasi Central,Spring Valley,-1.2477029,36.78923560000001,322205fbde437d4c69e3738e4cf70587f5e7febb,Urban Gourmet Burger,-1.2563243,36.8032601,restaurant,1.8290843794238818
 Roysambu,Roysambu,-1.2188396000000001,36.88673920000001,d134c87893ea702de741106ab6a9cc20a8af5249,Jambo Grill,-1.23143,36.8761711,restaurant,1.8264853484538925
 Starehe,Nairobi South,-1.314183,36.823585200000004,4f7af782786c3f2a31508bbcb814d76298d0afc3,Mc Fry's-Butere Road,-1.304471,36.836835,restaurant,1.8252565626716128
 Embakasi Central,Spring Valley,-1.2477029,36.78923560000001,748d3bc8369998b093e89983fce419a9d125e095,Subway,-1.256984,36.80277,restaurant,1.8233707819807754
 Lang'ata,Mugumoini,-1.1991235,36.846741200000004,17ce1c38d771b26dde989cc35062043d4695ed17,New Sarivid Place,-1.2085909,36.8333622,restaurant,1.8210632582002635
 Embakasi East,Mihango,-1.2692818000000001,36.95299050000001,dd903f71ecb3b52dba12b53dc1b82f75bac579e1,Banta Bar & Restaurant,-1.2796473,36.9656575,restaurant,1.818575649819983
 Embakasi East,Mihango,-1.2692818000000001,36.95299050000001,828e3e748d5b863ff4b1cc989b61e866a78d106f,Japlam Restaurant,-1.2794549,36.9656521,restaurant,1.8046416729800023
 Embakasi East,Mihango,-1.2692818000000001,36.95299050000001,6aca7ba61708b5b370e3ea30284c37241e29dd3d,Gates Club,-1.281021,36.96418699999999,restaurant,1.8025176643443341
 Starehe,Landimawe,-1.2694542,36.83557186,d1ddd0c2fab81e671440f4c28bb27b66ce9a35d4,Hacienda Sports Bar & Grill,-1.2744035,36.8201523,restaurant,1.7992018908205765
 Westlands,Kitisuru,-1.2395542,36.7839651,88acc56e40068e8c90a91f3c96eaceb1cbd72cda,Jade at Zen Garden,-1.2448629999999998,36.768668,restaurant,1.7989733313755396
 Dagoretti North,Kabiro,-1.2878118,36.751501399999995,c5bde4c85499126a316db4f0bd1e2350e9816734,Hook'd,-1.2906952,36.7674141,restaurant,1.7966557317101375
 Kibra,Woodley,-1.3056567,36.77600465,21000a5d0088a068c752192fd107358d1d3f5eeb,Java Valley Arcade - Wazi WiFi Hotspot,-1.2905555,36.7702317,restaurant,1.796505407466123
 Embakasi East,Utawala,-1.285877,36.98408679999999,e12a7aa1b028381b84ba164c096811edbc9d33e7,Adams Hotel,-1.2995873,36.99262100000001,restaurant,1.7944824695238502
 Embakasi East,Mihango,-1.2692818000000001,36.95299050000001,56969470a4a808209e5f1527bd8e31ab7f2093be,The Avery Lounge,-1.279835,36.9651415,restaurant,1.7881953407324043
 Starehe,Nairobi Central,-1.2832533000000002,36.8172449,c42ff3493cb006eea8f8269fba3c2fe79631b369,Hadassah Hotel,-1.2946283,36.8058899,restaurant,1.7858376510085712
 Kasarani,Ruai,-1.2677339,36.9911112,d2580251990107df914f5298314ca3d1e336ce8d,THORNTREE GARDENS,-1.2521076999999998,36.9874068,restaurant,1.784567159216856
 Kibra,Woodley,-1.3056567,36.77600465,4ef78638e2c20b0f22c736c94718728d44372032,Pizza Inn-Valley Arcade,-1.2904411,36.7708778,restaurant,1.7841917721086438
 Kibra,Woodley,-1.3056567,36.77600465,cc6eabcbb62d9dec28942f54f06ac8c2753053da,Galitos - Valley Arcade,-1.2904520000000002,36.771001,restaurant,1.7787190083195157
 Kibra,Woodley,-1.3056567,36.77600465,2af4fe40dae558412010e40a8a6ffae0d67e8db9,Stop & Shop-Valley Arcade,-1.290522,36.770843000000006,restaurant,1.7769183683342142
 Embakasi East,Mihango,-1.2692818000000001,36.95299050000001,42868685ad51182ef0c21ba42afce457c66f087d,Gates Restaurant,-1.2810128,36.963847,restaurant,1.7759920366103286
 Embakasi East,Mihango,-1.2692818000000001,36.95299050000001,c2037227a6da9271993e0da050b4e6895f7b7ea9,Evergreen stores,-1.2849681,36.95603670000001,restaurant,1.7756900648119223
 Kibra,Woodley,-1.3056567,36.77600465,ce4dacf168029c2a948fe5a652f510fa88742485,Creamy Inn-Valley Arcade,-1.290527,36.770974,restaurant,1.771747924246586
 Dagoretti South,Riruta,-1.2917037,36.7346929,1cd16364eef16c6712321f4c6af2cc81b759d74d,Rhoda Vemoauz Restaurant,-1.307647,36.73469499999999,restaurant,1.7717010370186463
 Embakasi East,Mihango,-1.2692818000000001,36.95299050000001,7d2bd4ec2d786310d1a195dfab671d073ec2370c,Santa Bar & Restaurant,-1.2796184,36.9651318,restaurant,1.7716826481032937
 Embakasi East,Mihango,-1.2692818000000001,36.95299050000001,d7813674f90167d7eec5b1ae179467965c30d09b,Banta Villa Restaurant,-1.2792276000000002,36.9654302,restaurant,1.7696078429279956
 Embakasi East,Mihango,-1.2692818000000001,36.95299050000001,9e7c73d0c0a5ffc811e141bd6cd8e777b4559cdb,Zingi Pub,-1.279941,36.9648158,restaurant,1.7689047302948746
 Embakasi East,Mihango,-1.2692818000000001,36.95299050000001,a05c775dec3cdebfd0902dc4b652b2b02e091091,Topnotch Restaurant,-1.2800875,36.9646019,restaurant,1.7623792832504142
 Dagoretti North,Gatina,-1.1655719999999998,36.85526373,3111558b89fca248c0a24944fef4811213d24dfb,Todas Hotel,-1.1702357,36.84021630000001,restaurant,1.7502864384878363
 Westlands,Kitisuru,-1.2395542,36.7839651,a88363c04508e5dd1cd4139fc2bd0fc325f6bb0d,Bamboo at Zen Garden,-1.2441443,36.76895270000001,restaurant,1.7441167571967906
 Dagoretti North,Gatina,-1.1655719999999998,36.85526373,52d43271ddce58ec51c5b03d85bcb7267d43e4b4,Todas Hotel,-1.1701478,36.84026160000001,restaurant,1.7426046197329355
 Roysambu,Roysambu,-1.2188396000000001,36.88673920000001,96d1ac4ebe81345c863defb2d538bdbd65524e6a,Moca Loca Lounge,-1.2323227,36.8787854,restaurant,1.73948246724079
 Roysambu,Roysambu,-1.2188396000000001,36.88673920000001,7c992aae8b902c4f28b4a0c499f6df27eef1ab8b,KFC at Garden City Mall,-1.2324765,36.87906029999999,restaurant,1.7390408083844366
 Dagoretti North,Kilimani,-1.2874421999999999,36.784522499999994,0cde38b7be63ac28035b6d2747f044107e223f75,Kengele's Lavington Green #Loco,-1.2804055,36.7705588,restaurant,1.7372597008188293
 Embakasi East,Mihango,-1.2692818000000001,36.95299050000001,c4c577cc6154fbfdd0179a0717a3a4f91a8ae4ad,Texas Gardens Resorts (off Kangundo Road - Kobil Petrol Station),-1.2803973999999998,36.96396770000001,restaurant,1.7358149563525191
 Embakasi East,Mihango,-1.2692818000000001,36.95299050000001,b45a2371895acaa1ff0d764e0f003af2dab7993b,Vogue,-1.2803973999999998,36.96396770000001,restaurant,1.7358149563525191
 Embakasi East,Mihango,-1.2692818000000001,36.95299050000001,2fefc152c4776bc2d6883e1aab8654e3a70fa3e8,Wallets,-1.2803973999999998,36.96396770000001,restaurant,1.7358149563525191
 Embakasi East,Mihango,-1.2692818000000001,36.95299050000001,6c40bc08609f72b10b26511ce81806eb82afb333,"The Base Club, Guest House and Butchery",-1.280616,36.96373999999999,restaurant,1.7356826133305536
 Embakasi East,Mihango,-1.2692818000000001,36.95299050000001,d464793517f970330e5b6dbdf82f9abc53df8d01,"Bomaview Hotel, Corradini Area",-1.2562648,36.9615483,restaurant,1.7309949385113848
 Embakasi East,Mihango,-1.2692818000000001,36.95299050000001,cfcd34c6e064e0684ce2db4b78e39fc8537dfb3f,Summit Grill & Guest House,-1.2806153,36.96367219999999,restaurant,1.7304519193045786
 Embakasi East,Mihango,-1.2692818000000001,36.95299050000001,602586b82b5e785ad4b9d715b8748dd6dd1e4d53,Bonlee Fast Foods,-1.2841815,36.957474,restaurant,1.7290326778703313
 Embakasi East,Mihango,-1.2692818000000001,36.95299050000001,f97d1ff868b74a5f76e10c17a739f2a33edd8974,Suways Coffee & Restaurant,-1.2818153,36.9621679,restaurant,1.7260973273967275
 Kasarani,Ruai,-1.2677339,36.9911112,e43ec6e8738fb11a9afb3caac97a451915c2384d,Caffeticca Restaurant,-1.2751633999999998,37.0047299,restaurant,1.72360439701088
 Embakasi East,Mihango,-1.2692818000000001,36.95299050000001,f605dc5bb50330c9fbd5f55f4b60a6cf3a59e9f6,Corunas Club,-1.28044,36.963763,restaurant,1.7233163486658705
 Roysambu,Roysambu,-1.2188396000000001,36.88673920000001,92e072ae35940da97148d300b129de4dc063bf3e,Chicken Inn Garden City,-1.231806,36.878239,restaurant,1.7227901207310161
 Embakasi East,Utawala,-1.285877,36.98408679999999,d69eadcbdd61246db129116974059d3ccaaa657b,Canopy Spring Villa Gatukuyu,-1.278838,36.970303,restaurant,1.7195529887657879
 Dagoretti North,Kilimani,-1.2874421999999999,36.784522499999994,0f5745bf025acae010a55095f950849e3ace5996,Shanghai Restaurant,-1.2949681,36.7979935,restaurant,1.7144082961653462
 Roysambu,Roysambu,-1.2188396000000001,36.88673920000001,04686a667966dfe81428c5dfd78c3a0fc04f7229,MAMBO ITALIA GARDEN CITY,-1.2320642,36.8788444,restaurant,1.7114328331591324
 Kibra,Woodley,-1.3056567,36.77600465,1ba83db1f750020b9c0743ed863632a49310ae61,La Salumeria Restaurant,-1.291344,36.770466,restaurant,1.7053786914397397
 Lang'ata,Mugumoini,-1.1991235,36.846741200000004,4cb1b93075e92b2e79b7df9ffa5a4870ffb2855a,Brentwood Inn,-1.2051956,36.832654100000006,restaurant,1.704347118387755
 Embakasi East,Mihango,-1.2692818000000001,36.95299050000001,28dfc7e04ae9f0937d4219deacde1ebc4b949331,Utawala Fish Point,-1.2841218,36.95663560000001,restaurant,1.6980912124427645
 Westlands,Karura,-1.2369881,36.83255910000001,d623bb32b32d4ac55b53da1f1e4d6c83ce92738f,Ridgeviews Leisure Garden,-1.2226351,36.8377591,restaurant,1.69638283216936
 Dagoretti North,Gatina,-1.1655719999999998,36.85526373,e38d56b2a19091b81f92eb489f7997f8174f17a5,Owen's Eating House,-1.1717362,36.8413847,restaurant,1.6872902443183042
 Kasarani,Ruai,-1.2677339,36.9911112,43d856fe03c383303aa7626d34dc034e2cb66ed1,Blings Lounge,-1.2533611,36.9864608,restaurant,1.6786629446307784
 Dagoretti North,Gatina,-1.1655719999999998,36.85526373,f641429eb5a327d11bfc59fd25cdc91bf8063880,Silver bar,-1.1704265,36.8410066,restaurant,1.6733370996154115
 Embakasi East,Mihango,-1.2692818000000001,36.95299050000001,fc574c8319b6876090c2bf8957acc70bbb785e0a,Flame Grill (Grilled chicken &Pizza),-1.2827343999999998,36.959724400000006,restaurant,1.6716680840796494
 Dagoretti North,Gatina,-1.1655719999999998,36.85526373,f51d5c113519d00ef0445b961172c9efb982e22a,Fish And Chicken Den,-1.1728045,36.84207500000001,restaurant,1.6712390746495582
 Embakasi Central,Spring Valley,-1.2477029,36.78923560000001,de1aa648529ce4857b7626a8d2fa11df6c9d0688,Pizza Inn-Waiyaki,-1.2593593,36.7797479,restaurant,1.670003910312018
 Kibra,Lindi,-1.31516185,36.79284123,a8888f3faddd1a9adaa37e7ba3d99a2eed2be779,Petit Motomoto,-1.3287,36.786337,restaurant,1.6689645368433101
 Embakasi East,Mihango,-1.2692818000000001,36.95299050000001,eeeff33ddf072cf16bb0245c46c1d662540e634d,Beer Deluxe,-1.281407,36.9618461,restaurant,1.6683698424554123
 Embakasi Central,Spring Valley,-1.2477029,36.78923560000001,f51975d054c06ae46479db94793cb3d5941ff625,Creamy Inn-Waiyaki,-1.2593047,36.7797217,restaurant,1.6671461201637487
 Embakasi East,Mihango,-1.2692818000000001,36.95299050000001,1d9a7c9ac2005e6e01cfe167e223a736d172ed0d,Yana,-1.2828189,36.95945199999999,restaurant,1.6668150376061588
 Embakasi East,Mihango,-1.2692818000000001,36.95299050000001,5cae402ca0adef92d7bf5a8f3ded457395ae6326,U-tah gardens,-1.2827746000000002,36.959483,restaurant,1.663863614311133
 Kasarani,Njiru,-1.2539022,36.9343299,8338da99c00096f3efdecbeb5da874b3fc2768bc,Women Fighting Aids Snack Shop,-1.2613748,36.92138989999999,restaurant,1.6602058081020303
 Dagoretti South,Mutuini,-1.3,36.7,50a03fbb04e5c6714b665f3fadf02b8a3dd8e4dc,Raila home,-1.3148864,36.7012045,restaurant,1.6596563408673375
 Dagoretti South,Mutuini,-1.3,36.7,fd16db2d9a14734d80e6010c591160968639969d,The Balcony Bar And Restaurant,-1.3148864,36.7012045,restaurant,1.6596563408673375
 Kasarani,Njiru,-1.2539022,36.9343299,bb9443703761ffa7d6f37d374e499b79643a6c34,FC FRIES,-1.2497878,36.9486764,restaurant,1.6581569161732659
 Dagoretti South,Uthiru,-1.2631329,36.7188955,4755e0369e5d2bd80bd1e57529789ec9e73465ae,Palm Gardens Grill Ltd,-1.2593462,36.70447470000001,restaurant,1.6564644156129391
 Embakasi Central,Spring Valley,-1.2477029,36.78923560000001,da490d6e9b50717e18e37c5866d183de19ab7763,Chicken Inn-Waiyaki,-1.2591978,36.7797596,restaurant,1.6552955092555321
 Lang'ata,Nairobi West,-1.3087022,36.823097499999996,4f0c8a77efe5d068afa0c829d92c379897072d5f,Upperhill Springs Restaurant,-1.299166,36.811666,restaurant,1.6540503070805135
 Dagoretti North,Kabiro,-1.2878118,36.751501399999995,394110df6c001b7dc7a3f63fcdc5dade2f8a28cc,Artcaffe Junction,-1.2984937,36.7618344,restaurant,1.6513188011582918
 Dagoretti South,Mutuini,-1.3,36.7,78cb19143845fca7f6600ccd7bdce41aae24b6fb,Kijiji Cafe,-1.3053688,36.6861706,restaurant,1.6481673978950249
 Kasarani,Njiru,-1.2539022,36.9343299,b0e7976a8c9b50e206faf9334bd8eab3bd9fe7c0,Cheers Bar And Restraunt,-1.2634348999999998,36.92297039999999,restaurant,1.647683602012672
 Embakasi East,Mihango,-1.2692818000000001,36.95299050000001,1ea0d2b2e4f29c8f4a61352cf239c722a5b4caa6,"Brickbay Makuti, Bar & Restaurant",-1.280782,36.9623367,restaurant,1.6466132317249265
 Dagoretti North,Kabiro,-1.2878118,36.751501399999995,0dd4be0f1ac0dfa662cdc47eacdd5f9baec58565,Mediterraneo,-1.2982901000000002,36.7619748,restaurant,1.6461190020718195
 Dagoretti North,Kabiro,-1.2878118,36.751501399999995,5b8ddcb0cc7d1ccd18d4234ba8498d6d2a996a4e,Big Square Junction,-1.2984073,36.7618274,restaurant,1.6438878695725647
 Dagoretti North,Gatina,-1.1655719999999998,36.85526373,ab7087224e3beb5a19099525153d28bc6e85e4b2,Crispy's Fries,-1.1723107,36.8421306,restaurant,1.6400553350209788
 Kasarani,Njiru,-1.2539022,36.9343299,1ff4dbd3b833aa4a31e78d2f4bb36ad93a8a590f,Prime Shop & Cereals,-1.2631953000000002,36.9229523,restaurant,1.6322499102585781
 Kasarani,Njiru,-1.2539022,36.9343299,9676ada8ead9de5a8bc9085b363b63041210a522,Felcon General Shop,-1.2633293,36.923078,restaurant,1.6309835000880037
 Lang'ata,Karen,-1.3283746,36.7049676,752cd405f53262d2a7d125da09389eddddeaff31,Dari Restaurant,-1.318337,36.715653,restaurant,1.6289224158654965
 Roysambu,Roysambu,-1.2188396000000001,36.88673920000001,77368f985bd190b595628c579bfb163bef050a7f,Homeland lounge,-1.230506,36.877868,restaurant,1.6285313479041668
 Embakasi Central,Spring Valley,-1.2477029,36.78923560000001,a831958428555dcfdaa8c5c7e8a9de8513da855c,About Thyme Restaurant,-1.252948,36.8029211,restaurant,1.62833296454745
 Lang'ata,Nyayo Highrise,-1.31600475,36.80173345,59ce49f6c3e7d8903e19519b60b511db5f03429b,GP Karting Ltd,-1.3304072,36.8044166,restaurant,1.6279962657534697
 Kasarani,Njiru,-1.2539022,36.9343299,d925993d981066fafd09be33d7491c643f94c03c,Unistat General Shop & Book Centre,-1.2631017,36.92295430000001,restaurant,1.6255163905818564
 Dagoretti North,Kabiro,-1.2878118,36.751501399999995,58ff30b15586dcf5d16795eb65d7c5860f93bd71,Pizza Inn,-1.2977845,36.76218009999999,restaurant,1.623458923300811
 Dagoretti North,Kilimani,-1.2874421999999999,36.784522499999994,483958a9dc36a454e96b359add73d6e5ffc32d48,Century Lounge Hurlingham,-1.294965,36.797047,restaurant,1.6232483513828095
 Lang'ata,Mugumoini,-1.1991235,36.846741200000004,b32d0304ed80aba664d0edd9411faff4a6ee1caf,Kwa joab house thindigua,-1.2090082,36.8359844,restaurant,1.6232064287516712
 Lang'ata,Mugumoini,-1.1991235,36.846741200000004,de8848fe4ee3834f845ef6f81992fc75295c6468,Julie's fry caf√©,-1.2066125,36.83421919999999,restaurant,1.6211189077943404
 Dagoretti North,Kabiro,-1.2878118,36.751501399999995,fafec83e9cfe326bf6df433024062979918268cb,Subway,-1.2978335,36.7620946,restaurant,1.6202683037230319
 Kasarani,Njiru,-1.2539022,36.9343299,da1ba29d4cc1aaf66d333e54dc559eef3f39eeed,ABC,-1.2576726,36.9202584,restaurant,1.6184941678880658
 Kasarani,Njiru,-1.2539022,36.9343299,98d7e7d50e3d777330a2a908537f6078a780c599,Cheers Chicken,-1.2645863000000002,36.92446940000001,restaurant,1.6154568350747707
 Kasarani,Njiru,-1.2539022,36.9343299,769f3c30b573fc830b120cf923f6cae18d34b52c,Tumaini Shop,-1.2642709,36.92416699999999,restaurant,1.6132083158540143
 Lang'ata,Karen,-1.3283746,36.7049676,da8516880478dca448bd580b72718afa47eaa722,Topman Safaris & Travel,-1.315399,36.69864000000001,restaurant,1.6041456080019671
 Kasarani,Njiru,-1.2539022,36.9343299,b01cfab06db5660747f709ad250582e77bf4ec6e,Beuala Shop,-1.2628953,36.92305349999999,restaurant,1.6025602079276295
 Kasarani,Njiru,-1.2539022,36.9343299,faf77a02b9149606ec3db3b0d5abde6f7acf6a7c,Victoria Shop,-1.2643098,36.924426800000006,restaurant,1.5962695087900753
 Kasarani,Njiru,-1.2539022,36.9343299,0a450e5bef5acad45797e6804f603540f83e155b,Mukurwe - Ini Shop,-1.2644893999999998,36.9246431,restaurant,1.5944714555672541
 Kibra,Woodley,-1.3056567,36.77600465,beee51c0ca1e92b185924dd4634f3bc0c135b596,Chicken Inn Drive Thru,-1.2987356,36.76346590000001,restaurant,1.5912273451197918
 Kasarani,Njiru,-1.2539022,36.9343299,66c2124fb9391954af61138e77937fcf9f866300,Timeless Dishes,-1.2580773,36.9206408,restaurant,1.5900325691935056
 Roysambu,Roysambu,-1.2188396000000001,36.88673920000001,9893d3b5047aa606832ffbe7964515a748c459e2,Eden bliss gardens,-1.209847,36.875624,restaurant,1.5885801833747306
 Lang'ata,Mugumoini,-1.1991235,36.846741200000004,f66db4dac05219f30d11694b1494f22bc8614acd,The Pelikan Village,-1.2029353,36.83298,restaurant,1.5864729916881277
 Embakasi East,Mihango,-1.2692818000000001,36.95299050000001,24a7fa180007fa8765cf10b7101de4d16734d49a,Little Heaven Swimming Pool And Restaurant,-1.2804863000000002,36.9618279,restaurant,1.5856342629174018
 Kasarani,Njiru,-1.2539022,36.9343299,0a24f8268b6c72859f71bd4c38db312d3481441b,Danson Shop,-1.2622859,36.9229027,restaurant,1.574703540370882
 Westlands,Kangemi,-1.2654258999999999,36.7525183,25ad3ef0d5756f134d9139129738dfb1911ef799,Wasp & Sprout,-1.251865,36.7565645,restaurant,1.572574839131864
 Dagoretti North,Kabiro,-1.2878118,36.751501399999995,62abf5185b7ec90773098cc91b980e61edb847d2,Sip 'N' Lip,-1.2973142,36.7619792,restaurant,1.5716408545561604
 Kasarani,Njiru,-1.2539022,36.9343299,d751c33b17dd526ea54ef35e57fdc5cfd3942f76,Savannah Villa Restaurant,-1.2517703000000002,36.9482924,restaurant,1.569199954995546
 Kasarani,Njiru,-1.2539022,36.9343299,848918df7e920b316ea8ae7d6d8495ca5df0c502,Damner Gen Shop,-1.2623878000000002,36.9231823,restaurant,1.5566025804052248
 Dagoretti North,Kabiro,-1.2878118,36.751501399999995,3dffc5507a97c36a08ad617f91a798da34c6cd70,Invegara club and restaurant,-1.292063,36.764845,restaurant,1.5558870342259858
 Ruaraka,Lucky Summer,-1.2393083,36.898786,41c43801a2ce6db50930d7e3cf847cd7f9cbf951,Matrix Bar Tupendane,-1.242261,36.9124499,restaurant,1.5531023960806207
 Lang'ata,Mugumoini,-1.1991235,36.846741200000004,85a15a07aadbbc497cdedafba650cba2e1140df3,Debonairs Pizza Kiambu Rd,-1.2026108999999998,36.8332187,restaurant,1.5515376141788675
 Ruaraka,Lucky Summer,-1.2393083,36.898786,7dc3ba17d35cf6c110543b0c5fecff6ef0c1d5ba,Maurice dyan,-1.2253995,36.89763720000001,restaurant,1.5508776599871323
 Embakasi Central,Spring Valley,-1.2477029,36.78923560000001,71c29fa961ace6ba13d64d7db1c40b55123c6fee,We Hotel,-1.2575667,36.7990889,restaurant,1.5491322030251558
 Kasarani,Njiru,-1.2539022,36.9343299,e61b040d83f542326ebeb33127b1f6598f5ef537,Jikaze Traders,-1.2642028,36.92503440000001,restaurant,1.5416660693505133
 Kasarani,Njiru,-1.2539022,36.9343299,76e9178d128f34d8907d3eac99ef49e893034cbe,Wote General Shop,-1.2623243999999998,36.9233298,restaurant,1.5393027260249437
 Kasarani,Njiru,-1.2539022,36.9343299,d477de38e26aed302ae778a458fab60157f2e4a7,Bidii Gen Shop,-1.2632321000000002,36.924103,restaurant,1.5381339936392666
 Lang'ata,Karen,-1.3283746,36.7049676,1b17403a8e6f369daefc630310fb1c69b6f518ff,Karen Inn & Suites,-1.3215303,36.71697529999999,restaurant,1.5355874848202016
 Embakasi East,Utawala,-1.285877,36.98408679999999,dad39b5981f9acde042bd19ef46543eff4bccc60,Fahari Restaurant,-1.2800944,36.9715369,restaurant,1.5352146290186806
 Embakasi Central,Spring Valley,-1.2477029,36.78923560000001,d42bb0acd5aa0bd6d71fd6ef84bc8f7e5b1f91a6,Colosseum Italian Restaurant,-1.2599256,36.7828062,restaurant,1.5346204656767002
 Westlands,Karura,-1.2369881,36.83255910000001,43673f207c79dcb799dec45a8d92534d936f2ff0,Galitos-Ridgeways,-1.2254709,36.8401264,restaurant,1.5312842487935092
 Kasarani,Ruai,-1.2677339,36.9911112,fd675d5303f6513954f0c6904be658b63bcce3e2,CAPHILL RESORT,-1.263939,36.977868,restaurant,1.5305362440891734
 Lang'ata,Mugumoini,-1.1991235,36.846741200000004,e986baaf8272c376fcd5543717f977e5ff8366b1,Waweru Gardens,-1.1862677,36.84189260000001,restaurant,1.5267892200331528
 Westlands,Karura,-1.2369881,36.83255910000001,66a335110d8d24da3c6a44f7490bddb486bcd2ae,Creamy Inn-Ridgeways,-1.225392,36.83992899999999,restaurant,1.5267469790408303
 Lang'ata,Mugumoini,-1.1991235,36.846741200000004,833a58f75d74a10ed995cb1a91d41af11d0221fc,Debonairs Pizza,-1.2025116000000002,36.8334256,restaurant,1.5265312919968572
 Embakasi South,Kware,-1.3112903999999999,36.87875837,9a033b1ac3efff3423a4ad2de5a67c8e4b65b391,Steers restaurants,-1.301344,36.88817099999999,restaurant,1.5215719862403607
 Lang'ata,Mugumoini,-1.1991235,36.846741200000004,469d8fabab18f969efb45b2fb8f93e566b573daf,Kyn-chick Chickens,-1.2046693000000002,36.8342198,restaurant,1.5215311823449797
 Embakasi East,Utawala,-1.285877,36.98408679999999,938ab92e91623fc08fa6d84d7ee25b763b9552b8,Wa Mwais Hotel,-1.28656,36.97041,restaurant,1.5213474374098188
 Westlands,Karura,-1.2369881,36.83255910000001,330a3011bdea4f87c43c386a552fa99bfd479768,Pizza Inn Ridgeways,-1.2257612,36.8403088,restaurant,1.5158434853665692
 Roysambu,Roysambu,-1.2188396000000001,36.88673920000001,3811dd86fe661e9062417b69ba0844415173fe90,Upways Hotels,-1.2292094,36.877905,restaurant,1.5136702018282449
 Dagoretti South,Uthiru,-1.2631329,36.7188955,fbc90c2b5b2c47bb6274358143c7a85a4a99cc1a,Damview Restaurant,-1.26456,36.73242,restaurant,1.5108918362076973
 Westlands,Karura,-1.2369881,36.83255910000001,d3a41d6ead478640eac8730562072bf37acd7edd,Peppercorn Bistro,-1.2259046,36.84037889999999,restaurant,1.5072310114457288
 Dagoretti North,Kabiro,-1.2878118,36.751501399999995,e1581c94c4f9c5faa46eb6830915f7017c4f4233,Jojen Butchery,-1.3002531000000002,36.756877,restaurant,1.5060150120168982
 Dagoretti North,Kabiro,-1.2878118,36.751501399999995,7b554b1c6d3425bd017a5f79f7f49c9cf7e4b2b7,Club Texas,-1.3001321,36.7570674,restaurant,1.502263371399155
 Dagoretti North,Kabiro,-1.2878118,36.751501399999995,728f78b14f1f67767454539b6dd073d1cedf6389,Mummydada's Nigerian Restaurant,-1.2842937,36.7644898,restaurant,1.4949966080391144
 Lang'ata,Nyayo Highrise,-1.31600475,36.80173345,d5c16ceb0506d9f2c506899f263a1be6d750d12d,The carnivore restaurant,-1.329384,36.801043,restaurant,1.4887480754037266
 Kasarani,Njiru,-1.2539022,36.9343299,c58795cbcba34c56a7f6258b3e56dec0bff09511,Vima General Shop,-1.2620817,36.9237338,restaurant,1.4872818398636651
 Lang'ata,Mugumoini,-1.1991235,36.846741200000004,c85004b88a4b2dafe8a98bdadd431625250c8a75,ORPUL Sagret,-1.2020732,36.8336961,restaurant,1.4859245855978425
 Kasarani,Njiru,-1.2539022,36.9343299,359eb732da203e8c5961036b86b64afe90cae97a,Hope Snack Shop,-1.2619755,36.9236896,restaurant,1.48400752090399
 Embakasi Central,Spring Valley,-1.2477029,36.78923560000001,5a3033c6b9d9c20b5fc47ffd18c5d26e62ed36e8,KFC,-1.2585239,36.78145960000001,restaurant,1.480640695407416
 Kasarani,Njiru,-1.2539022,36.9343299,9be85d45dc6dfd5664a65b82508d9db53fc4bc1a,The Peak Fast Foods,-1.2578787,36.9216206,restaurant,1.4795142019987861
 Kasarani,Njiru,-1.2539022,36.9343299,07791085771d62947c34d0543e1e44616842bf69,The Peak Restaurant,-1.2578787,36.9216206,restaurant,1.4795142019987861
 Dagoretti North,Kabiro,-1.2878118,36.751501399999995,8b9a1f4aec193a4ade9bab89bcac8b1e65428c97,Jojen Bar,-1.3000493,36.7566268,restaurant,1.4742945637622475
 Kasarani,Ruai,-1.2677339,36.9911112,8151c4b01d0978ebd241584fc5c36a324cd635b2,Maxi Lounge & Luxury,-1.2559276,36.9851675,restaurant,1.4687829510774535
 Ruaraka,Lucky Summer,-1.2393083,36.898786,7e8daa8cfb63e1f745f95b15597a08bf450d9ee7,Johntes Pub,-1.2370892,36.91178430000001,restaurant,1.465003780854042
 Starehe,Pangani,-1.2648989,36.8372708,67b1adf32902f9c614e70760f172763f9dfb5fec,Westie Cabanas,-1.2576874,36.8263,restaurant,1.4586874665649479
 Dagoretti North,Kabiro,-1.2878118,36.751501399999995,144e6d144070f2e058e569781f6d6d2b21504195,Fine Breeze Bar and Grill,-1.2986131,36.75883,restaurant,1.4503811366928603
 Kasarani,Njiru,-1.2539022,36.9343299,2f88f220e7d4d3a4b0541f271028faf1cfab3851,Mumunya's Bar And Butchery,-1.2638177,36.92588929999999,restaurant,1.4468749322710883
 Dagoretti South,Waithaka,-1.2833,36.7166,4b0322db1842a2871ea640cd8b015299ee7f5786,Wagacha Towers,-1.2852172,36.7294678,restaurant,1.4453646579621138
 Dagoretti North,Kilimani,-1.2874421999999999,36.784522499999994,67ff356d2f602b1e2f9c2d261fe8f2f5a518ead7,Hellofood,-1.2965744,36.79368360000001,restaurant,1.4372570145038832
 Roysambu,Kahawa,-1.1869631,36.912022,e79b5740ade48f080e5fd7a2d6aad3e7f24125a8,Wycliff kibet,-1.1934313,36.9232172,restaurant,1.4365517806093733
 Westlands,Karura,-1.2369881,36.83255910000001,a60126f6993a925192f57f1c995e07f39e097afe,The River Caf√©,-1.2418906,36.8205969,restaurant,1.4363185662811537
 Embakasi West,Umoja 1,-1.2778669,36.8881172,0cce3e3d7e0db2d61495582917e97f66fd8b60ff,beautiful cakes,-1.2728223,36.8762442,restaurant,1.4332395073420205
 Kasarani,Njiru,-1.2539022,36.9343299,8abfdc728af1b4446d8c00ed0b000dd1113fa49e,Mashallah Shop,-1.2640014,36.92632920000001,restaurant,1.4316354116605052
 Kasarani,Ruai,-1.2677339,36.9911112,7ce2f11e0af422456a7c6a24e5b551e5d0664f41,Ruai Divine Fish Cafe,-1.2558961000000002,36.98602800000001,restaurant,1.4315739960572373
 Kasarani,Ruai,-1.2677339,36.9911112,a9fe74635a7bf158fe1b941d445dbfb79dd0b966,Glen Resort Rhumba centre,-1.2558961000000002,36.98602800000001,restaurant,1.4315739960572373
 Kasarani,Ruai,-1.2677339,36.9911112,ddf5fb2977e72b1ae4e4cd1533e268c13fb6519b,Mawe Mbili,-1.2631078000000002,36.9791085,restaurant,1.4291369971608987
 Embakasi Central,Spring Valley,-1.2477029,36.78923560000001,84a40065698ccc269adfc05752f5775f2db33e39,My Shop-Waiyaki,-1.259904,36.785222,restaurant,1.4272899940819024
 Dagoretti South,Uthiru,-1.2631329,36.7188955,c03c84d97c60c27905523899428d97671e3fbbde,Alpha Bar and Restaurant,-1.2645441000000002,36.7316514,restaurant,1.4258062842432244
 Kasarani,Njiru,-1.2539022,36.9343299,1567925f510f9d8505f4816f3a191504af1621bb,Busy Bee Supu Base,-1.2639508,36.92636369999999,restaurant,1.424847883480243
 Embakasi Central,Spring Valley,-1.2477029,36.78923560000001,e2f2d34aa66493b5e3c53d341700539d37f4aaa1,Java House - Waiyaki Way,-1.2599464,36.7854946,restaurant,1.422625735088625
 Dagoretti South,Uthiru,-1.2631329,36.7188955,8336bfc2ccb63d9d46f4a622001024c0549b4fba,Waiyaki Way Lounge,-1.2645021,36.7315899,restaurant,1.418507207030239
 Embakasi East,Mihango,-1.2692818000000001,36.95299050000001,7fea1e27c218a7582315c05974d4ab46e323ecc1,"Famiki Restaurant, Corradini",-1.266896,36.965513,restaurant,1.4162600224740232
 Dagoretti South,Waithaka,-1.2833,36.7166,a7aeda0e005f45d3bb501c89442b09c937af6ae2,Mama's Grill,-1.2841965,36.7293163,restaurant,1.4162538614713847
 Roysambu,Kahawa West,-1.1856847,36.90579279999999,79de83ba19ae6c5d2d486c0420e9e94145305b43,Idyllic Mistley Gardens,-1.1916859,36.89455479999999,restaurant,1.4154944688210596
 Kasarani,Njiru,-1.2539022,36.9343299,2f46a53f284f33c582d14d53c01d50ec45b188bc,Conc Shop,-1.2637353,36.9262313,restaurant,1.415463186296916
 Dagoretti South,Mutuini,-1.3,36.7,d1d34dd1de5fce59cf033dd4b0fdc283b95ee9a9,Brent Bar And Grill,-1.312666,36.6987,restaurant,1.4149010369972073
 Dagoretti North,Kilimani,-1.2874421999999999,36.784522499999994,a4efd40ff291259e9dd9a2f10233c0e26057a30e,Xian Restaurant,-1.288363,36.771863,restaurant,1.41015032868207
 Kasarani,Njiru,-1.2539022,36.9343299,53b1d8f30e5e27400a8926d539c658aac3c58ef8,A. J General Stores,-1.2620214,36.92458010000001,restaurant,1.4097314250893602
 Kasarani,Njiru,-1.2539022,36.9343299,a88bc3651f6f6de06c65eb9127d5e0c4e5aba922,New Matopeni Blessing Household & Gen Shop,-1.2636515,36.9262393,restaurant,1.4077190999228375
 Lang'ata,Karen,-1.3283746,36.7049676,7f6a92611629ce328e9c524041404fd64349460e,Spoilers Lounge,-1.3272558,36.71758579999999,restaurant,1.4073248190915093
 Lang'ata,South C,-1.3204426999999999,36.83053678,e97acd60755822c1701e0e7b2eeb72de631aa46f,Peppercorn,-1.3240428,36.8426812,restaurant,1.4072543367555896
 Kasarani,Njiru,-1.2539022,36.9343299,14fcc2df398a9b0ac7507978e84e71e7f987a5ee,Spring Supa Dairy,-1.2636307,36.9262256,restaurant,1.4069145706015471
 Starehe,Landimawe,-1.2694542,36.83557186,37c3370a5057fa7bff5d69093a2b0dcecf1666dd,Galitos-Parklands,-1.26369,36.824329,restaurant,1.4037268028696812
 Embakasi Central,Spring Valley,-1.2477029,36.78923560000001,74cf6763895587aa466b3c6a40c6bd400f8a982b,Desmond Tutu Conference Centre,-1.2600817,36.7867645,restaurant,1.4027233788128608
 Embakasi East,Utawala,-1.285877,36.98408679999999,6c430e2f89a8a215b7a52d9a22421a9b502e1118,Summit Grill,-1.2824874,36.9719285,restaurant,1.4022888577173906
 Kasarani,Ruai,-1.2677339,36.9911112,95ddc17ced9e2532459fbe58da0c3134a27e93d0,Bon Marche,-1.2565521000000002,36.9852668,restaurant,1.4019968614441463
 Dagoretti North,Kilimani,-1.2874421999999999,36.784522499999994,570ae74b66a2fa757360c4cbd880d508471ee788,Captain Grill,-1.2869038000000002,36.77192349999999,restaurant,1.4009901250616419
 Starehe,Landimawe,-1.2694542,36.83557186,051d81107a55faa819fbfa41409d155a930fda40,Pizza Inn,-1.263964,36.82422400000001,restaurant,1.400587758792494
 Starehe,Landimawe,-1.2694542,36.83557186,5a9a202fc80bb0cc995462b3c2d2b22093af73e9,Creamy Inn-Parklands,-1.263888,36.824272,restaurant,1.3995016769173287
 Embakasi East,Utawala,-1.285877,36.98408679999999,6a29c5e9b203fdde26f22d531369b0ed0086dbbc,Migingo Fleets,-1.2894731,36.9720317,restaurant,1.3976340367633597
 Dagoretti South,Uthiru,-1.2631329,36.7188955,805f77eba2cbe17ea71a0e31465ba4656176a4c3,Dam View Bar and Restaurant,-1.2645608,36.731393,restaurant,1.3974857682231185
 Embakasi East,Utawala,-1.285877,36.98408679999999,a2a6ef3b3b065838cec347b2c9518c451d741d69,Nick Fish Monger,-1.2895079,36.9720438,restaurant,1.3974575713118844
 Embakasi East,Utawala,-1.285877,36.98408679999999,b5f6677c171a30e704ccc95c25349c5763c44ec4,CRISPY CHIPS & CHICKEN,-1.288682,36.9718426,restaurant,1.3955509007327211
 Kasarani,Njiru,-1.2539022,36.9343299,ba251231791ac75538868208f8873829e222f381,Junction Grills & Restaurant,-1.257688,36.9223569,restaurant,1.3951232749593379
 Starehe,Landimawe,-1.2694542,36.83557186,0e49e1f29b829a3e6c0e399cc4b6316c0715da9d,My Shop-Parklands,-1.2637120000000002,36.824409,restaurant,1.3947039370554084
 Dagoretti South,Uthiru,-1.2631329,36.7188955,bcee66459e9a66b82073eecba61fddbeb2d76143,Dam View Butchery And Restaurant,-1.264406,36.73135,restaurant,1.3908847392127797
 Kasarani,Njiru,-1.2539022,36.9343299,d9398fc93835ab7929fde8b54ba3ddcb14fdbb93,Glorious Chicken & Chips Centre,-1.2644273,36.9275759,restaurant,1.389607071958836
 Embakasi East,Mihango,-1.2692818000000001,36.95299050000001,ccc1c4d501a1357efc88674b80b32a99b35dd589,Springfield Chips,-1.2803746,36.9587481,restaurant,1.3887694544648992
 Dagoretti South,Uthiru,-1.2631329,36.7188955,26d571542d4fa92c899f8c010148a7dbf3c1c2bc,Manman Foods,-1.2507327,36.719892,restaurant,1.3824138059285047
 Embakasi Central,Spring Valley,-1.2477029,36.78923560000001,53aa5c4482c2d94631324242aea5528f0cbf6c27,The Phoenician,-1.259207,36.79395299999999,restaurant,1.381654472521463
 Dagoretti North,Kilimani,-1.2874421999999999,36.784522499999994,1d8aa57b4992ccde1f2b0ff0d2410cbcb84ed5d6,African Eagle Restaurant,-1.2869687,36.7721033,restaurant,1.3807396981627253
 Embakasi East,Utawala,-1.285877,36.98408679999999,cf232f4d5a7cd2f818dc8f054af3b292f62cfa09,Texas Bar & Restaurant,-1.2884178999999998,36.9719419,restaurant,1.378490538651591
 Dagoretti North,Kilimani,-1.2874421999999999,36.784522499999994,bce36aaa16576f7ee4aa6e1eff4796d347ccbd21,Dejina Smart Village Restaurant,-1.2959363000000002,36.7935628,restaurant,1.378288454279315
 Mathare,Ngei,-1.25946895,36.86678098,b90052f4533ee2697a88cbe789050dd0f17bd0e1,Utalii Hotel,-1.2577929,36.85450170000001,restaurant,1.3768626311753347
 Dagoretti North,Kabiro,-1.2878118,36.751501399999995,a55e3014cec2a2ae6396a4c1802f63fa21c34a9e,La Cantina,-1.2998323,36.75440989999999,restaurant,1.3743058013321932
 Dagoretti North,Kilimani,-1.2874421999999999,36.784522499999994,7e3cfd830dad935396b017337d12beaf8725ed46,Viva Lounge,-1.2758847,36.7888939,restaurant,1.3730828024106791
 Makadara,Harambee,-1.290941,36.89721585,d0e9389b51e22c5f080282922473be33c29e5142,Flamegrill Restaurant-donholm,-1.3002709,36.8891347,restaurant,1.371477646517878
 Dagoretti North,Kilimani,-1.2874421999999999,36.784522499999994,9b80a0a1eeefa0c3d948f5f259d1772bf5aa8044,Pablos,-1.293503,36.79527,restaurant,1.3708689949910187
 Dagoretti North,Kabiro,-1.2878118,36.751501399999995,e41f004ac32cb2ef39c904768f4fbe0a9cccf2ff,7 Degrees Bar Restaurant and Lounge,-1.2980319,36.7583945,restaurant,1.3697768515777187
 Embakasi East,Utawala,-1.285877,36.98408679999999,e87b2198b1041d34001e136470a3d6b3ba585a31,Landmark Bar & Restaurant,-1.289764,36.97239649999999,restaurant,1.3687025942495616
 Embakasi East,Utawala,-1.285877,36.98408679999999,4998eaaa14f09a602f73379e1bbd1a72abe0702a,Wa Mwangis Delicacy.,-1.2884883,36.9720579,restaurant,1.367517708746356
 Dagoretti South,Uthiru,-1.2631329,36.7188955,716a7abb3256f3ef1d794d145640190374f0b6d7,Dam View Hotel,-1.2643684,36.7311106,restaurant,1.3640015869367097
 Kasarani,Njiru,-1.2539022,36.9343299,89332272f51af771fd2b03442f18a6904faca2cb,Bee - P Mart,-1.2571861999999998,36.92250170000001,restaurant,1.3638261604310302
 Kibra,Woodley,-1.3056567,36.77600465,258ea13ab2e9a55aaad4bfadf0f164bbaee1250c,Brew Bistro and Lounge,-1.2992794,36.76555250000001,restaurant,1.360368157913039
 Dagoretti South,Waithaka,-1.2833,36.7166,2f2dddf24138ecfdd02f7a35ad0e731d53642c11,david MlLK Litre 50/-,-1.280832,36.728574,restaurant,1.358255871923343
 Roysambu,Kahawa,-1.1869631,36.912022,9c66f2420cc1bcd9af7c49d98b0edeafa9c34a5a,CLUB FORTIES LOUNGE,-1.1989923,36.9099203,restaurant,1.3569867990258426
 Ruaraka,Babadogo,-1.2433103,36.8910881,2015b0845bbae558430b3feac8c0f6954458f3ca,Sugarcane Caribbean food,-1.2338676000000002,36.8833717,restaurant,1.354995636513338
 Starehe,Pangani,-1.2648989,36.8372708,f4e3d5be0469f453bfc02dfcdbe83572e508fbfa,KFC,-1.2590939,36.82655070000001,restaurant,1.3544634552792123
 Embakasi East,Mihango,-1.2692818000000001,36.95299050000001,2eaed468bcc6ee58e387ea249241fb54efaa9f28,Airborne Bar & Restaurant,-1.28011,36.958582,restaurant,1.3541739118645295
 Kasarani,Ruai,-1.2677339,36.9911112,33b752d9c69d4ed438b4b6934e1bb7095f276219,Scorpios Den,-1.2752723,37.00066259999999,restaurant,1.3519492224359222
 Starehe,Pangani,-1.2648989,36.8372708,b406f89cec2382699723fe92de0321b52c0171c5,Pizza Corner Cafe & Grill,-1.257567,36.82756,restaurant,1.351944257228681
 Westlands,Karura,-1.2369881,36.83255910000001,98fd941c01d71cd5467fae063c3c8d1bef52d64a,Villa Rock-Stop Falls,-1.2272099,36.82538869999999,restaurant,1.3473390001349892
 Kasarani,Njiru,-1.2539022,36.9343299,cbd8e1d04db8f00c96c8cee84a4ae6a09b88fa3b,Trezarahs Pub & Restaurant,-1.2570005,36.9226204,restaurant,1.3456972853775517
 Embakasi East,Mihango,-1.2692818000000001,36.95299050000001,8c2234f840d2854d43e6b575e53629e893f8a3d5,Pole mat,-1.2780786,36.9612225,restaurant,1.3386588533057158
 Kasarani,Njiru,-1.2539022,36.9343299,581cf112d036601570f1309ebcd122b0ec465af2,The Happy Conguerors Eating Place,-1.2584127,36.92317120000001,restaurant,1.3372066566339804
 Lang'ata,Mugumoini,-1.1991235,36.846741200000004,9432707416a930a51bd182c50e7e676ece8d5986,Windsor Room,-1.210018,36.851848,restaurant,1.33700650785123
 Lang'ata,Mugumoini,-1.1991235,36.846741200000004,54ee788cfc9ad2537f4f1dae557a0dd1045feab3,Windsor room restaurant at windsor hotel,-1.210017,36.851848,restaurant,1.3369058855057387
 Lang'ata,Mugumoini,-1.1991235,36.846741200000004,a5ea181b22b5a293825521f0e9f925ff83299fc9,The windsor room-windsor hotel,-1.210015,36.851847,restaurant,1.3366574926255836
 Dagoretti South,Uthiru,-1.2631329,36.7188955,a970138deecd9c6cf3b052bbfe671b1bc6e929ab,Mburu's Places bar and Nyama choma,-1.2642978,36.7308532,restaurant,1.3347695959773813
 Lang'ata,Mugumoini,-1.1991235,36.846741200000004,c7f1c5b10669638d074fb7b52be09530919b3af6,AKAL RESTAURANT & BUTCHERY,-1.1998377,36.8347808,restaurant,1.3311775814531963
 Embakasi East,Utawala,-1.285877,36.98408679999999,dd24ea9f1fd5c4a253d78ae4eac1c667074beadc,Pamela Ouso,-1.2932338,36.9934723,restaurant,1.3249800178306166
 Embakasi East,Utawala,-1.285877,36.98408679999999,1ab29207cf83750480aa048faafacdc0a9a7d4c3,Chicken Masters Fast Foods,-1.2882983,36.9724111,restaurant,1.3247487784637373
 Roysambu,Kahawa,-1.1869631,36.912022,ac7ae9fb8ca6689c3b39227022e92fed1828f60e,sweet water pub- kamae Nairobi county,-1.1752901000000002,36.9097287,restaurant,1.321949502731638
 Dagoretti South,Waithaka,-1.2833,36.7166,f988fed18a2a24a8df7c72d947569a00043031c2,Ocean lounge,-1.2838519,36.72846989999999,restaurant,1.320138377692523
 Kibra,Sarangombe,-1.31226715,36.77745932,e7973d033fa88d8be24765fe25a7c2ea8770c8ca,Homepub,-1.323899,36.779826,restaurant,1.3190609240578721
 Kibra,Woodley,-1.3056567,36.77600465,4c85f4cec776e6f4138efcc0ccc62939e67e20e3,janet cafe,-1.3019823999999998,36.7647278,restaurant,1.3176739054181268
 Ruaraka,Babadogo,-1.2433103,36.8910881,1bbb8bb34da8208f3a485326ff8f0c7761d7a587,Wood Pecker Bar,-1.2338254,36.88404050000001,restaurant,1.3130116956752913
 Kasarani,Ruai,-1.2677339,36.9911112,9adf23cb073159737500314dee524881d4322bd3,Slumber villas hotel,-1.259232,36.98291380000001,restaurant,1.3122506679743478
 Ruaraka,Babadogo,-1.2433103,36.8910881,f53947a33be09c71e47ecfa2551dfd0fab194054,Fast Food Joint,-1.2339273000000002,36.8839225,restaurant,1.3118531218695175
 Lang'ata,Mugumoini,-1.1991235,36.846741200000004,afa266c3e6c144eaadb1628e5f4ad4720a92e84e,Loswani County Hotels Ltd,-1.1895916000000002,36.8398072,restaurant,1.3097525875373242
 Lang'ata,Mugumoini,-1.1991235,36.846741200000004,60ba2aab98cc7e04ae9d0daab330026bd12080eb,Golden Eagle Spur Kenya,-1.1895835,36.8398283,restaurant,1.309103945229635
 Lang'ata,Mugumoini,-1.1991235,36.846741200000004,c6a7f25a1c5de8418f21db24dcbb763bb838fb37,Windsor Golf Hotel & Country Club,-1.2099959999999998,36.851209,restaurant,1.3061984091073877
 Lang'ata,Mugumoini,-1.1991235,36.846741200000004,26938cc5809a8a2fa417ec46a348e4c1df4c13d6,Golden Eagle Spur Steak Ranches,-1.1895399,36.83994999999999,restaurant,1.3051678837370753
 Embakasi East,Utawala,-1.285877,36.98408679999999,af2a26badf7a8455ab45fa620db5d19542db0d95,Kwa gitonga pub,-1.2899953000000002,36.9730972,restaurant,1.3038659961934382
 Embakasi East,Utawala,-1.285877,36.98408679999999,ba1b8d83f3a9aafc64466e39e76b3fc7c55aaac2,New music land bar and grill,-1.2897917,36.9730394,restaurant,1.3021486712042485
 Lang'ata,Mugumoini,-1.1991235,36.846741200000004,a3ad80eced09c26956f8506540852481bc3b0679,Golden Eagle Spur Kenya,-1.1899171999999998,36.8395299,restaurant,1.2994332710803118
 Embakasi East,Utawala,-1.285877,36.98408679999999,e497af7b0138228329f96458f457ede7b30026fa,Musicland bar and grill,-1.2897923,36.9730676,restaurant,1.2992184864124694
 Lang'ata,Mugumoini,-1.1991235,36.846741200000004,cfde2d39cc0197220a30dfddbe71b00a915f893e,Library bar,-1.2098870000000002,36.85122,restaurant,1.2954715680418416
 Dagoretti South,Mutuini,-1.3,36.7,9b09fb834e41a96704006d36adec62aca04efd1d,Ventino Restaurant,-1.2884848999999998,36.6983226,restaurant,1.2931151710354662
 Embakasi East,Mihango,-1.2692818000000001,36.95299050000001,4d7313ff28a291f55ccc9c8c6ca3600d53756a39,Sirumba Bar And Restaurant,-1.274778,36.942736,restaurant,1.2926442884979492
 Ruaraka,Babadogo,-1.2433103,36.8910881,24b67f04721739c01b4082e252bbc99fbb1f92de,Corner Cafe,-1.234115,36.8840379,restaurant,1.2874967012499021
 Ruaraka,Babadogo,-1.2433103,36.8910881,1ca0a1522ee9022f40af6401fa410be135b196f7,"Mama Steve Fruits, Vegetables&Salad",-1.2340506000000002,36.8841586,restaurant,1.285105964841227
 Kasarani,Ruai,-1.2677339,36.9911112,74151328d650ea49bbc7faa10df2614b240d173a,Pork Manenos,-1.267626,36.9795967,restaurant,1.279293138936571
 Lang'ata,Mugumoini,-1.1991235,36.846741200000004,3af19419828a80bb3ea3f9e1ed653ffe41b96786,Conservatory Restaurant,-1.209804,36.851011,restaurant,1.2781620827786309
 Dagoretti North,Kabiro,-1.2878118,36.751501399999995,077ae054fcf27f525d9a2a0fcdeb9f2dffb4c9b6,Toranj restaurant,-1.2855441,36.7627699,restaurant,1.2770085420555575
 Embakasi East,Mihango,-1.2692818000000001,36.95299050000001,b0f493277ce880d7dce84307ae3d9ca873ea09e7,Al-Manawar Hotel,-1.2795593,36.947864900000006,restaurant,1.2761778815350702
 Ruaraka,Mathare North,-1.251788,36.87077217,72332dd8ae743edf757ee85cb220f1301d02fced,Homeland Bar And Restaurant,-1.240612,36.868446,restaurant,1.2685382348745964
 Lang'ata,Nairobi West,-1.3087022,36.823097499999996,f17b9c4b1f2f6640ad8bd175e75d4a9399b259be,Skia Restaurant,-1.3004185,36.8152499,restaurant,1.2678620142104626
 Lang'ata,Nairobi West,-1.3087022,36.823097499999996,12548561efeb7e036de3201ee12cf9ca9a79e63d,Sikia Fine Dining,-1.3004209999999998,36.815313,restaurant,1.262849294420024
 Embakasi East,Utawala,-1.285877,36.98408679999999,e6bdd52c932e414a63205dd22e53fabcc6c2ad77,Little Heaven Resort,-1.2928423,36.9751175,restaurant,1.2617619934919018
 Dagoretti South,Mutuini,-1.3,36.7,da32c09098cc4d3df44e269296991b280848a394,FLAME,-1.3112872,36.6988635,restaurant,1.260630272223007
 Kasarani,Njiru,-1.2539022,36.9343299,b02419f31a11ac2803fc150634b370c3af68ecd6,Keijan Chips & Chicken,-1.2558468,36.923182,restaurant,1.2572250595640846
 Lang'ata,Nairobi West,-1.3087022,36.823097499999996,78398bc0d49fd49e7dfb682b4c7d51de3c4b20d0,Baraka,-1.300427,36.815419,restaurant,1.2543251131915458
 Lang'ata,South C,-1.3204426999999999,36.83053678,d3e5489d155137dd3c7b5b424af5c0185931eddc,Mc Fry's-South B,-1.3116709999999998,36.83763,restaurant,1.253449656290891
 Embakasi East,Utawala,-1.285877,36.98408679999999,a86b77f8a34071edc321308b10ea5976d384b50e,Danny's Delights,-1.2842927,36.9729199,restaurant,1.253040696073524
 Lang'ata,South C,-1.3204426999999999,36.83053678,713998c6fee711f27bfc58586295890285b51120,Big Square - BelleVue,-1.321128,36.84178430000001,restaurant,1.2518683190979953
 Lang'ata,Mugumoini,-1.1991235,36.846741200000004,aa472b6dd6b13f3606965297aa8491c57b26e4b0,The Place at Windsor,-1.2067868,36.8549483,restaurant,1.2476384740276705
 Ruaraka,Lucky Summer,-1.2393083,36.898786,51ca2eb893eb66a13f1addbc7666c6b2e6539ca7,Florida Inn,-1.2461902,36.9076386,restaurant,1.2458518463177348
 Embakasi East,Utawala,-1.285877,36.98408679999999,40b84da07cda16fa6bfd7b6eec208651070dd645,Damdar Restaurant,-1.2840937,36.97303309999999,restaurant,1.2439214190826349
 Ruaraka,Lucky Summer,-1.2393083,36.898786,d9cd0f380d9c11eae518c53a0183ed0544c14a4b,Pudding,-1.245211399999999,36.9082126,restaurant,1.2357672788229104
 Embakasi Central,Spring Valley,-1.2477029,36.78923560000001,b89d98b2d56fe170a480ddbc0b5ed2c9912ab68e,Tandoori Patio,-1.2549805,36.7976438,restaurant,1.2355772064955748
 Embakasi East,Mihango,-1.2692818000000001,36.95299050000001,54eb9ba351ec681f360ef56070c0b3848f7036f7,Talent Hotel,-1.2790507,36.9477585,restaurant,1.231393100645986
 Kibra,Laini Saba,-1.31234835,36.79611435,a318cad0aa9397842e0e4b9d7c807a5a92acb442,Royal Nairobi Golf Club,-1.3013827,36.7973871,restaurant,1.2267353385042599
 Kibra,Woodley,-1.3056567,36.77600465,0f8cd2a482dc16b041ebafd404b2a2534f03e1d5,Sanjha Chulha Restaurant,-1.2947129,36.77466920000001,restaurant,1.2251475317349698
 Embakasi Central,Spring Valley,-1.2477029,36.78923560000001,cdcfa859b8b2b4f5c4ec03582d1d28f69e1411d9,Amaica Restaurant,-1.2484604,36.8002155,restaurant,1.2227540851328866
 Embakasi Central,Spring Valley,-1.2477029,36.78923560000001,564d5ee732ff1ac2a5921df9d2927f6f8986619e,Cloud Nine,-1.2577376,36.7937312,restaurant,1.2218506325214487
 Kasarani,Njiru,-1.2539022,36.9343299,0e4e27387befcae80a4f0b952bca814fd76ba4b5,Mid Point Cafe & Butchery,-1.2564799999999998,36.9236541,restaurant,1.2201672505406211
 Embakasi East,Lower Savanna,-1.3247280000000001,36.887724,71a3a7e143c0943ad14063933968df0113f445f2,Winway Butchershop,-1.3174011,36.89588789999999,restaurant,1.2188216468402722
 Lang'ata,Mugumoini,-1.1991235,36.846741200000004,0f14163903589a7eecb4fa266975b4a74a6aff6a,Imperial Grill Restaurant,-1.2002101,36.8358251,restaurant,1.2187831691624653
 Lang'ata,Mugumoini,-1.1991235,36.846741200000004,3670ad45cb378fb1af455ff1b99f0b4af1ddb662,Alika Restaurant,-1.1997515,36.8358201,restaurant,1.21534782587903
 Kasarani,Njiru,-1.2539022,36.9343299,9887b50600170ec24dc024ab43bffc19c9cd52be,"Kwetu Foods, Kangundo road bypass",-1.2489139,36.9440649,restaurant,1.215325533285425
 Dagoretti South,Mutuini,-1.3,36.7,e16d4667930719fad98b38e326c926a4f558c74a,Belavie House,-1.2987351,36.6891435,restaurant,1.2142825632095795
 Dagoretti South,Uthiru,-1.2631329,36.7188955,02c49f0740f66d28acd3e5b987f569d3fa609354,Rangwe Cateres,-1.2643701,36.72974779999999,restaurant,1.2134831494178284
 Lang'ata,South C,-1.3204426999999999,36.83053678,736a44b99dece2bd9a005df87236308287a2d29c,"Big Square Branch, Shell Bellevue",-1.3209599,36.8414153,restaurant,1.2099214666269036
 Lang'ata,Karen,-1.3283746,36.7049676,453f6354086a705861dc2ed6d9e237912c8ec047,Marula Studios,-1.3364386,36.71228089999999,restaurant,1.2095984386553442
 Ruaraka,Lucky Summer,-1.2393083,36.898786,ba5a23283aa6db6b92c3816ad58f4be05f04e3c5,chicken Plaza,-1.2430447,36.9090113,restaurant,1.2095211194012316
 Ruaraka,Lucky Summer,-1.2393083,36.898786,c226335d6eb4de777e2108f844809c63b9fc5e5d,Fruit Salad,-1.243278,36.9088805,restaurant,1.2051293321586105
 Embakasi South,Imara Daima,-1.3285901000000002,36.8743999,496d4333c9cf50f048621401911985b2917f7da4,Arryannas Swahili Cuisine,-1.3302698999999998,36.863701,restaurant,1.2031651788267672
 Embakasi East,Utawala,-1.285877,36.98408679999999,b1ba26eecc0a25683d60f75b786f60f558ab8a31,Club Monte Carlo Utawala Mihango,-1.2925722,36.9755982,restaurant,1.2012082832885347
 Embakasi South,Imara Daima,-1.3285901000000002,36.8743999,0763fb3d0682aed19b664a4ce6909f3a5b7d5a5e,Mokka City,-1.3302854,36.86372289999999,restaurant,1.2010306819321195
 Kasarani,Ruai,-1.2677339,36.9911112,b4ca6043660601748bce3264a442896bc3968be7,The Bantu Resort,-1.2598675,36.9837731,restaurant,1.1953145651008488
 Ruaraka,Lucky Summer,-1.2393083,36.898786,4e3c22a80e2519a62ce9e033ae103bd7fa80fdf4,Jina Kuku Plaza,-1.2437419,36.908572,restaurant,1.1936391533143285
 Dagoretti North,Kabiro,-1.2878118,36.751501399999995,7a4b8c04b9714ab0802f551d8e96411096daca10,Eden suite and lounge,-1.2913706,36.7616098,restaurant,1.1906113574105106
 Lang'ata,South C,-1.3204426999999999,36.83053678,cd393fd61daf00f120ccce145e491a3ccf8c5eb9,Spears,-1.3110781,36.8357366,restaurant,1.1902304000176673
 Embakasi East,Mihango,-1.2692818000000001,36.95299050000001,6a8a9c84919d134e3efce020ee2fdebb4953af19,RED CORN PUB,-1.2786027,36.9581841,restaurant,1.1856550990368646
 Embakasi Central,Spring Valley,-1.2477029,36.78923560000001,ed966a2fe2e3d803e2e488a39618e1084d757aa0,Asmara Restaurant Westlands,-1.2530843,36.79845020000001,restaurant,1.185595530311754
 Ruaraka,Babadogo,-1.2433103,36.8910881,5830b94631a19cdeefec8a16d35a396ad5a6e5e4,Williams Butchery Mbindah,-1.2343325,36.8854195,restaurant,1.1798059631270257
 Dagoretti North,Kabiro,-1.2878118,36.751501399999995,cfe1cb6da955e1a356f87cbc53358f5b8ca80ab3,Le Palanka African Restaurant,-1.285969,36.761938,restaurant,1.1774207483067862
 Kibra,Makina,-1.30854575,36.78652379,5dc9b45b46494391e9349081ce226e0dd9b2a7be,Pete's Cafe,-1.298947,36.7909771,restaurant,1.175815580521703
 Embakasi Central,Spring Valley,-1.2477029,36.78923560000001,bd0f788251b0968752ee3258b13d7b74584fc902,Sierra Burger And Wine Lounge,-1.2582743,36.7888711,restaurant,1.1754457878554707
 Kasarani,Ruai,-1.2677339,36.9911112,fcb8bfef00b2e0fb0658c62dc053aa0b09e19f20,Glamo Bar & Restaurant,-1.2639468,36.98123270000001,restaurant,1.175403607830726
 Embakasi South,Kwa Njenga,-1.3166386,36.884663,c57c2c09268eb688a0e43f30d55f9f6ca7080a55,Spinners Bar and Restaurant,-1.3153976,36.8951222,restaurant,1.1701281458517803
 Kasarani,Njiru,-1.2539022,36.9343299,9ec859915b2675d40f34577a5c4e3b7620e9d731,Msinga Bar & Restaurant,-1.2571073999999998,36.924332,restaurant,1.1664608035060486
 Starehe,Ziwani,-1.2788772,36.8360883,c3afaebcd2cbbfcb15e57f4bdc95be5ac397b312,Landmawe Bar and Restaurant,-1.289261,36.83751,restaurant,1.1646607373761029
 Embakasi Central,Spring Valley,-1.2477029,36.78923560000001,fe864e74e300c8250b20a10e634146f133473eee,Take Eat Easy Kenya MAISHANI,-1.2581537,36.7885497,restaurant,1.1638436886647219
 Kasarani,Njiru,-1.2539022,36.9343299,e1f5066b8ec76aa710d10eaebb0b16086a6622e7,Junction Villa Restaurant,-1.2567028999999998,36.9243333,restaurant,1.15339073364817
 Dagoretti South,Uthiru,-1.2631329,36.7188955,9740f7634f1f0fac017ad629d18ec22a346b695e,Bez ya mtush,-1.2551358999999995,36.7122853,restaurant,1.1528428742000254
 Kasarani,Ruai,-1.2677339,36.9911112,39fcf9c285238308531776e6f7834456d7532487,Wamutuura Bar and Restaurant,-1.2605688999999998,36.98361599999999,restaurant,1.1521048800556166
 Dagoretti North,Gatina,-1.1655719999999998,36.85526373,cb6765839f90283178cc8b3eb42c0ad91136a415,mwai mtetezi residence,-1.1686206,36.84537889999999,restaurant,1.1492899071446507
 Lang'ata,Mugumoini,-1.1991235,36.846741200000004,21386cb5382f0f5db59196bc86c74cf3771f405f,MASKANI BARBECUE GRILL,-1.198146,36.8364799,restaurant,1.1452018960264756
 Ruaraka,Babadogo,-1.2433103,36.8910881,b7cae5cff6dc7a7a50495c1b6de0f5386044141b,New York savoury,-1.2439336,36.8808064,restaurant,1.1443839964866283
 Embakasi East,Utawala,-1.285877,36.98408679999999,e0ca926515295c8fe0f7e417214fa9c18d395bbd,Githunguri Meat Traders,-1.2833104,36.9940591,restaurant,1.1440179147633962
 Lang'ata,Nairobi West,-1.3087022,36.823097499999996,91813d3ecb7b53b87f390618e60eaf06c8292ff9,Pizza-Inn,-1.3079463,36.8333118,restaurant,1.1378740536802991
 Starehe,Pangani,-1.2648989,36.8372708,bb2a667664e8d154bd2391148a74fe01c722bce8,The Patio Restaurant 2013,-1.257515,36.830224,restaurant,1.1341041257971616
 Kibra,Woodley,-1.3056567,36.77600465,0fb1af15c83c1226e527a28a356d0118c493d80d,Bloomfield Top Club,-1.2956241000000002,36.7777517,restaurant,1.1316426020795538
 Westlands,Parklands,-1.2630616000000001,36.810628799999996,445a82a5ce464dc18b52177d282b386e71110514,Vogue Cafe',-1.2726737,36.8138399,restaurant,1.1261453286782366
 Embakasi West,Umoja 1,-1.2778669,36.8881172,4bfef8451a568cb30236309c9460b397ac4c8313,Oilibya Buruburu,-1.2786102,36.8780297,restaurant,1.1237354421170138
 Embakasi East,Utawala,-1.285877,36.98408679999999,9feba12b4c941e5314b8f6565d1892c5351b13ea,Namanga Dishes,-1.2872072,36.9740608,restaurant,1.123625109651052
 Dagoretti South,Waithaka,-1.2833,36.7166,65334a75526c56ae74276c55d40abaea358af4d3,Nesta Fast Foods,-1.2834243,36.7266804,restaurant,1.1199897814764046
 Lang'ata,Mugumoini,-1.1991235,36.846741200000004,0a8a913bc3dce10be016b632cfee783bf12e3a97,G lishe eats,-1.2007132,36.8368104,restaurant,1.1173722000158657
 Dagoretti South,Waithaka,-1.2833,36.7166,87eaf018e9d39d14d5105b0b4e5dceb49fef7bb2,Kilbett restaurant,-1.2832261,36.7266374,restaurant,1.1151577011287797
 Starehe,Nairobi Central,-1.2832533000000002,36.8172449,b8ee3cec599b4ce5d758aa5650c88e8c6301c353,Anghiti Restaurant,-1.2880541,36.8259839,restaurant,1.1077973073429332
 Dagoretti South,Uthiru,-1.2631329,36.7188955,aa8986d391f6ab7455a0374399ed9ec45918bec4,Jokandra Investment Hotel & Butchery,-1.2641697,36.72879049999999,restaurant,1.105336659318674
 Dagoretti South,Uthiru,-1.2631329,36.7188955,78ae2f2a760113a37fd686d3d97e06934473d9df,Club House - Upper Kabete (UoN),-1.2551573,36.72480039999999,restaurant,1.1026680349224192
 Starehe,Ziwani,-1.2788772,36.8360883,33ffce48807623aab5bc4d5ee643f49a33257292,Cafe happyness,-1.2849091,36.82821169999999,restaurant,1.1022894015766997
 Kasarani,Njiru,-1.2539022,36.9343299,f0e6e8e19decf911a28177355d8b4b23547be2b1,Texas Klassic Kinyozi,-1.2534975,36.92441779999999,restaurant,1.102137482540522
 Dagoretti South,Uthiru,-1.2631329,36.7188955,4ab105c1714672a79baa52c0e7a2d5533c331d01,Romeo Lounge & Sports Bar,-1.264176,36.7287486,restaurant,1.1007806128537125
 Embakasi East,Mihango,-1.2692818000000001,36.95299050000001,4d56471b7599e1ac14994605083e29cf00e79f86,Smat-Tek Takeaway,-1.2771415000000002,36.9470134,restaurant,1.0971767427492194
 Kibra,Makina,-1.30854575,36.78652379,0fa1052f9fef9c7018eddf40694cf72aeac9f44a,Leon Villas Guest House,-1.2991667,36.7835495,restaurant,1.0933739876925757
 Kasarani,Ruai,-1.2677339,36.9911112,bab82ba692ac51d23224855729b50c5b1083459f,Ruai Travern Bar and Restaurant,-1.2646795,36.9817668,restaurant,1.092222124774385
 Starehe,Ziwani,-1.2788772,36.8360883,e994eb37968ff1664155f0453a78c675ce5388fd,COUNTYPARK HOTEL LIMITED,-1.285132,36.8285235,restaurant,1.090612891541668
 Kasarani,Ruai,-1.2677339,36.9911112,08073edfb576dff688cd747882d63783dc740f01,Ruai Gardens Inn,-1.2644268,36.9818933,restaurant,1.0880340826441757
 Kasarani,Ruai,-1.2677339,36.9911112,acb8279d4fa1674cf5910cfe4aa76782e82e05f8,Josita Dreams Makuti Restaurant,-1.262535,36.9828165,restaurant,1.0876479098129765
 Lang'ata,Nyayo Highrise,-1.31600475,36.80173345,8113344b152ac4d4b3f98073b2c47968b05cfc40,Java House Aero Club,-1.3221379999999998,36.8093254,restaurant,1.084389335041185
 Westlands,Kitisuru,-1.2395542,36.7839651,a561b9e1bcc3e225b8364c62c112981ddd77ba66,The Muthaiga Grill,-1.2361991,36.7931131,restaurant,1.0825636276625952
 Embakasi East,Utawala,-1.285877,36.98408679999999,b7666d0c7c4cd83dbe6f0309cce2e0de9187c0ca,Pale pale restaurant,-1.2955315,36.9829386,restaurant,1.0804142490655133
 Embakasi South,Imara Daima,-1.3285901000000002,36.8743999,5d007b630cb14083c0c56be648e329aef5070a3e,Crystal Lozenges,-1.3382151000000002,36.8735682,restaurant,1.073562779877239
 Dagoretti North,Kabiro,-1.2878118,36.751501399999995,d4d27e6d09f6b0deb140191ff17952e7feeba151,Arbor Place,-1.287708,36.7611336,restaurant,1.070171141105758
 Embakasi East,Utawala,-1.285877,36.98408679999999,af5e20e16cb56ced2fd310990b7041382500d697,Meat Masters Butchery And Hotel,-1.2893611,36.97513,restaurant,1.0677423959275003
 Kasarani,Ruai,-1.2677339,36.9911112,a5f7cf4d6f95f52b5f1452cd01df274afb3ac49f,Miami Ruai Bar and Restaurant,-1.2638541,36.9823236,restaurant,1.0672471074003276
 Westlands,Kitisuru,-1.2395542,36.7839651,066776f7f8e3262ff15f713fde9f4cdd67ddbc2e,Chinese Kitchen,-1.2364554,36.7930508,restaurant,1.0665346539435285
 Starehe,Ziwani,-1.2788772,36.8360883,4e0bd964018baa2b890f95e45754b3a0bba981e5,Winning Ways Cafe,-1.2845959999999998,36.82838329999999,restaurant,1.0661178776472011
 Lang'ata,Mugumoini,-1.1991235,36.846741200000004,0edd2a6743ef62ce6ffa679120ada7e21de88ce7,Fisherman's Grill,-1.2010111,36.83733600000001,restaurant,1.0657704859668629
 Roysambu,Kahawa West,-1.1856847,36.90579279999999,83f1623b315fdca3091a487dcac5d26481c89609,Red Tavern 7D,-1.182684,36.8967046,restaurant,1.063347745281222
 Westlands,Parklands,-1.2630616000000001,36.810628799999996,8d769c503afed72955b85a75872b7ecb9b510106,Bukhara by Haandi,-1.2570358999999998,36.80320579999999,restaurant,1.0622964770686598
 Starehe,Nairobi Central,-1.2832533000000002,36.8172449,922e7ffaba04e99385f722927eeef41c5ecc57e3,Eateries Restaurant Ltd,-1.28698,36.82604600000001,restaurant,1.061862486893705
 Dagoretti South,Waithaka,-1.2833,36.7166,a76baec92d0ac21d3af222af1a86dbdafb21a23a,64 Fast food & Butchery,-1.2833052,36.7261579,restaurant,1.0618564761100637
 Kasarani,Ruai,-1.2677339,36.9911112,5ac42e8b345181251268e8e5593b71d039d1899b,Njaroz Restaurant,-1.2721053999999998,36.9995737,restaurant,1.058251541770854
 Kibra,Makina,-1.30854575,36.78652379,bdfb640f08814a16b16409fe0fbbb56fe1b1a793,Debonairs Pizza Kenya,-1.299963,36.79060599999999,restaurant,1.0560944128675391
 Kasarani,Njiru,-1.2539022,36.9343299,9f8ed52b5b83fbf6ea3f0bbfd1324c9a6718823b,Petmoka Chicken,-1.2548419,36.9248865,restaurant,1.0543314151575651
 Embakasi Central,Spring Valley,-1.2477029,36.78923560000001,929dbb897bcb08aad246280a32a264692661bf39,Mint Shack,-1.2485838,36.7986819,restaurant,1.0540275868099134
 Lang'ata,Nairobi West,-1.3087022,36.823097499999996,dc037951d170a21a9cae29de89b7b7eaabbc5dd8,Panini's Restaurant,-1.3031163,36.8307628,restaurant,1.0538070404844506
 Kasarani,Njiru,-1.2539022,36.9343299,70388d0bcc779fc007aad11055b4332690ce4557,Three Barrel‚Äôs lodge,-1.2568479,36.92533020000001,restaurant,1.052072995877416
 Kasarani,Ruai,-1.2677339,36.9911112,028e7597617421c3294ae65fac8b89e03bfb6359,Hush Bar And Restaurant,-1.2618763000000002,36.9836749,restaurant,1.0517808097984813
 Starehe,Nairobi Central,-1.2832533000000002,36.8172449,26035e6422c645d8f0013b0d157b2e7f57b4fd82,African Kitchen,-1.2917363000000002,36.8213345,restaurant,1.0464521209410893
 Dagoretti North,Kilimani,-1.2874421999999999,36.784522499999994,8b42e1bd912c5173ce01525070f326a9dd00287d,Sushi Soo Japanese Restaurant,-1.2903067,36.7755598,restaurant,1.0453720163534521
 Starehe,Nairobi South,-1.314183,36.823585200000004,f64054c3265828af4a1d930ba5c6e7d34628c4c1,Dambusters East Africa Limited,-1.316649,36.814514,restaurant,1.044365977372785
 Starehe,Ngara,-1.277803,36.830072200000004,e6208e2a539748e95ffb84156f705306f2471736,Chkula Kizuri,-1.2866702,36.8269707,restaurant,1.0438766973488995
 Westlands,Parklands,-1.2630616000000001,36.810628799999996,6e1330bf17c69b4380ecb461c6850ae43a095d4f,Cloud Hotel & Suites,-1.2580078,36.8185433,restaurant,1.0433333907915736
 Dagoretti North,Kilimani,-1.2874421999999999,36.784522499999994,0d7174471b151d1bc733bac96ba7e87c583f735a,Mama Oliech Restaurant,-1.294125,36.791104,restaurant,1.0421733408593559
 Dagoretti South,Uthiru,-1.2631329,36.7188955,63aa8376e65d476de2962774b2259e42f353ada4,Nyamalo Fish Joint Hotel,-1.263873,36.7282444,restaurant,1.0418960636438717
 Starehe,Nairobi Central,-1.2832533000000002,36.8172449,06f79d821bb4a10067d73590073dd0b00e6f180a,Sizzlin Grills,-1.2863118999999998,36.82610779999999,restaurant,1.0416551840850767
 Roysambu,Kahawa West,-1.1856847,36.90579279999999,d1a5812367fca83937670d6969843e4528e01cfc,Olar Freshies Snack and Sip,-1.1907373,36.89790259999999,restaurant,1.0410071824469378
 Embakasi South,Imara Daima,-1.3285901000000002,36.8743999,bc4a9a775b6a27e0a7fae1fc4c936b034496ee26,Innscor (k) ltd-kitengela,-1.334683,36.8673323,restaurant,1.0367885141523752
 Lang'ata,Mugumoini,-1.1991235,36.846741200000004,618a8a46235dce702f4592fe51ef1ff3ea03a65f,Ethiopian Dishes 254,-1.1925417,36.840145,restaurant,1.0353795546692106
 Starehe,Nairobi Central,-1.2832533000000002,36.8172449,f6dc4893470a5de9cce8610c2eb7a51ac77cceb3,Originelle Restaurant,-1.2908906,36.8119258,restaurant,1.0341617436054638
 Makadara,Makongeni,-1.2873101,36.87210716,87a1e13232dedf624a752d8fd981deea0424c270,Tamaduni Foods and Caterers,-1.2798866000000002,36.8777132,restaurant,1.0336443622961693
 Dagoretti South,Uthiru,-1.2631329,36.7188955,bee6adb7c38b2fe495e264de92843a99eba85651,Shell,-1.2606121,36.709952,restaurant,1.0323387508942512
 Dagoretti South,Uthiru,-1.2631329,36.7188955,bbd7b7a09c7e4ccea47f584a4cfe7da5afe0307b,Foodwise Enterprises,-1.2638811,36.7281552,restaurant,1.0320894531074085
 Kasarani,Njiru,-1.2539022,36.9343299,d2cb379495e9cd7d5712f85420891b5297eb4247,Sophia Tasty Dishes,-1.2625552,36.93098519999999,restaurant,1.0308675725540135
 Makadara,Makongeni,-1.2873101,36.87210716,d552ae3bb83473ec54519613941e4cc26195c898,Creamy Inn-Buruburu,-1.295145,36.877069,restaurant,1.0304900406103115
 Ruaraka,Korogocho,-1.2514893,36.8903648,8760d7931d57c731e44bd57105ee925fa58b2244,New Life Hotel,-1.2562808,36.882424,restaurant,1.0304395285705006
 Makadara,Makongeni,-1.2873101,36.87210716,5bb86e02f9750c5e9d75dada126e623bda3489c8,Chicken Inn-Buruburu,-1.2951629999999998,36.87697000000001,restaurant,1.0263488239424172
 Kibra,Makina,-1.30854575,36.78652379,0ca00782ffced0e463143e93d10a4b229a276c58,Pizza Inn- Ngong Road,-1.299942,36.789736,restaurant,1.0205222542632246
 Makadara,Makongeni,-1.2873101,36.87210716,3cc81b6c0e56f61215b8efd3c51aa7e554e5bd17,Pizza Inn-Buruburu,-1.29515,36.87685400000001,restaurant,1.0183880340554072
 Kibra,Makina,-1.30854575,36.78652379,92790b85ca026c5d588c80e00e74849330968b48,Pizza Inn,-1.2999646,36.7897381,restaurant,1.0182515561540912
 Starehe,Ngara,-1.277803,36.830072200000004,0da146d0551d6960ad618099a27a3e61ae484d99,Salt Club And Restaurant,-1.2866793,36.82785529999999,restaurant,1.0166635324227586
 Kibra,Makina,-1.30854575,36.78652379,061258643c7156ea06d387fd992e21487270a90f,My Shop-Ngong Road,-1.300054,36.78992900000001,restaurant,1.0166536877979824
 Kibra,Makina,-1.30854575,36.78652379,171ebbd123f773a687b5fe20e6ebf46667e1b0e8,Creamy Inn,-1.2999981000000005,36.7897797,restaurant,1.016401694041671
 Embakasi South,Imara Daima,-1.3285901000000002,36.8743999,d1e561efc9ad88410266b8c28e4a2397d4a7fa08,Refix Lounge,-1.3244836000000002,36.882572,restaurant,1.01611608445884
 Kibra,Makina,-1.30854575,36.78652379,d20564e5599561ad2e87cd9edf68de723937502c,Creamy Inn-Ngong Road,-1.300003,36.789782,restaurant,1.0159838575016784
 Lang'ata,Karen,-1.3283746,36.7049676,cede396029750845aa59ff104d58c33fe8a90378,Legend Karen,-1.3205223999999998,36.7096214,restaurant,1.0142462126079848
 Kibra,Makina,-1.30854575,36.78652379,c070810b8154a1691eb8698ce49e5de36595888b,Galitos-Ngong Road,-1.3000641000000002,36.7898561,restaurant,1.0126231267213803
 Dagoretti North,Kileleshwa,-1.2723271,36.799687799999994,f49b715c43dab5031c5a34ad2c08018724adcaea,My Shop-Westlands,-1.263899,36.803083,restaurant,1.00967795469638
 Dagoretti North,Kileleshwa,-1.2723271,36.799687799999994,89559e9df77b329fc58f9965e6eec1836ad2ad45,Pizza Inn Westlands Oilibya,-1.2639903,36.8032946,restaurant,1.0093737485985177
 Kibra,Makina,-1.30854575,36.78652379,c473b71e6a480977225cc6cbd39e1c0e8d0ecac7,Chicken Inn-Ngong Road,-1.3000742,36.78978029999999,restaurant,1.0085271207177031
 Kibra,Laini Saba,-1.31234835,36.79611435,416b661fc8c611741500868bf2bf6c9a4a76b20d,Arcade Cateres,-1.3058008999999997,36.8023968,restaurant,1.0082280531606735
 Lang'ata,Nyayo Highrise,-1.31600475,36.80173345,a26cfb447b17563b00fb904d024109ba206a4ce4,Aero Club of East Africa,-1.3218671999999998,36.80856629999999,restaurant,1.0003199966461
 Ruaraka,Korogocho,-1.2514893,36.8903648,90f84bce5935ed0c5afe17b64794b2df8c2af17d,Cafe California,-1.2604574,36.89061300000001,restaurant,0.9969625414266358
 Dagoretti North,Kileleshwa,-1.2723271,36.799687799999994,e76cee356fda27fd79e0bedb5a9b9a4742d6810f,Chicken Inn-Westlands,-1.2641018,36.8031919,restaurant,0.9934874890126357
 Lang'ata,Mugumoini,-1.1991235,36.846741200000004,699f3ac7d050431f731b5b91203dddfdd0d604fc,Carvers Bistro Coffee & Steakhouse,-1.1931963,36.84005999999999,restaurant,0.9923832294903037
 Lang'ata,Mugumoini,-1.1991235,36.846741200000004,2106ef39bbb862860b17e0dff147b65f79c1959e,The Navigator's Restaurant,-1.1931937,36.8401505,restaurant,0.9850783780007273
 Lang'ata,Karen,-1.3283746,36.7049676,16bb7f1ceb9e44d2049abeed19a8e72a5e0745f4,Dominos Pizza The hub,-1.3196104,36.70367150000001,restaurant,0.9845094291057493
 Dagoretti North,Kabiro,-1.2878118,36.751501399999995,b458cd7543d002cdc9f8c5496648a95427429153,Llarena Pizzeria,-1.2961049999999998,36.754562,restaurant,0.9823087714879316
 Dagoretti North,Kilimani,-1.2874421999999999,36.784522499999994,62c24ab2321354bf2987fb3647590e92f20755b1,The Orchards Restaurant,-1.290598,36.776319,restaurant,0.9765263076987705
 Dagoretti South,Uthiru,-1.2631329,36.7188955,b2fec726918b3c5ac1f53f15b47429d8983fcfbf,Diplomat Restaurant,-1.2550072,36.722204100000006,restaurant,0.9749197476313581
 Embakasi East,Utawala,-1.285877,36.98408679999999,74c9c8a5000f237be95893e556af63ca66d7af42,Mosmas Bar,-1.283025,36.992385,restaurant,0.9748619706003646
 Makadara,Makongeni,-1.2873101,36.87210716,142789fe39e8082a57f609db99a9187189fa4ea2,Munchies,-1.2833035,36.8798713,restaurant,0.9707043131750182
 Lang'ata,Karen,-1.3283746,36.7049676,a2cb186e420964f5d888cc96f5303f491f063c9d,The Mayura,-1.319782,36.703483,restaurant,0.9689933715397612
 Lang'ata,Karen,-1.3283746,36.7049676,3614f90dced1831556e8400c344cbee240c1f159,Artcaffe The Hub,-1.3196934,36.70415850000001,restaurant,0.9688779789145122
 Lang'ata,Nairobi West,-1.3087022,36.823097499999996,37a2ee599f876e1e078871acddd1ba8ec9abc4c7,Friends Beer Garden,-1.3002394,36.825099,restaurant,0.9663599214455252
 Dagoretti North,Gatina,-1.1655719999999998,36.85526373,5fb59082df097d73f6bb3f441215b5cbcf1aae51,Food Zetu Place,-1.1723369,36.8498303,restaurant,0.9641264206213008
 Ruaraka,Korogocho,-1.2514893,36.8903648,afe080bc216ba5d2a3841aa64785d657ccf76719,Topaz Chip palace,-1.2598769,36.88825960000001,restaurant,0.960969301170747
 Embakasi North,Dandora Area 3,-1.2484935,36.89734979999999,a80faa24f59f93b71ae9474d949c9085bf9c23f1,Stekas Butchery & Restaurant,-1.2571229,36.8970358,restaurant,0.9595773760304529
 Dagoretti North,Kileleshwa,-1.2723271,36.799687799999994,5ed8a115108d729e0334b1270bfb931bbbaf14c4,Mumtaz Food Court,-1.27055,36.808135,restaurant,0.9590177159468395
 Lang'ata,Karen,-1.3283746,36.7049676,a6152ac81fe93f62ce98d1d449f3aca57b1f3c9f,Picazo Italian Restaurant,-1.3198743999999998,36.7035131,restaurant,0.958307314482693
 Lang'ata,Karen,-1.3283746,36.7049676,c0376046da5987eeb3594eb95a3d5927f0a1db38,Picazzo,-1.3199589,36.7032222,restaurant,0.9550865776048797
 Dagoretti South,Uthiru,-1.2631329,36.7188955,4dc0e203da3c8c2bb4f65ee813909a7d4e5ed92c,Noni's Cafe,-1.2556829,36.7231482,restaurant,0.9532126758207928
 Ruaraka,Lucky Summer,-1.2393083,36.898786,2ced653701115553dfa2165b3a05f812358e8dfd,New Carninal Restaurant,-1.2438196,36.9060454,restaurant,0.9496222856209372
 Starehe,Ngara,-1.277803,36.830072200000004,5624dd89edc8ee3d3e1c3decd7ad02fcd88157be,Ambassadeur Hotel,-1.2853437,36.8260786,restaurant,0.9481715344721883
 Lang'ata,Nairobi West,-1.3087022,36.823097499999996,ef1dbd2d653292e01b0d4be3bc54a5fe9c52a3d7,Club Legend Baricho Road,-1.300533,36.825544,restaurant,0.9476183102089468
