constituency,ward,clat,clon,place_id,place_name,place_lat,place_long,place_type,distance_km
 Dagoretti South,Uthiru,-1.2631329,36.7188955,efd56a55d573ed0ceec12d4b0d856ccb914ee075,Club Hikers,-1.2203517,36.7127808,night_club,4.802357720676753
 Dagoretti South,Uthiru,-1.2631329,36.7188955,86b98a87814b1f96b8b5a1246b081ac1d143aa46,Podleo Club,-1.2205306999999999,36.71337990000001,night_club,4.773667657439368
 Westlands,Kitisuru,-1.2395542,36.7839651,d4e68f90d6f7f68403785ffc332b712121864a7c,99 DEGREES CLUB,-1.2017169,36.766579899999996,night_club,4.627089174733173
 Dagoretti South,Uthiru,-1.2631329,36.7188955,bafbc48f852c4b1b9b9f9de1daef3743db2d3441,Mary wines and spirits,-1.2234587,36.71448,night_club,4.436007643223932
 Embakasi East,Embakasi,-1.324728,36.887724,5d87a771366dee7bc2b0d4753b1291ce22885030,Turkish Airlines Lounge,-1.3305767,36.92638369999999,night_club,4.34380854417647
 Westlands,Kitisuru,-1.2395542,36.7839651,815db6af0027c4bc69a435f9fe2f74fa00d0a54a,Yooh Lounge,-1.2005246,36.78525339999999,night_club,4.339529788683589
 Embakasi East,Lower Savanna,-1.324728,36.887724,acf4194ff762643c73e249d6c074393d17430f62,Smoking lounge,-1.3291594999999998,36.92528679999999,night_club,4.202006993634597
 Westlands,Kitisuru,-1.2395542,36.7839651,1f6b74d8480e3da9e0bb2b402d52cd6c2829c0e5,The Cask Concept 2011 Executive Lounge,-1.202407,36.7854003,night_club,4.131065192451559
 Roysambu,Kahawa,-1.1869631,36.912022,50958eed618271c41297ecfb5885e5db5f9c5406,Sarafina's Club 254,-1.1525889999999999,36.917666,night_club,3.870952386136955
 Westlands,Kitisuru,-1.2395542,36.7839651,7806d18786707e910d2eae1970f05830d16df91c,Playing Fields Club,-1.2396648000000001,36.8186348,night_club,3.851792301078373
 Westlands,Kitisuru,-1.2395542,36.7839651,67e07d1e04ccf5da018f69c0da616ac9ae2a16fc,The Auto Clinic Pub & Grill,-1.2063028999999998,36.793349799999994,night_club,3.839338779649069
 Dagoretti South,Uthiru,-1.2631329,36.7188955,1e9bd91f14f7a59616ea6c6f072bda90f2954fd4,Kaka 3D,-1.2299652,36.70970940000001,night_club,3.8244492319899237
 Kibra,Sarangombe,-1.31226715,36.77745932,719ff3e91bee952b4c0f6dfcb6c02ec17b133d5b,Club M's,-1.3415857,36.7616406,night_club,3.7017759936741808
 Embakasi East,Upper Savanna,-1.324728,36.887724,194b1450d866d83d98011a949cfe132e9b53868e,Madaraka Express Waiting Lounge,-1.3542054,36.90063840000001,night_club,3.576101630331936
 Lang'ata,Karen,-1.3283746,36.7049676,5173719f4d73e42fdbcf4dbcbe6f4e607a620231,Billionaire lounge,-1.3383450000000001,36.7355222,night_club,3.57070937099207
 Westlands,Kitisuru,-1.2395542,36.7839651,8967163726537be35562b8da090c607e66f9bbbc,the Chilz Lounge,-1.2078387,36.786617299999996,night_club,3.536684657619212
 Kasarani,Mwiki,-1.2322833999999998,36.9275102,bf80543471650c0b8a1aca698cf0a70a8d98afac,Champions Lounge,-1.2133386,36.9525646,night_club,3.4900053805698303
 Dagoretti North,Gatina,-1.1655719999999998,36.85526373,f23c7222013b6b450ee773d76ae593f3ab2d28f9,Kibra funeral servises,-1.165972,36.824658299999996,night_club,3.4006184414714227
 Dagoretti North,Gatina,-1.1655719999999998,36.85526373,8bd686014c2081b1b706bc9ca105215641d27913,Kirigiti Prime Academy,-1.1683181,36.8258264,night_club,3.284753939337213
 Dagoretti North,Gatina,-1.1655719999999998,36.85526373,4749fa077f507e05f64668b9681cecc548ba3ee7,Nyumbani Sports Club,-1.173934,36.8275126,night_club,3.2201889452554475
 Dagoretti North,Gatina,-1.1655719999999998,36.85526373,b58c900ace63121394c62f40a6db39b8405b8d27,Club Spillaz,-1.1679407,36.827226,night_club,3.1261513032107207
 Dagoretti South,Uthiru,-1.2631329,36.7188955,4019ec5f4514b51c54a6c6bffda99ec92ebede6f,club mayy,-1.2526258,36.69302529999999,night_club,3.1022499051720565
 Dagoretti South,Uthiru,-1.2631329,36.7188955,4de64112b32024142e1e877b4dd9a77f14ad452f,Classic Pub Kinoo,-1.254572,36.69345200000001,night_club,2.9825207131641776
 Embakasi West,Mowlem,-1.324728,36.887724,0a781d4b1d0a3d1e5c663f6e6cb113adc101bf6a,Kanyoro Plaza,-1.3136936000000001,36.911733,night_club,2.9356481602341447
 Dagoretti South,Uthiru,-1.2631329,36.7188955,10786c07160d5c6ed37898042419f4588be587ed,Country Club Bar,-1.2547793999999999,36.6938891,night_club,2.9291516281285896
 Dagoretti South,Uthiru,-1.2631329,36.7188955,5f0c651ffc9dba136df6c40621346d427f34667c,Club Country Kinoo,-1.254985,36.693841,night_club,2.9270725509879765
 Dagoretti North,Gatina,-1.1655719999999998,36.85526373,ff6cc20a441eb49ff7d5a4d99fbd7dfb2e5a6098,Emirates Sports Lounge,-1.1726996,36.83056870000001,night_club,2.8557063440330896
 Westlands,Kitisuru,-1.2395542,36.7839651,2c1e87163bb669a5dccf1ac27f698c5dd18a2fd0,Car Wash Mnada,-1.2203745000000001,36.76786329999999,night_club,2.7825901337889323
 Westlands,Kangemi,-1.2654259,36.7525183,8db5e306b197d85452fc65ce944a4ca761addf19,The Hippo’s Den,-1.2414642,36.758781400000004,night_club,2.7521603696686023
 Lang'ata,Nairobi West,-1.3087022,36.8230975,ccd73a3c4421a4df46620377131dc0539bcaff29,Jays BTS,-1.3019998,36.8426296,night_club,2.2942078031284194
 Lang'ata,Mugumoini,-1.1991235,36.8467412,9d4cf31a7e029769446367f0116b9dff181bf562,Billionaire Club,-1.2150475,36.833785999999996,night_club,2.2810077391145067
 Kasarani,Ruai,-1.2677339,36.9911112,4e9945293948db9bf4418cc974006bfa6d19f5a6,Royal Wines And Spirits,-1.2598181,36.972320700000004,night_club,2.265347589356169
 Dagoretti South,Mutuini,-1.3,36.7,5567c9340278b0b9cb00be57f7093ae99e89e155,Green Garden,-1.2855943,36.6865186,night_club,2.1922363535609217
 Embakasi East,Mihango,-1.2692818,36.95299050000001,5f5fdaa4099962866109c92b69180adbb32f01ac,Roxy Lounge,-1.2881136,36.94993970000001,night_club,2.1199556565288886
 Embakasi East,Mihango,-1.2692818,36.95299050000001,4e9ac9dfa991ae5eb481df5f5969ff23d1fe8bed,Club Roxy,-1.2881,36.949976,night_club,2.1178223313716984
 Kibra,Laini Saba,-1.31234835,36.79611435,3920f91a42094a0d38496112dd3339e362fc9121,VIP Lounge,-1.2956942,36.8053231,night_club,2.1146436650641216
 Roysambu,Kahawa,-1.1869631,36.912022,b004378d5d52075917bf3556cce81c0ca18a3cd7,Kuzima Comrades Night Club,-1.1900746000000002,36.93079849999999,night_club,2.114552661079081
 Roysambu,Roysambu,-1.2188396,36.88673920000001,da8fb08f6c9b2e49760763e7d15fe8b3a9a72a12,Clerrett Lounge,-1.2293458000000002,36.871123,night_club,2.0912041240910977
 Roysambu,Kahawa,-1.1869631,36.912022,30c9fb07a495e014819ed3e3e889dda6b7a7e807,Kuzima Comrades Club Lounge,-1.1901239,36.9305691,night_club,2.0903268050362573
 Embakasi North,Kariobangi North,-1.3151376,36.86733961,a4ecdc7f2c7414b9c384b282393d9b4267b6dce1,Chequers Pub And Restaurant,-1.31444,36.84879099999999,night_club,2.0621313350960437
 Embakasi Central,Spring Valley,-1.2477029,36.78923560000001,1acddeb84808ba5e57d4bb3fea18323d9b57b174,Seven Seafood & Grill,-1.259888,36.776348,night_club,1.9706696334533185
 Roysambu,Roysambu,-1.2188396,36.88673920000001,f86c79ead505c2f380e66160a145b4082fa9ee53,Blue Springs Hotel,-1.2322521,36.8754126,night_club,1.9506440908762601
 Embakasi South,Kwa Njenga,-1.3166386,36.884663,523f860830612e5b7022ca1f58efda16182ca899,Rumurs the lounge,-1.3098526000000001,36.900758700000004,night_club,1.9406698268916664
 Embakasi Central,Spring Valley,-1.2477029,36.78923560000001,5ae339f93fdb4a319356561729eb9e955507f496,Abc Place,-1.2595561000000002,36.7768256,night_club,1.9068005229592733
 Lang'ata,Nairobi West,-1.3087022,36.8230975,e7e339ce2fe7525065b64a76c9a3ebf053004a3b,Black Street Bar & Grill,-1.3010726000000001,36.8382545,night_club,1.8852869426226944
 Dagoretti North,Kilimani,-1.2874422,36.7845225,854dd1fc860a952131072544fd79cb38dbdff296,GOSIP UltraLounge,-1.2796517,36.76975969999999,night_club,1.8545672739271983
 Lang'ata,Nairobi West,-1.3087022,36.8230975,aa61e5d52cc6750eebe556bfbbedfcc61a802a9c,KQ PRIDE LOUNGE,-1.2920658,36.8219461,night_club,1.8531419441746264
 Lang'ata,Nairobi West,-1.3087022,36.8230975,dda3676f500a21d73389083e5ab514ffa79e23a3,Warlords Entertainment,-1.2920658,36.821946200000006,night_club,1.8531411773439264
 Lang'ata,Nairobi West,-1.3087022,36.8230975,284ee25bfb361f5ce16bb72965900ab96eac4795,Club 64 JOS LIMITED,-1.2920658999999999,36.82194619999999,night_club,1.8531300913335844
 Embakasi East,Utawala,-1.285877,36.98408679999999,acb2423ffad5107f3403fd6b6ea59d6fad763605,Emmanuel Cafe,-1.2797068999999999,36.9688708,night_club,1.8242152986147009
 Kibra,Sarangombe,-1.31226715,36.77745932,e73efac05913d7068720cb1f7b7bd011d0268a1e,Summers Bar and Grill - Langata,-1.3284206,36.7800021,night_club,1.817146193922317
 Embakasi East,Mihango,-1.2692818,36.95299050000001,16f211b8396ccb640a00e343b761fb78599a5665,"PREMIUM CLUB , ACCOMMODATION & BREAKFAST",-1.2807745000000001,36.96452360000001,night_club,1.8090837058311893
 Ruaraka,Mathare North,-1.251788,36.87077217,9b4b44b42ffb16b1f1a54ad932c29fee1aef4806,Smuff Whisky Bar N Grill,-1.2358299,36.87370519999999,night_club,1.803035587992728
 Ruaraka,Mathare North,-1.251788,36.87077217,5a0cdc967270a8ffe8c160456edbc7c92378621d,Bourbon Bridge lounge,-1.2357200000000002,36.8729126,night_club,1.8013237138033509
 Makadara,Harambee,-1.290941,36.89721585,2c60e8452f9489457f325c744d8209489f16450e,kwa kamau,-1.3065343,36.90149570000001,night_club,1.7968580736059265
 Embakasi East,Mihango,-1.2692818,36.95299050000001,56969470a4a808209e5f1527bd8e31ab7f2093be,The Avery Lounge,-1.279835,36.9651415,night_club,1.7881953407324045
 Lang'ata,Karen,-1.3283746,36.7049676,028534844461d0bf166a5c24a4df470e72fee653,CLH VIP Lounge,-1.3184978,36.6922726,night_club,1.7871054666672084
 Ruaraka,Mathare North,-1.251788,36.87077217,045415ddd3296e3ee5ae2c28722af5bd2292523d,Sir Yusuf Ali Sports Club,-1.2573586,36.8561415,night_club,1.7393315931887257
 Dagoretti North,Kilimani,-1.2874422,36.7845225,3c1e08fd481f38c61193bbe0cd372aa246af3ecb,Sailors Restaurant and Whiskey Lounge,-1.2944937,36.798367299999995,night_club,1.7262164009065135
 Dagoretti North,Kilimani,-1.2874422,36.7845225,1ab2b9b5f4eb31435bec88da09ffe47d01a6518c,The Tiffany's Bar,-1.288262,36.7693446,night_club,1.6886789268880646
 Dagoretti North,Kilimani,-1.2874422,36.7845225,72cf0e7f6cb2c0b574776c4f42db24a7c8d5d397,Sippers Bar & Restaurant,-1.2948870000000001,36.79774000000001,night_club,1.6854373804940077
 Embakasi East,Mihango,-1.2692818,36.95299050000001,05b706ae9994b27b8afe24a3e4e7042366ed94c4,Club 106 Lounge & Restaurant,-1.2831860000000002,36.958935,night_club,1.6803290398797577
 Dagoretti North,Kilimani,-1.2874422,36.7845225,3d4315ee31f0d58145d8c51045c87f810c69028c,O3 Club,-1.290561,36.769867,night_club,1.6646597769365608
 Dagoretti North,Kilimani,-1.2874422,36.7845225,68df1caa39bdc432752b735f68830df985cb63e6,O Zone,-1.2904381,36.769871,night_club,1.6614347217634748
 Embakasi East,Mihango,-1.2692818,36.95299050000001,9b79a9b3dd27e7b0720e346b6bbe457ffd04ce68,Lacoste Lounge,-1.2839247,36.95012649999999,night_club,1.6580110666248593
 Roysambu,Kahawa West,-1.1856847,36.90579279999999,2bc6f626c4c53246d6d98251318e54f2a73ad3a4,Club Century,-1.1880467,36.8916179,night_club,1.5965729438919174
 Dagoretti North,Kileleshwa,-1.2723271,36.7996878,5f78de761e41f09dd64379bc06a16e130479eb7b,The Grove Restaurant,-1.2682997999999999,36.7859302,night_club,1.5926120020099406
 Embakasi South,Kware,-1.3112904,36.87875837,c74e693faba904665dadd1101c64ce35e2e79ceb,Choma Base,-1.3016608,36.88858070000001,night_club,1.5283529688530892
 Lang'ata,South C,-1.3204427,36.83053678,96cc7215ccc6f4a6652b60a4bc4a74ce12b3782f,Golden Ice Bistro,-1.3235209,36.8439187,night_club,1.5255166460301617
 Kasarani,Kasarani,-1.2208721000000002,36.9012224,17a2653bb9e6365ba8a060626848e12e7d0a9b3e,Cool Base Wine & Spirits Wholesalers,-1.2247092,36.9142153,night_club,1.505168672394973
 Lang'ata,South C,-1.3204427,36.83053678,04b81419e72945f52a0af10e8ad0b5c0c74bc8e8,Momentum Lounge,-1.3236228,36.843680600000006,night_club,1.502373226825258
 Kibra,Woodley,-1.3056567,36.77600465,a3f0adeec1307a5d285f37d07586d584f343a368,Fadhilee's garage 2,-1.2979988000000002,36.7649658,night_club,1.492707476569428
 Kibra,Lindi,-1.31516185,36.79284123,373201921a56a583ca2cfde1fa768f239b36794d,Club 411 Kitengela,-1.3263197,36.78536959999999,night_club,1.4921136619741426
 Mathare,Huruma,-1.25764595,36.87259835,6abbab08d669b5c99ba6b083734316fb6dfc9c47,Annex Villa Club,-1.264782,36.883968599999996,night_club,1.4914926165788458
 Mathare,Kiamaiko,-1.25377765,36.87573249,f99d4afdb450016a67a2ebba129472eeed779f01,Oxygen Louge,-1.263807,36.8844401,night_club,1.4758056900654852
 Embakasi South,Kware,-1.3112904,36.87875837,8bcb845066cc9a64dc80d0c6809b6f6e052b51f7,Luxx Night Club,-1.3030583999999998,36.88914340000001,night_club,1.4723911735360242
 Starehe,Ziwani,-1.2788772,36.8360883,d35a73c116f8aa517dbf4603ac190f931b9fa96d,Winkers,-1.2871573,36.82578769999999,night_club,1.4684048317506084
 Roysambu,Zimmerman,-1.2103969,36.89522120000001,b4889fd5a17441c0c3760edbcf249df1d73f2d2d,Brooklyn Club,-1.1985712,36.9011076,night_club,1.467868002400864
 Westlands,Parklands,-1.2630616,36.8106288,f348e2e3d9e20a78124d1dfc71dfb197d8442f16,Kipkabus Safari Club,-1.273103,36.8191998,night_club,1.4669179036515472
 Dagoretti North,Kilimani,-1.2874422,36.7845225,0cef29647fa7011169bab8af31ce51d5f1e4fcdf,Dream Lounge chaka,-1.2927579,36.7725352,night_club,1.4568802755337231
 Kibra,Sarangombe,-1.31226715,36.77745932,785c6df4a98579d100c34678610cf7ade520bc03,Summers,-1.3240906000000001,36.7830446,night_club,1.4530339003551016
 Westlands,Parklands,-1.2630616,36.8106288,3880a41d9cc9050c8383f7ea1e4070b68bbb4898,Qwetu | Student Residences | Parklands,-1.2726783000000002,36.81943690000001,night_club,1.4490031351990702
 Westlands,Parklands,-1.2630616,36.8106288,e3324e848f5ad30ababcfe7a48d46e76c604049d,Club Odyssey,-1.271694,36.820325,night_club,1.4424392030216715
 Westlands,Parklands,-1.2630616,36.8106288,3b23dcadee906975636ea0b88cb31c45435cf6d2,"Oddyssy Grill, Lounge & Pizza",-1.2719261,36.820103,night_club,1.4416140057842053
 Lang'ata,Nyayo Highrise,-1.31600475,36.80173345,7f62e20aa7e3d6718c6c71c7c1b328a601f4f1af,The Simba Saloon,-1.328911,36.800711299999996,night_club,1.4386969931152287
 Lang'ata,Nyayo Highrise,-1.31600475,36.80173345,29cdcd16435557a4751289885ff111111cc7db5e,The Simba Saloon,-1.328911,36.800711299999996,night_club,1.4386969931152287
 Starehe,Ziwani,-1.2788772,36.8360883,c003647727d1685c7510caa79aa16a5494e74b47,Zanze Club,-1.2870795,36.8261945,night_club,1.4279292998744713
 Starehe,Ziwani,-1.2788772,36.8360883,c43159200a3aa242f8657a5ed5c3ccea029f260f,City Platinum Club,-1.2867831,36.825972,night_club,1.4265257101391002
 Starehe,Pangani,-1.2648989,36.8372708,b477720bb52cebef49daf2da6c40348b803bdf92,Tamambo Village Market,-1.2573590000000001,36.827084,night_club,1.4081385696756108
 Dagoretti North,Kabiro,-1.2878118,36.7515014,6a143f515fee7ed81b07dc8182de277601b620d0,Freetown Lounge Bar & Restaurant,-1.2991165,36.757194500000004,night_club,1.406473094368511
 Makadara,Harambee,-1.290941,36.89721585,10848c78c985864547d3679946a3756604a16f11,TRIPPLE K LOUNGE,-1.3007183999999998,36.88923870000001,night_club,1.4021150528064092
 Roysambu,Zimmerman,-1.2103969,36.89522120000001,9ae8aaa3f101ca360952a815806fae3cf407f448,Club Century,-1.1993643999999999,36.90126420000001,night_club,1.3977832474214846
 Dagoretti North,Kabiro,-1.2878118,36.7515014,0d9ef3fea78756d455e4b8bdfca8b01a989e079e,Roba's Bar,-1.2990281000000001,36.75708210000001,night_club,1.3920997817590073
 Dagoretti North,Kileleshwa,-1.2723271,36.7996878,e1df025a3e55e8c7029851e8a774634ea081998e,Dejavu Club,-1.2599382,36.7978826,night_club,1.3912491380504763
 Makadara,Harambee,-1.290941,36.89721585,8126ea5b86c2d8984e5e3c86bc7941c3afe30d19,Triple K Lounge,-1.3003758,36.88909149999999,night_club,1.3834374447069115
 Westlands,Karura,-1.2369881,36.83255910000001,f59d30026c7833341a4fb55059cffdc6e727722e,Saape lounge,-1.2265747,36.8385456,night_club,1.3347070804378982
 Starehe,Ziwani,-1.2788772,36.8360883,7db10b17c8104e29bd182d2229a403add7017670,Club L.A.,-1.2872152000000001,36.8276307,night_club,1.3196189220890688
 Starehe,Nairobi Central,-1.2832533000000002,36.8172449,ff72ef5188383499e8f86f5d9797270a2e7f9b4a,Casbah Lounge Bar,-1.2888366000000002,36.80690379999999,night_club,1.3056974818037903
 Makadara,Harambee,-1.290941,36.89721585,dd6a0e8260a312f50af9b6b35cd39e65eb768980,Jam Rescue,-1.2898844999999999,36.8855197,night_club,1.3046994075645304
 Roysambu,Zimmerman,-1.2103969,36.89522120000001,09e111ffb6734cc94094d6e04a8b310a0def47be,On - Point Lounge,-1.2004541000000002,36.9011972,night_club,1.2890323617639
 Westlands,Karura,-1.2369881,36.83255910000001,3ee321a975aa68cf016214cd5900980dea33927a,CLUB SIDAI OLENG,-1.2310044,36.8424804,night_club,1.2872836368124887
 Westlands,Karura,-1.2369881,36.83255910000001,d40d495ee0d53c799ed3c04dcf0dba018046a68e,Marquee Sports & Grill,-1.2374087,36.84389,night_club,1.2597213882605942
 Embakasi East,Embakasi,-1.324728,36.887724,001ddcd39c1ab90379bd59d2ea3b61620f25c0ed,Spinners Pub & Grill,-1.320027,36.89800999999999,night_club,1.256474948115228
 Lang'ata,Nairobi West,-1.3087022,36.8230975,9e9ae72a206f6611d9ac39b9340407c388cd165e,Club Kijiji,-1.2982604,36.82735200000001,night_club,1.2529207016897177
 Embakasi East,Embakasi,-1.324728,36.887724,07e26aabee13cbc8e9684c8913a80a78d275a5c1,"Captains Sports Pub, Embakasi",-1.3204677,36.89814260000001,night_club,1.2505380211578354
 Dagoretti North,Kabiro,-1.2878118,36.7515014,9ed7def2ef5b8239470a167589d30899e74f836c,Mialle72,-1.2835154,36.761879,night_club,1.247868319289696
 Kibra,Sarangombe,-1.31226715,36.77745932,f93092748c679519d6cb59bcdf1d53a409d50365,Omella Centre,-1.3234098,36.77762860000001,night_club,1.2383710528926275
 Lang'ata,Mugumoini,-1.1991235,36.8467412,950173baa1ea84e0dff3af2ae988216ea7fb4409,Rhino Club,-1.1998843000000001,36.8359767,night_club,1.1989287313382286
 Starehe,Nairobi Central,-1.2832533000000002,36.8172449,4910da6c580ca5c3d591c6d40642461e451830e7,The Goan Gymkhan,-1.272653,36.816255,night_club,1.1830821039697748
 Embakasi East,Embakasi,-1.324728,36.887724,5d679d322cbeb1c7fd039b15f841a86bde771e94,Amazon 'S' Lounge,-1.3211239,36.897653399999996,night_club,1.17356731964567
 Roysambu,Kahawa West,-1.1856847,36.90579279999999,e33da00457e52683ad928da5eaf5dd7d89f58e7d,Sikai Sana - Ebony Lounge,-1.1882243000000001,36.895581299999996,night_club,1.1690845505280536
 Westlands,Parklands,-1.2630616,36.8106288,8636ec1470b684b727d290425da27d42af092818,Blue Times,-1.2734101,36.812175399999994,night_club,1.1627439235075443
 Kamukunji,Eastleigh South,-1.2778285,36.8486835,3ca7fbc43d86da36b2aeb2ee26d79a9658168248,Europa Complex,-1.2842666999999999,36.85689409999999,night_club,1.1592787691479771
 Roysambu,Roysambu,-1.2188396,36.88673920000001,c46683447c69bc52f30b68f496d85b5c2b282a4f,Simba Vapes Lounge,-1.2220146,36.877195500000006,night_club,1.1174651900558197
 Roysambu,Kahawa West,-1.1856847,36.90579279999999,bc58592350af9b7b67e65c0d4b7e57e96da6ac67,TEXAS RESORT Club,-1.1894189,36.8964662,night_club,1.1161982694256103
 Starehe,Nairobi South,-1.314183,36.8235852,3f01b7607be126c8d96ebf3c63568fafde8edd0c,Club Weston,-1.315524,36.81365699999999,night_club,1.1130029493478493
 Kibra,Lindi,-1.31516185,36.79284123,8def8397201b1b11d367185d0dcbc3221e398103,The Four Horsemen Lounge,-1.3247520000000002,36.795564,night_club,1.1078037961453897
 Makadara,Makongeni,-1.2873101,36.87210716,818b1560d1a735c2d45fb66f2bd97c6f73d3021d,Jam Rescue,-1.2964768,36.875938399999995,night_club,1.1040006123333586
 Kamukunji,Pumwani,-1.2797575,36.8442693,d9fd27c9ef2782d77040a1cf06c0fdb46485c4bb,Shauri Moyo Makuti Club,-1.2895226,36.84584170000001,night_club,1.0991188138128665
 Embakasi East,Utawala,-1.285877,36.98408679999999,7bbe0697a956521cedf31a91a2d763f48dcb0ec3,Barracuda Entertainment Lounge,-1.2956299,36.9841989,night_club,1.0838636717218335
 Starehe,Nairobi Central,-1.2832533000000002,36.8172449,32911b5cae55f5783bafe32f81f72125461a798f,Loft Lounge Limited,-1.2740194,36.8141972,night_club,1.0805382243145338
 Makadara,Harambee,-1.290941,36.89721585,ad6a69f22c2262ae6ac8efa4109fa412003649f0,The Octopus Restaurant,-1.2980811,36.890888200000006,night_club,1.0600645485244289
 Westlands,Kitisuru,-1.2395542,36.7839651,5faad7ab92e4e12ae40efe8666d9c2b088429c56,Clarett Lounge,-1.2366218999999998,36.79292890000001,night_club,1.0478254496167287
 Starehe,Nairobi South,-1.314183,36.8235852,062534dc54c90cc159cf84edc28058867eb536fb,Dambusters Club,-1.3167870000000002,36.81453390000001,night_club,1.0463694856687735
 Kamukunji,Eastleigh South,-1.2778285,36.8486835,8ebc953404e3669a60ab32712d5ca5388b92d239,Club Socrates,-1.2842839,36.855458899999995,night_club,1.039808614218632
 Kasarani,Njiru,-1.2539022,36.9343299,ec3b5e36af556f7b00620372e53b45e85bbf19f8,Wandas Village Bar & Restaurant,-1.2562891,36.9252883,night_club,1.038937207750625
 Embakasi Central,Komarok,-1.26725495,36.90524096,f8fa698d0abfb0472891a62f00463661bd401c28,Makuti 2000 Club,-1.2750517,36.9103278,night_club,1.034434054680908
 Embakasi East,Upper Savanna,-1.324728,36.887724,f04cc9a0768a1ff11a7deafa30c3b716a5f587a9,Icon b40,-1.3254791000000001,36.89692489999999,night_club,1.0255796818164609
 Kibra,Makina,-1.30854575,36.78652379,a66db58abcf04e7c8adf1ea1d3efc197dcd91fc9,The Cave,-1.2996562,36.784379,night_club,1.0161833593994554
 Starehe,Nairobi Central,-1.2832533000000002,36.8172449,6f5d16e3dde0e5f6d31a65336b9c310d3d8b6295,Samba Brazilia Restaurant And Pub,-1.2864209999999998,36.825824,night_club,1.0160401629546247
 Kamukunji,Eastleigh South,-1.2778285,36.8486835,213f95c5d4b22c292f5884da810f9d95709f523c,Klub One N One,-1.283939,36.8554823,night_club,1.0156786378717553
 Lang'ata,Karen,-1.3283746,36.7049676,d7742f5f333d7f7a0611d8094a68a3bc138a56a7,Ivor Mead,-1.3370618,36.7077942,night_club,1.0151556737202003
 Embakasi Central,Komarok,-1.26725495,36.90524096,70fc0bb4549d105a365bcf61bd40b5182f1f619a,Olive Green Guest House,-1.2752716999999998,36.9096208,night_club,1.0150890554030336
 Embakasi Central,Komarok,-1.26725495,36.90524096,812b5552ac51f0a12c1b291cddb1fa60e03b4c08,Nyama Villa Annex,-1.2758073,36.9084399,night_club,1.0146572911404137
 Embakasi East,Utawala,-1.285877,36.98408679999999,9ceec05af0143bae472ff8a6b7d46d130e95c8ed,Vision Club,-1.2948969,36.9826831,night_club,1.0143962138502889
 Kibra,Lindi,-1.31516185,36.79284123,fa86dcad26651970739efa6096ae9a53418eb3f6,Club 15,-1.3225040000000001,36.787481,night_club,1.010102292649348
 Kasarani,Njiru,-1.2539022,36.9343299,fb03e283612da3044bf9d3bc6317c3e189ee1252,Obama office,-1.2506969,36.925845100000004,night_club,1.007699494339947
 Starehe,Ngara,-1.277803,36.8300722,0cbb26c2382bc88527634bcaed818e4b98cde10a,Lazarus Inn & Grill,-1.28593,36.826190000000004,night_club,1.0008176172831658
 Embakasi East,Utawala,-1.285877,36.98408679999999,28b852f61dcdfc7b331f71e651327c8aa9ddf356,Concepts Utawala,-1.288791,36.97560870000001,night_club,0.9960015418790162
 Starehe,Ngara,-1.277803,36.8300722,eb47fad9de80e5f7e66144ca8ca6dfcfd0c4609d,Club Sabina joy,-1.2858326,36.82618730000001,night_club,0.99119223128595
 Roysambu,Githurai,-1.2062932,36.9206391,913df4f9d3272c6f3dba20f65e48d5bb04902ec1,Club velvet wendani,-1.1979341000000001,36.923501,night_club,0.9818167561946032
 Embakasi Central,Kayole Central,-1.2659842,36.9169455,6e8cf1c6097c923255dbd382032333abff7e3c53,Club Sungrade,-1.2576903999999998,36.919708899999996,night_club,0.9714381411341104
 Westlands,Parklands,-1.2630616,36.8106288,fa7012134a60d8f9f599570e9d98081c3d73b9ca,Hidden Agenda Lounge,-1.260786,36.802222,night_club,0.9676079357654414
 Kibra,Makina,-1.30854575,36.78652379,f179f800ddc0b7ac8a4975b4575d836b213fdb18,The Clique Lounge,-1.3002444,36.7841477,night_club,0.9595142941177296
 Makadara,Makongeni,-1.2873101,36.87210716,1bc54aef19137c72d02376887c9b7af04ac3c519,Skyfall Bar And Lounge,-1.2847375,36.880291799999995,night_club,0.9531714748870891
 Lang'ata,Nairobi West,-1.3087022,36.8230975,3f4b6faa0340d94f09670ab0653cb4db48513231,XS Millionaires,-1.3005136,36.82556669999999,night_club,0.9504085893426804
 Westlands,Kitisuru,-1.2395542,36.7839651,cc3b46ab97734f3461ac209acf1d0f746dad3a8a,Cross Roads,-1.2415205,36.7756924,night_club,0.9447061085304232
 Lang'ata,Nairobi West,-1.3087022,36.8230975,c4c1cf60d16d769e9204b7c43d8c6801d0bd5262,The Legend,-1.3006468999999998,36.825449600000006,night_club,0.9325069997546742
 Dagoretti North,Kilimani,-1.2874422,36.7845225,04204e0d369d7ccbb5b4aadd4138c1517ce6f19b,St. Luke,-1.294322,36.78917349999999,night_club,0.9227565417427462
 Kibra,Laini Saba,-1.31234835,36.79611435,f351f92b142746f8ea31a08004f70249a6994e51,Fifth Round Bar & Lounge,-1.3069596,36.80240620000001,night_club,0.9204307605397264
 Kibra,Laini Saba,-1.31234835,36.79611435,ca51d29cb1b34c0fdfb7db669ea3af87e63e24b5,Adventurers Club,-1.3070639,36.802386,night_club,0.911215471857878
 Lang'ata,Nairobi West,-1.3087022,36.8230975,ebde7c774538b61b4d0f52cfd206f992f113e7c3,Eleven,-1.3009754,36.8258372,night_club,0.9109921453048758
 Dagoretti North,Kileleshwa,-1.2723271,36.7996878,916cf5a50c889882ee5e30c2cb50ba70efc21b42,Pavements Club,-1.2643061000000002,36.8011304,night_club,0.9056288790771748
 Makadara,Makongeni,-1.2873101,36.87210716,f174af304520db5ee5b19055f09e7d8f30bad58b,Piccassa Lounge,-1.283472,36.879286,night_club,0.9044302374218398
 Mathare,Huruma,-1.25764595,36.87259835,41999e19b11274c7021a363292a3a3c24d3baf54,Captains Sports Pub,-1.2625106000000001,36.8790671,night_club,0.8992851584065691
 Dagoretti North,Kilimani,-1.2874422,36.7845225,48dba021c888bcac2edbb05b5ab8e4e0edb6479a,Bleau Lounge Nairobi,-1.294927,36.7874927,night_club,0.8948148508249557
 Ruaraka,Mathare North,-1.251788,36.87077217,29746252459ffdad47eae98b1b7b3623e9eb0bec,"101 Chronicles, Bedsitter",-1.2448374,36.86673819999999,night_club,0.8929926659625713
 Starehe,Nairobi Central,-1.2832533000000002,36.8172449,828f18a43e5d406737c19ecaa29e134fe325b56b,Club City Space,-1.2845062,36.8251748,night_club,0.8919235767776128
 Kamukunji,Eastleigh South,-1.2778285,36.8486835,bf0adf24a4a3b6970d5df7412addd5ff47fb6330,Club Cheddas,-1.2846343,36.8529108,night_club,0.8902504964855028
 Embakasi East,Utawala,-1.285877,36.98408679999999,88460cb5b6bd899c8b7e9f6acec0d23669ccdad8,Star Buck Lounge & Grill,-1.2888697,36.97678330000001,night_club,0.8769062938272555
 Dagoretti North,Kilimani,-1.2874422,36.7845225,c6bd833a82bb63fa474e16b1426594be8f1af5fb,CrazyMicrophone KTV,-1.2948505,36.7872185,night_club,0.8760411747421674
 Kibra,Laini Saba,-1.31234835,36.79611435,8341650ef1127797523a617ce0268dfdd202ef5b,Attitude Club,-1.3073856000000001,36.8021849,night_club,0.8711897613064021
 Kibra,Laini Saba,-1.31234835,36.79611435,ee9064c5f60728c97887d6d589764b67414ab02b,African Club,-1.3074017,36.802123200000004,night_club,0.8647558747200359
 Embakasi West,Kariobangi South,-1.324728,36.887724,b8c19b100303a071362c7754f87ff8438cf9b79d,Champions Pub,-1.3229491000000002,36.8952984,night_club,0.8643890922434746
 Starehe,Nairobi Central,-1.2832533000000002,36.8172449,f1b7b144249d2e4b911a57245c90dc5c6bbe260b,Hilton Nairobi Executive Lounge,-1.2853733999999999,36.82469969999999,night_club,0.8610651035688534
 Lang'ata,Nairobi West,-1.3087022,36.8230975,1997674fd600b6dc2d563fd173ba2a0ca0794b90,K2 Klub House,-1.3013438999999998,36.8252377,night_club,0.8515596481528788
 Starehe,Ngara,-1.277803,36.8300722,e2ef8abe350e7e5335beaef832565951ce0c0a5e,silverstone credit,-1.2730528,36.8240874,night_club,0.8489586691777551
 Dagoretti North,Kilimani,-1.2874422,36.7845225,a540f886d4c159261ea338f076b76f2f953a43be,Kingdavids Bar&Buchery,-1.2944296,36.787578499999995,night_club,0.8474567165039989
 Westlands,Parklands,-1.2630616,36.8106288,2a7753241122d68cc7d1cae3111190df61b4b604,Ananas Center,-1.2610048,36.8033744,night_club,0.8377331380698392
 Westlands,Parklands,-1.2630616,36.8106288,095fd8387cb97f6fce139937f98b8119e3a58ab7,MILAN,-1.2697662,36.80718329999999,night_club,0.8376307995196797
 Lang'ata,Nairobi West,-1.3087022,36.8230975,4336602ac459037f24a3bbd6d5bf67728d616c73,E11EVEN,-1.3018976,36.82627700000001,night_club,0.8345973618681648
 Embakasi East,Mihango,-1.2692818,36.95299050000001,7a4c0cb9a1241b8f4eed30aa9eb8c894106871b3,Bulls Lounge and Sports Bar Utawala,-1.2682792,36.94560260000001,night_club,0.8283071881460411
 Westlands,Parklands,-1.2630616,36.8106288,9eb33f1ac42b14379fbccc0288bbd156c44d8911,Melanin Club and Food Court,-1.2608943000000001,36.80354620000001,night_club,0.8228968867407854
 Starehe,Nairobi Central,-1.2832533000000002,36.8172449,72a7e3cd34f809ce71a150293c27024051193bc9,Waves Lounge,-1.2829523,36.8244918,night_club,0.8058051777389076
 Makadara,Makongeni,-1.2873101,36.87210716,0da893b7596bac930649c73975856e5dfb7b0fc4,Evechill Lounge,-1.2802278,36.8734683,night_club,0.8014173800430153
 Embakasi Central,Komarok,-1.26725495,36.90524096,7f19f8f3902d20b207bca5b218240e1724d83c95,Flames Lounge & Restaurant,-1.2722372,36.9102906,night_club,0.7881987516921153
 Starehe,Nairobi Central,-1.2832533000000002,36.8172449,da242bf0610474f2c743e4f1c71513e7d3ba17a8,7 Knights Restaurant And Lounge,-1.284775,36.824157,night_club,0.7863129062168887
 Starehe,Nairobi Central,-1.2832533000000002,36.8172449,bcbc974422a17bcd2cabd8e5522f9a3d66afd77c,Jahfulnoize Intl Kenya,-1.2829077,36.824307399999995,night_club,0.7855636664923366
 Starehe,Nairobi Central,-1.2832533000000002,36.8172449,0963945b215f28c32bc594ef404a77cd350cb87d,Club Note Book,-1.2843198,36.824161200000006,night_club,0.777467831639412
 Starehe,Ngara,-1.277803,36.8300722,4365429c5fc2981fa73bd37f220b43c0d156a193,Monte Carlo Club,-1.2822033000000002,36.8246612,night_club,0.7749090555276863
 Lang'ata,Nyayo Highrise,-1.31600475,36.80173345,cac805d5d1fc237c5b6a45668f99ec22b1dcc4c9,Club Santana,-1.3228865,36.8007848,night_club,0.7719632382259771
 Starehe,Nairobi Central,-1.2832533000000002,36.8172449,733ac6a96410219bd8aeddbb0b697b37d6df26b4,Nairobi Apple Bottoms,-1.2807776000000002,36.82370209999999,night_club,0.7683210809956931
 Dagoretti North,Kileleshwa,-1.2723271,36.7996878,fa86a7f11c7984f42f0cd07a4285cd7b8bec7cb6,Sky Bar Westlands- ibis Styles Hotel Rooftop,-1.2655100000000001,36.7985412,night_club,0.7681864512368106
 Starehe,Ngara,-1.277803,36.8300722,18ff913481023e69d66731bddd12c6e2186057a0,Hotel Central Park And Conferencing Facilities,-1.2845659999999999,36.82866299999999,night_club,0.7676728490105371
 Westlands,Parklands,-1.2630616,36.8106288,20b86c6b939069a45a9aee17ad7cca7d2e2f4fa3,Gallileo Lounge,-1.2678056999999998,36.805611299999995,night_club,0.7672423624734332
 Starehe,Nairobi Central,-1.2832533000000002,36.8172449,bdbeb301352da8c788e33f215b1811775f073cb3,Sixtyfour Restaurant & Lounge,-1.2848333,36.82394219999999,night_club,0.7644866983986928
 Starehe,Ngara,-1.277803,36.8300722,f2c17c6109416244bbe7425bbaedfb799a6d8109,Comfort 5 Hotel and Accomodation,-1.2839786,36.8271599,night_club,0.7587110434487674
 Starehe,Ngara,-1.277803,36.8300722,904e075118372efa64c0eef2b62c44d954a6f4cb,Mordern Green and Day Night Club,-1.2825098,36.82513369999999,night_club,0.7580213348503255
 Westlands,Parklands,-1.2630616,36.8106288,cdaf4fde1bd4d500befbddc61ccd8291ef8cebc1,The Yard Westlands,-1.2625685,36.8038401,night_club,0.7561997535659407
 Dagoretti North,Kileleshwa,-1.2723271,36.7996878,a978ef1e9006b102e771d864476adfb93d2c472e,Deja Vu,-1.265834,36.7978739,night_club,0.7491593862471476
 Starehe,Ngara,-1.277803,36.8300722,3a1d10d46bc28aa20d0a1d60626c5e076d91c189,EXPRESS INN,-1.2830981000000001,36.8259154,night_club,0.7480003159922896
 Starehe,Ngara,-1.277803,36.8300722,ca9a4dc94f5b6869f1e184683d2252a0b53de13f,Marurui Station,-1.2817043,36.8246594,night_club,0.7413297092961028
 Starehe,Nairobi Central,-1.2832533000000002,36.8172449,96395ee380a3b235c4b08269cdf7dd076eb72bbd,Taco's,-1.2843961000000002,36.8238156,night_club,0.7409505369880071
 Starehe,Ngara,-1.277803,36.8300722,c7f627c81bc3b52a539e2147651753abc04327cc,Axhenda club,-1.2745899,36.8242633,night_club,0.7375442740322519
 Starehe,Nairobi Central,-1.2832533000000002,36.8172449,a80e3d19d2292381bcb199b7f33b7de74df3b44b,Seasons restaurant and club,-1.2844263999999999,36.8237686,night_club,0.7363953715812471
 Dagoretti North,Kilimani,-1.2874422,36.7845225,bf60f9fbf6523c585a4c19ee48478f29dff91b36,Sailors Restaurant & Whiskey Lounge,-1.2925399,36.78875479999999,night_club,0.7361972109360401
 Starehe,Nairobi Central,-1.2832533000000002,36.8172449,f9a057dde4972559bce67773562a46e16632d67a,Yipee Kids Entertainment,-1.284269,36.823787,night_club,0.7355209700106593
 Roysambu,Roysambu,-1.2188396,36.88673920000001,f1034cfb642758f85fdfbf88306c24956b757128,Memphis Bar And Restaurant,-1.2203979999999999,36.8803723,night_club,0.7282524862512512
 Westlands,Parklands,-1.2630616,36.8106288,2642357a80c9f1c0c2451e456a26513acc6ab7fc,New Club Hypnotica Nairobi,-1.2642622,36.80419420000001,night_club,0.7272150095049226
 Embakasi West,Umoja 1,-1.2778669,36.8881172,b2241183c9d9f94a56c3d910bed9fd540837e177,Casagrande Club,-1.2843916000000002,36.8880115,night_club,0.7251531159543011
 Starehe,Nairobi Central,-1.2832533000000002,36.8172449,7ff6b33b558af6a059c98235637a10c2f8314ca9,Fahrenheit Lounge,-1.2857903,36.82325590000001,night_club,0.7248759584498783
 Roysambu,Kahawa West,-1.1856847,36.90579279999999,af1775b000a1af6e393cb4fcd84e1f071d40edf6,Club 10,-1.1920496,36.9043845,night_club,0.7243994378008247
 Starehe,Nairobi Central,-1.2832533000000002,36.8172449,77522ae26de3f2ae64b2466599d57f92728ec28c,Lounge,-1.2851031000000002,36.8234647,night_club,0.7209291861514561
 Westlands,Parklands,-1.2630616,36.8106288,f1a85cede7711da8fa037c7018dc7632cdf7b6b1,Blue Door KE,-1.260528,36.8046597,night_club,0.7204473990022574
 Dagoretti South,Uthiru,-1.2631329,36.7188955,a9bafc7471adfcb9ae42ba6a7c8004c0e551de12,Villagers Inn,-1.2579933,36.71495240000001,night_club,0.7197957222116326
 Dagoretti South,Waithaka,-1.2833,36.7166,f47e73550c95a8c2083d1a625915a98dd0b77a3b,Club Silent,-1.278870299999999,36.7119326,night_club,0.7149756970181841
 Kibra,Woodley,-1.3056567,36.77600465,63e5f18282b71d2367a09bda832719f20dbade58,Onyx Lounge,-1.3000155,36.7729461,night_club,0.7130477750996818
 Dagoretti South,Uthiru,-1.2631329,36.7188955,ab8794cf45cd32f33a4e15dba3cc76281982e722,Ex Vet Lab Club House,-1.2586727,36.7235025,night_club,0.7124806006543838
 Westlands,Parklands,-1.2630616,36.8106288,8e9e4778988499ebfd7413ab904c4242b14cb4f1,Club Crooked Q (3Qs),-1.2640714,36.8043274,night_club,0.7090098297183728
 Westlands,Parklands,-1.2630616,36.8106288,74b5e7cea4b75b6e10a8e2b8ef8eaf2a03638517,13Electric,-1.2642225,36.8043549,night_club,0.7088560030006797
 Roysambu,Kahawa West,-1.1856847,36.90579279999999,e74690af4ed9b182cea8b3c86755df530fa8d3fc,Ferero Club,-1.1907778,36.9019658,night_club,0.7078878933035071
 Roysambu,Roysambu,-1.2188396,36.88673920000001,3d72beafd009ec11c5b0dddaac09c3940c1a526c,Warlords Entertainment,-1.218705,36.88038,night_club,0.7066652652025711
 Kasarani,Kasarani,-1.2208721000000002,36.9012224,cc80707a63a39a428dc93995a3188f7657afa608,Outspan Club,-1.2179722,36.895582899999994,night_club,0.7045628089837166
 Westlands,Parklands,-1.2630616,36.8106288,8d105ba2236c0131c01a9dba63ba7a35fe5b514d,Skylux Lounge,-1.265456,36.80477,night_club,0.7031856245099267
 Westlands,Parklands,-1.2630616,36.8106288,d4eeb843dcce294352c217bfd68b332b867a705e,Culture Hub Live Entertainment,-1.2693408000000002,36.80988419999999,night_club,0.7026632668993492
 Westlands,Parklands,-1.2630616,36.8106288,a5b7344e8e479b0f003bc587d004f7b41851589f,Misty Ginger Bar and Lounge,-1.2630545,36.8043065,night_club,0.7023960450717859
 Embakasi West,Kariobangi South,-1.324728,36.887724,1577c6372a0ff9d8641d1fa38670a56704195113,The Hub Airport View Hotel,-1.3276426000000001,36.893328200000006,night_club,0.7018070222198755
 Westlands,Parklands,-1.2630616,36.8106288,b8a3b68531bd4ae52f7fe5b559257330403da5bf,Encore Nairobi,-1.2657656000000002,36.8049221,night_club,0.7016051355012766
 Starehe,Nairobi Central,-1.2832533000000002,36.8172449,f8d195bb4040c94a3461dd112cbf34f5dc802afd,Vintage Club,-1.2809083,36.8230739,night_club,0.6980502135967868
 Westlands,Parklands,-1.2630616,36.8106288,da134563f3005a9bdb637f7c87fa4746ac46a33d,MUZE,-1.2643258,36.8044794,night_club,0.6974810022850586
 Dagoretti South,Uthiru,-1.2631329,36.7188955,8f2653b04ca2b75599b1d4d26b7e79e8ce8b170e,Swahili Lounge,-1.2686241000000005,36.72191979999999,night_club,0.6965976279373369
 Westlands,Parklands,-1.2630616,36.8106288,76e950a50a1e6a5ecb2d369ac07250e3537dee51,Sting Lounge,-1.2654582,36.80483690000001,night_club,0.6964049294596476
 Lang'ata,South C,-1.3204427,36.83053678,a95db2306f046bbbc35a466ef0ce38caded42502,Zebra Lounge Ltd,-1.315901,36.83481,night_club,0.6928878916425387
 Starehe,Nairobi Central,-1.2832533000000002,36.8172449,58fc6729d49ccb19259ee9f14b0327be3fcd6756,Sky Lounge Club Nairobi,-1.2849891000000002,36.8232308,night_club,0.6924263282358745
 Starehe,Nairobi Central,-1.2832533000000002,36.8172449,5cb0c9d2eae9d50ef4ea68a584df07cc0472d740,Avenida lounge and restaurant,-1.2833955,36.8234749,night_club,0.6923161672486172
 Ruaraka,Lucky Summer,-1.2393083,36.898786,72863d9739efe118af6a8a389edd548d343fcb10,Awendo Inn,-1.2419278,36.90442,night_club,0.6903084218810931
 Dagoretti North,Kabiro,-1.2878118,36.7515014,bed2fa26b63d603d83e9f048c35cba0b6ce464a3,Amboseli Lavy,-1.2864046999999998,36.7574282,night_club,0.6767616578743011
 Starehe,Ngara,-1.277803,36.8300722,0808964c5d9dd61a33f9e11bb4407514135bc031,Jerry Westgate Klub,-1.2827289,36.8264976,night_club,0.676275314535921
 Starehe,Pangani,-1.2648989,36.8372708,23b4f66cbd4258dc2302d09143f53de10fef7b44,Ravers Lounge,-1.2607899999999999,36.841741,night_club,0.6746314143853888
 Starehe,Ngara,-1.277803,36.8300722,70ac557c7ee55f4be210499395a9b2a2605df5c5,Gateway Nightclub,-1.2828016000000002,36.82669050000001,night_club,0.6705936803849565
 Kibra,Woodley,-1.3056567,36.77600465,8aac290ea0449f2027a83be5801b174b47f2c4c8,S.S Lounge Shisha Place,-1.3005505,36.7791249,night_club,0.6649350478757473
 Embakasi Central,Kayole South,-1.2659842,36.9169455,52e4269a6c44509b8345f3cade7fe33505556d3a,Mach Annex Bar & V. I. P Lounge,-1.2656412000000001,36.922875899999994,night_club,0.6599571664206708
 Makadara,Maringo,-1.2920714,36.86572592,86d4ce34ecc160aee2fa74210272b4faf5be634f,Echo Club,-1.2973005,36.86850250000001,night_club,0.6578845813277103
 Starehe,Ngara,-1.277803,36.8300722,eecb900b98c8352503ce5c4324851105dcdfabc4,Good Hope Caterers,-1.283523,36.828583,night_club,0.6568143705803033
 Embakasi Central,Komarok,-1.26725495,36.90524096,e85f128e5cf5120992743fb339eb08d4976e774b,Blends Club & Lounge,-1.2716455,36.9091906,night_club,0.6561928910917287
 Roysambu,Githurai,-1.2062932,36.9206391,0e2a7dcb484e55976f3b855605c6b26a6b2f02da,club qc and lounge,-1.2073875,36.914855100000004,night_club,0.6540098413220291
 Embakasi Central,Kayole Central,-1.2659842,36.9169455,8a8692aa34d6c64ace5ce15d406424d2bf65f751,Mukunda Lounge,-1.2713115,36.91903560000001,night_club,0.6359085647186038
 Westlands,Parklands,-1.2630616,36.8106288,c5643e3725c7b14a8de2afa0b5de12fde4990e61,40Forty Lounge,-1.2652997,36.805361299999994,night_club,0.6358662338884935
 Kibra,Woodley,-1.3056567,36.77600465,a38fa7b56427a7b41fafa483ba4d702b0c23f244,The Scarlette Lounge,-1.300921,36.779121,night_club,0.6299281486732032
 Roysambu,Roysambu,-1.2188396,36.88673920000001,3f1945562380f6e84202946502953a3cde424558,K 04 Lounge,-1.2146831,36.88290629999999,night_club,0.6282352920657691
 Starehe,Nairobi Central,-1.2832533000000002,36.8172449,44667b6fdba113fcdbf53c3e1cc49e37f3cdbb88,Lavish Lounge,-1.2826203999999999,36.822798999999996,night_club,0.6210405232595756
 Dagoretti North,Kilimani,-1.2874422,36.7845225,4b25de34d6bad9c6c682ca6a1deec03365a97b67,Chrislys Lounge & Restaurant,-1.2928768,36.785789,night_club,0.6200949236472005
 Starehe,Nairobi South,-1.314183,36.8235852,e15d4ae21f6ac975c0be5628965aee332f154c1b,Tamasha Nrb West.,-1.319715,36.82288610000001,night_club,0.6196309487269986
 Starehe,Ngara,-1.277803,36.8300722,e21a36cb1ed6e5f230513346dc4c49783b68e9db,New Bamboo Night Club,-1.283319,36.8293463,night_club,0.6182484776015758
 Starehe,Ngara,-1.277803,36.8300722,a05d19ad4afaece349bd8ae25771e3495e3ec6d4,Young Club,-1.2822061000000002,36.826729799999995,night_club,0.6142450337798736
 Roysambu,Kahawa West,-1.1856847,36.90579279999999,88eacbdce825cc32303715f5aa6f8e3f12f24340,New Tavern Gaderns,-1.1813982,36.9092442,night_club,0.6115028506147299
 Dagoretti North,Kilimani,-1.2874422,36.7845225,0a055e143769d98f2603217898f131cb36c1bc27,Mugumo-ini Lounge,-1.2823461,36.782670700000004,night_club,0.6025161655635278
 Dagoretti North,Kileleshwa,-1.2723271,36.7996878,2089311ba83b4707d9816893b4e7669a76044d36,Shiraz Lounge,-1.2670367,36.798635499999996,night_club,0.5994077058924331
 Embakasi West,Umoja 2,-1.2818728,36.89933970000001,2aa6ace90f247bbc0cb1e3ddc770833b0c609760,Empire Lounge,-1.2784126,36.89522900000001,night_club,0.5970056929573596
 Kasarani,Clay City,-1.2208721000000002,36.9012224,fa2d25e5642e2437f96dc6d335b2bd5b1f360f60,Switch Lounge,-1.2185734,36.8963714,night_club,0.5964174992404898
 Starehe,Nairobi Central,-1.2832533000000002,36.8172449,b27af72b71691dca229977b54b5fbf66cf29d8bd,Eastern Africa Association,-1.2858895000000001,36.8219153,night_club,0.5958547254358345
 Westlands,Parklands,-1.2630616,36.8106288,6945aa8daea81f733843098eb2bcdd48349c070d,K1 Klub House,-1.2682405,36.81195659999999,night_club,0.5941110438687286
 Makadara,Maringo,-1.2920714,36.86572592,91f2d2ac6b9305b46c6f8fd52abd1ec707104dfd,Qwetu | Student Residences | Jogoo Road,-1.2950151,36.86128370000001,night_club,0.5920855314159719
 Starehe,Nairobi Central,-1.2832533000000002,36.8172449,e23036fb47d0c8e1b9bb0b9f4ea4675fc3bc1d67,Swols lounge,-1.2826923000000001,36.822487,night_club,0.5857100743842324
 Dagoretti North,Kilimani,-1.2874422,36.7845225,100ead3486408875435e37bff47ea4f110b5e351,金樽KTV,-1.2924468999999998,36.78599910000001,night_club,0.5798374324248268
 Starehe,Ngara,-1.277803,36.8300722,7538c8758aab957ea43e274f6f3aca6825d09931,Club Fillers,-1.2817623,36.826715,night_club,0.5767942146309921
 Westlands,Parklands,-1.2630616,36.8106288,3d24cdfcdacf5a3d476d6b21df1f870d9875e89e,Donuts world,-1.2639729,36.8055674,night_club,0.571357974543083
 Roysambu,Kahawa West,-1.1856847,36.90579279999999,e55dd04b0d519b2c472fa7d9bc3cd21ddb48b526,Aladdin bar and lounge,-1.1839986999999998,36.90094449999999,night_club,0.5703063626855953
 Starehe,Ngara,-1.277803,36.8300722,cad3c7a6c167f456b883df3a941ce9d4123d7dba,Black & White Bar,-1.279868,36.825378,night_club,0.5697669998940514
 Westlands,Parklands,-1.2630616,36.8106288,e50ab835258db6de4cf08747ad19c416ac98beda,G-skyye Lounge,-1.2681652,36.810891,night_club,0.5678857353280602
 Roysambu,Kahawa West,-1.1856847,36.90579279999999,23ee811d7c81953feb9b04427bfe919b973ef75e,I SEVEN LOUNGE,-1.1836872999999999,36.9011674,night_club,0.5597748946441528
 Dagoretti North,Kilimani,-1.2874422,36.7845225,7178107d205057bb55433c5c357afa8b84ad1292,Qutana Lounge,-1.2922584,36.78588269999999,night_club,0.5561252833325876
 Roysambu,Roysambu,-1.2188396,36.88673920000001,7f7f9da771b0925d1741c7b07cceb6263bb77066,The Bar Chef Mojitos Cocktail Lounge Roysambu,-1.2170541000000001,36.89138809999999,night_club,0.5532927885391675
 Starehe,Ngara,-1.277803,36.8300722,7231993ed5922712e5d4974b06e3d3fff62666dd,Club Fameland,-1.2814535,36.8267175,night_club,0.5508774599135219
 Makadara,Maringo,-1.2920714,36.86572592,bce45a3c907a5cc65952fea182af97e159ae95dd,Sigma Club,-1.2942203,36.86127129999999,night_club,0.5494943499345282
 Starehe,Ngara,-1.277803,36.8300722,3faec2c8a6e8cb4584e08c7f69326c8a64893f88,TAHITI LOUNGE,-1.2827451,36.8299836,night_club,0.5492796269206676
 Starehe,Nairobi Central,-1.2832533000000002,36.8172449,1452966d45bd2ed8dcdd48b9073da67723e7f8ab,Club Veranda,-1.2837707,36.8221066,night_club,0.5431730341100874
 Starehe,Ngara,-1.277803,36.8300722,5d7ee7afd95c3a7e2cc59da32e2e322db143b3ff,TAHITI LOUNGE,-1.2826832000000001,36.8302582,night_club,0.5427063253084632
 Roysambu,Zimmerman,-1.2103969,36.89522120000001,c8f9ebc97ab86588c684c1bc3ef486b4fa91939f,Dmoreyz,-1.205624,36.8941984,night_club,0.5424252226296343
 Embakasi West,Umoja 1,-1.2778669,36.8881172,476b3b5c65b89ff5d6ea8ec2cc20e73e8d9c7b8a,Check Point Bar & Grill,-1.2827361000000002,36.88835020000001,night_club,0.5417092324535756
 Mathare,Kiamaiko,-1.25377765,36.87573249,2e6b0498fea50ae5399e6a07f03433f04baad782,Game Changers Lounge and Sports Club- Kariobangi North,-1.2536323,36.88054650000001,night_club,0.5350731893908774
 Mathare,Kiamaiko,-1.25377765,36.87573249,8dee41eb2c67acc35b0d28ebba5ffef5dd9366cb,Kariobangi North Center,-1.2537,36.88053170000001,night_club,0.5332549000937277
 Kasarani,Kasarani,-1.2208721000000002,36.9012224,355913658544c31f871adc11cdd33980260b2607,K.K Club,-1.2176312,36.8976849,night_club,0.533072545549466
 Roysambu,Zimmerman,-1.2103969,36.89522120000001,d87d12b8d627a2f348aa6ca3ec7d8e7df7a29c7e,The ATTIC Club,-1.2069356000000002,36.891912100000006,night_club,0.5320777695383739
 Starehe,Nairobi Central,-1.2832533000000002,36.8172449,1eac4c50ef3470b7efeb5f9fa5e639cf197d0a50,The Veranda,-1.2838266999999999,36.82196939999999,night_club,0.5287324018148604
 Roysambu,Roysambu,-1.2188396,36.88673920000001,1b92aa7a9623fa0228e490e2e7394d1b5534c4bd,Mymaz Lounge,-1.216828,36.891001,night_club,0.5236017868490705
 Embakasi West,Umoja 1,-1.2778669,36.8881172,2d2152e7e9cc2e9d4ca965cb829a98358fbccd79,Egesa Villa,-1.2825627,36.888213,night_club,0.5219298358154709
 Starehe,Nairobi Central,-1.2832533000000002,36.8172449,dde71a50dbc038403b8c122d23f7e7750ff33de0,The Spree,-1.2821722,36.821807299999996,night_club,0.520912999752993
 Roysambu,Githurai,-1.2062932,36.9206391,1cb8b2d5bdbcf7d73a695dac399f489ccfe47457,Capital Lounge,-1.2061565,36.9160114,night_club,0.5143640954223397
 Starehe,Nairobi Central,-1.2832533000000002,36.8172449,5bfaac2b35a072777d0fe406278e55cf78eca961,Bobos Bistro,-1.2835125,36.82185870000001,night_club,0.5133890828592103
 Makadara,Harambee,-1.290941,36.89721585,b16f0b7fe949ab8103cf3bdfe2c91ab9085f1f25,Club Bubbles,-1.2890825000000001,36.901348799999994,night_club,0.5034671692769715
 Makadara,Maringo,-1.2920714,36.86572592,991c39270b1b311b5cf499dc4986b2306f565961,Club Roddy's Inn,-1.2927776000000002,36.861298100000006,night_club,0.4981372622155086
 Westlands,Parklands,-1.2630616,36.8106288,d0c46110d4e88c4b67ad3e4bd2045f5b6aa26991,Marquee Sky Bar and Lounge,-1.264997,36.8065857,night_club,0.4980150533404354
 Embakasi West,Umoja 1,-1.2778669,36.8881172,3b2f9d2a684b9d1bbeded536943f82a3a58ef9e2,Taps lounge umoja 1,-1.2777551,36.8925536,night_club,0.4930294131626062
 Makadara,Harambee,-1.290941,36.89721585,22eb459f4a5aea6abb0a570361c40c08d3f4dc83,Cresta BBQ Lounge,-1.288692,36.901025,night_club,0.4914730096615794
 Starehe,Nairobi Central,-1.2832533000000002,36.8172449,6ee9eba12666f837fe46be38659214f4e6351c18,Fahrenheit Lounge,-1.2829791000000001,36.8216546,night_club,0.49085220670067603
 Kasarani,Clay City,-1.2208721000000002,36.9012224,1a2770275de5819cc699af229f404f3fb209bc03,Elegance Lounge,-1.2174555,36.898470399999994,night_club,0.4874737274181376
 Lang'ata,Nairobi West,-1.3087022,36.8230975,f759ef2f19e55befc646a6ad00e79df04af035bc,Club Kikwetu,-1.3075646,36.81893959999999,night_club,0.4789125745297267
 Starehe,Nairobi Central,-1.2832533000000002,36.8172449,a1c8a715b0572abb21482ac88f766ca52800ba3e,The Peach Restaurant And Coffee Lounge,-1.2858564,36.820511100000004,night_club,0.4640565408129674
 Embakasi West,Umoja 2,-1.2818728,36.89933970000001,71fb87b488537f08dc68d097b145fe21960807d8,Rhumbar Lounge,-1.2822875,36.9034369,night_club,0.4575146554926684
 Lang'ata,Nyayo Highrise,-1.31600475,36.80173345,49b4af2dbbc1d7fe3d323548d3929a515385142c,Nairobi Yatch Club,-1.3200903,36.8014118,night_club,0.4554113069289308
 Starehe,Nairobi Central,-1.2832533000000002,36.8172449,e3ad341a7a99fa513439a39499904fc2840ba766,Casino,-1.2841717,36.8211991,night_club,0.450999717605449
 Dagoretti North,Kilimani,-1.2874422,36.7845225,b99a61ac8ca3f5d901fbf3f35e5acee3727f2db0,B-CLUB,-1.2910864,36.78283370000001,night_club,0.4463135853337785
 Embakasi West,Umoja 2,-1.2818728,36.89933970000001,206ed43bf877ffcc8d913f9bc421b21d1e7231bf,Bee Centre,-1.284087,36.902654999999996,night_club,0.4429473441932907
 Roysambu,Githurai,-1.2062932,36.9206391,18dc6a992cc3ed131ef58a638edf05d165d13dc8,Market Club,-1.2049588,36.9169653,night_club,0.4342625930133272
 Roysambu,Zimmerman,-1.2103969,36.89522120000001,806a7a6bc6592f2198b20d99b84ea7e9646de034,CHEERS TAVERN,-1.2066309,36.894192,night_club,0.4338370179642974
 Dagoretti North,Kilimani,-1.2874422,36.7845225,98122efd634a1d76d45d9851d6cc7091a71f9144,KIZA Restaurant & Lounge Nairobi,-1.2908581000000001,36.7827921,night_club,0.4254966139072892
 Starehe,Ngara,-1.277803,36.8300722,b9815b862eba9a654b6918755fd6720f86ac20f3,Safari Club,-1.2742225,36.8313649,night_club,0.4230091678017525
 Kasarani,Clay City,-1.2208721000000002,36.9012224,5b5e76f574b3c4538ae81e52900db4db735336c7,Bagatti Lounge,-1.2179714,36.8987866,night_club,0.4208766673901541
 Makadara,Harambee,-1.290941,36.89721585,56f0cdcd6bcf9d57f075b1585826dcf73326b5a5,Benelix Lounge - Greenspan Mall,-1.2894288,36.9006356,night_club,0.4154282729776077
 Westlands,Mountain View,-1.27113135,36.74300262,11c0e761753412d5c43ffb4f4bca3b86f70eab29,Melpri lounge kangemi,-1.2711928,36.7394386,night_club,0.39601353813822976
 Kasarani,Mwiki,-1.2322833999999998,36.9275102,2f1c8e9f65bfd08603ec7483a7da78464814340e,Roby's Club House,-1.2312665,36.924129799999996,night_club,0.3921930858585376
 Starehe,Ngara,-1.277803,36.8300722,57888a36ffa13a977e0566d6e97c8ae4320b5173,Shadows Club and Restaurant,-1.2763955,36.8268934,night_club,0.3862426040025527
 Starehe,Nairobi Central,-1.2832533000000002,36.8172449,e21b25b1c6244b4436f0ffc7f6746b7fd1610e67,Party Time Kenya,-1.286374,36.818632,night_club,0.37948612150330735
 Westlands,Parklands,-1.2630616,36.8106288,61eb1abef33b2009d7442374fbd7b7a054a6ba66,Igition,-1.2604841999999998,36.808404700000004,night_club,0.3782698370022303
 Kibra,Sarangombe,-1.31226715,36.77745932,a3d14b047de4a7f1561ed660fc3745c5ead6b617,Club Grace Joint,-1.310029,36.77997500000001,night_club,0.3741245704278293
 Kibra,Makina,-1.30854575,36.78652379,c8d5f659c9aa342624c725bf07bef6cfb73e3036,Club fluxx,-1.3114845,36.787947499999994,night_club,0.362856121758222
 Starehe,Pangani,-1.2648989,36.8372708,9ecd4c7de8787ba2de26404be1a2c65a163a0579,Flowers Bar,-1.2675827,36.8389191,night_club,0.34997087326088683
 Starehe,Landimawe,-1.2694542,36.83557186,5eaf540e1c26af4b4acd423f41be9e2f8f7f7899,Up - Rumys The Club,-1.2707833999999998,36.8327302,night_club,0.3485475401744391
 Starehe,Landimawe,-1.2694542,36.83557186,1d982fb0168c003e6aa9295d63d6d9dda4d37f14,Jack Pot Club,-1.2705826,36.8327315,night_club,0.3395589316016607
 Starehe,Landimawe,-1.2694542,36.83557186,782938a812b8050670f6b16fcc6939488d10c157,Supamambo,-1.2705024999999999,36.832815000000004,night_club,0.3276867728211585
 Dagoretti North,Kilimani,-1.2874422,36.7845225,8b02d8afbe4008e1c646cb2284cb333b2b8d2cb5,stars 星空KTV,-1.2899288999999998,36.7831,night_club,0.31833339325008964
 Roysambu,Zimmerman,-1.2103969,36.89522120000001,b0501402a0a9d8940a216962fe748ae84487fd9b,Brothers 44 Lounge,-1.2125542,36.89341849999999,night_club,0.3123825158462422
 Starehe,Nairobi Central,-1.2832533000000002,36.8172449,bdbff1541c47bccf5774f501407c6eb088c3c286,Executive Lounge $ Restaurant,-1.2822732,36.81464909999999,night_club,0.3082674893408631
 Embakasi West,Umoja 2,-1.2818728,36.89933970000001,59902a9087a69ac432d5f3790609bbd878dbae58,Empire Lounge,-1.2799339,36.89736269999999,night_club,0.3076763039469743
 Kibra,Makina,-1.30854575,36.78652379,d5ad794cd65f2479ed4e01416875369961d84421,Camp Gogo Kibra,-1.311002,36.7871454,night_club,0.2815516798359229
 Starehe,Nairobi Central,-1.2832533000000002,36.8172449,ba93d11735068430e034b139a329a3c5072d6ee1,NEW FLORIDA NIGHT CLUB,-1.2851625,36.8186655,night_club,0.2644248946881436
 Mathare,Mlango Kubwa,-1.2658072,36.8456235,b26df600b21190ec844fabd3b270cb3829eb9a29,Cassanova Inn,-1.2675086000000002,36.8441427,night_club,0.2506224640049597
 Starehe,Nairobi Central,-1.2832533000000002,36.8172449,ae7402218634e1ec2ac71c85bc9c5632cbe0a854,Number 7,-1.281044,36.81763840000001,night_club,0.24937057857930364
 Dagoretti North,Kilimani,-1.2874422,36.7845225,de7fe61f3c27bb5bcd04fb3d9604ae4aa307cf33,Thabiso Lounge,-1.2875518,36.78230300000001,night_club,0.2468805240803737
 Embakasi West,Umoja 1,-1.2778669,36.8881172,3e76617599d61aa7506c9d9c8a8fe081afe54cd3,Big D Sports Club,-1.2761049,36.8870865,night_club,0.2268275317788696
 Embakasi West,Umoja 1,-1.2778669,36.8881172,676e986f045eef89437cbaa60af90ab154961f8b,Charina Club & Restaurant,-1.2762296,36.8875318,night_club,0.19321951549904545
 Kasarani,Mwiki,-1.2322833999999998,36.9275102,79a2ab8a471b154220f187a788e0b5f239b42838,Tropical Fantasy Lounge,-1.2330886,36.9289524,night_club,0.1835188532781297
 Dagoretti South,Uthiru,-1.2631329,36.7188955,1bd2f84de5edc8beae4945422227e9432f0dba5c,Club Sting,-1.2640403,36.72020880000001,night_club,0.17735835894502805
 Embakasi West,Umoja 1,-1.2778669,36.8881172,896980609c6fd700515af074fc4168b8d31c4097,Hotel Connection Ltd,-1.2764031999999998,36.88780360000001,night_club,0.16634333770209062
 Embakasi Central,Komarok,-1.26725495,36.90524096,929926dea68944c49088f60f9f73bddd1d28ce63,Club 159,-1.2661272,36.904343299999994,night_club,0.16015977142067975
 Dagoretti South,Uthiru,-1.2631329,36.7188955,30449fc5d272ab844a633304edf4d195f10ddd5f,Club Hush Pub,-1.2637882,36.72008710000001,night_club,0.15109085917625992
 Starehe,Ngara,-1.277803,36.8300722,638eddb60a5818efbd26b859eee89fc1ae8a890a,Desai Annex Lounge,-1.2766358,36.8293878,night_club,0.15034888970801422
 Starehe,Nairobi Central,-1.2832533000000002,36.8172449,b93a4496674a62ebe64170afe322c5df635e6908,Metro Lounge,-1.2827540000000002,36.818477,night_club,0.1477006945869159
 Starehe,Nairobi Central,-1.2832533000000002,36.8172449,ce1fb0b5aab21583d4c98f0fef762fe2e91f8b14,"Dolce, The Club.",-1.2836218000000001,36.8183549,night_club,0.12993914797152414
 Roysambu,Zimmerman,-1.2103969,36.89522120000001,64bdee1a4d7c73e9e9c4f79cead28451fc23f3d6,3cups lounge,-1.2092435,36.8950375,night_club,0.12978643568081494
 Embakasi West,Umoja 1,-1.2778669,36.8881172,d69170bb9037328962563d14878a713ac1ecd775,Soulfa Lounge Umoja,-1.2789638,36.8884964,night_club,0.1289678960364578
 Roysambu,Zimmerman,-1.2103969,36.89522120000001,ecfa2becdd53c2028ba8daa956802d7cdcbda0bc,Club Marinah,-1.2098773,36.8962341,night_club,0.12648229774641964
 Starehe,Nairobi Central,-1.2832533000000002,36.8172449,319c3670bfa49468c6dd713ba45d92aa6ccd8d3d,Dolce VIP Lounge,-1.2833396000000001,36.8183789,night_club,0.12634875001272464
 Starehe,Ngara,-1.277803,36.8300722,21f3e177019a53a77f5725a37c8935c16aee1625,Club Swings,-1.2773391,36.8290848,night_club,0.12120675000649725
 Lang'ata,Nairobi West,-1.3087022,36.8230975,79d7f3b2f6e1d7a6168ec77d179fbed21db50022,Cadillac Club,-1.308288,36.8220989,night_club,0.120109932247173
 Lang'ata,Nairobi West,-1.3087022,36.8230975,67c370ba894f392eb7c2828b555406f1f79c185e,A1 Lounge Nairobi West,-1.308266,36.8221456,night_club,0.11633220773174564
 Embakasi Central,Kayole South,-1.2659842,36.9169455,ef2d0f842ddcd11aa1805aea68bfe93338dcfe19,INFINITY LOUNGE SPORTS BAR,-1.2663756000000002,36.9160061,night_club,0.1130659351129222
 Starehe,Nairobi Central,-1.2832533000000002,36.8172449,4244e31cf098925c104ce2d8b7e8dbaf0beb84be,Rue 104 Lounge & Restaurant (Former Campia Lounge),-1.283396,36.81632000000001,night_club,0.10397025091090016
 Dagoretti North,Kilimani,-1.2874422,36.7845225,a93076b1314ac91ba16554dce6138d3a481eb3e8,Thabiso Party Lounge,-1.2868087,36.7847844,night_club,0.0761737526158245
 Starehe,Nairobi Central,-1.2832533000000002,36.8172449,40b042d64fe0e7412524ce41695fda111aef0b98,Club Metro Nairobi,-1.2834769,36.81686279999999,night_club,0.04918766234784348
