constituency,ward,clat,clon,place_id,place_name,place_lat,place_long,place_type,distance_km
 Dagoretti North,Gatina,-1.1655719999999998,36.85526373,55c5b80a5d0265dcca4803539020e0cf11a361a4,Karunga Primary School,-1.1569688,36.8105591,primary_school,5.057960749982779
 Lang'ata,Karen,-1.3283746,36.7049676,c573ed9b071661ef532284000fadbf31b4ddbf06,Op,-1.3465638,36.66387329999999,gas_station,4.9928062540103335
 Lang'ata,Karen,-1.3283746,36.7049676,19038c8c703aae9b02ab6f95c5d6ba1834fdbf51,morgars,-1.3465638,36.66387329999999,gym,4.9928062540103335
 Lang'ata,Karen,-1.3283746,36.7049676,d27c1226db4403d100d863f031949fda88d18bca,JKUAT Karen Library,-1.3562557,36.74008500000001,library,4.981964211053842
 Lang'ata,Karen,-1.3283746,36.7049676,d96b626429fa29367789cd9badc46be6a4a5481f,Betty kaveni/Natasha kaveni,-1.3628652,36.733459,gym,4.9708011947904325
 Lang'ata,Karen,-1.3283746,36.7049676,deecd7b97d4f40f26af5fb8b4312d97da859dcb6,Benum Education Center Primary School,-1.3045915,36.74281020000001,primary_school,4.965865750328497
 Embakasi East,Mihango,-1.2692818000000001,36.95299050000001,49dd82730e679b250c01d69420f88286b1ec718a,MUNGAH ENT...,-1.2823141000000002,36.91051629999999,bank,4.936012141461904
 Lang'ata,Karen,-1.3283746,36.7049676,81942eb32da0cbc206459cd6e8684ffa2a514235,Gataka,-1.3701111,36.72003889999999,gas_station,4.930942688280238
 Dagoretti South,Mutuini,-1.3,36.7,6cb54556e2faa5feffc5c847de2fe295664fa950,Edds Place,-1.277743,36.66167069999999,gym,4.924442633779142
 Lang'ata,Karen,-1.3283746,36.7049676,08e6a5e8b15e26cf1c314ebcdbdee8e110c5a0c8,Chonjo Shopping Centre,-1.3190608,36.661674,shopping_mall,4.9198219081548125
 Westlands,Kitisuru,-1.2395542,36.7839651,88b072e9c7537f479dca9adeadf79799d9f5963c,Moni-Junior Primary School,-1.2113952,36.7498013,primary_school,4.9191670340314255
 Lang'ata,Mugumoini,-1.1991235,36.846741200000004,0e684f30b81990ad415cbe4e09d754df4dbba400,Iraqi Embassy - Kenya,-1.227337,36.81266220000001,embassy,4.915775044904704
 Dagoretti South,Mutuini,-1.3,36.7,0e7e7cbe6bb4b4eaa4eaf7e0b6a8f351e1cc30fb,The Cloisters,-1.2785318,36.66157949999999,gym,4.889847345408669
 Dagoretti North,Gatina,-1.1655719999999998,36.85526373,d51fca317b5d472e1a122b2b8ac65d8c4419f81b,Maracha's estate Tinganga,-1.1388591,36.820356200000006,shopping_mall,4.88397330485884
 Lang'ata,Karen,-1.3283746,36.7049676,440f93bd920c957faf07bd283e871701d4f97711,Bosipa Gardens,-1.3472171999999998,36.7445694,shopping_mall,4.872416520708131
 Lang'ata,Mugumoini,-1.1991235,36.846741200000004,b16b8f5d929a4f9cfea3a655dde035958fd4e49d,Republic of Mozambique High Commission in Nairobi,-1.2137913,36.8054472,embassy,4.868729507727895
 Lang'ata,Mugumoini,-1.1991235,36.846741200000004,64826ca32c5f20d4ea7526630f53e6d1c379fa9b,Mozambique High Commission,-1.2137913,36.8054472,embassy,4.868729507727895
 Dagoretti South,Uthiru,-1.2631329,36.7188955,db7c5794f31f651a3672f0b4797cbe8913e75e62,Wazito Camp Gym,-1.219747,36.713549,gym,4.857715795147989
 Westlands,Kitisuru,-1.2395542,36.7839651,ebb19055d01ad6b589c70b6bcda94269830aacba,Valley View Academy,-1.1959017,36.78186470000001,primary_school,4.8564985898514506
 Lang'ata,Karen,-1.3283746,36.7049676,3202023fbe9edafbd47d4e59c968c0be8a26e238,Liberty Centre,-1.3324646999999998,36.74837309999999,shopping_mall,4.843513604370734
 Lang'ata,Karen,-1.3283746,36.7049676,acfa01c17a348b05556af7ea7da44d47abe34ec4,Bumblebee Tennis Academy,-1.3472537,36.7441875,gym,4.835899505938813
 Dagoretti South,Uthiru,-1.2631329,36.7188955,c0cba06f034b3aaac6ad56c2a92efff572143756,Body Poa Gym,-1.2199669,36.7137739,gym,4.830456738475368
 Dagoretti South,Uthiru,-1.2631329,36.7188955,394275b054cffa074199d9bdb0b97e22e5c73741,Fit n Fine Gym,-1.2457457,36.6792789,gym,4.806771340327089
 Westlands,Kitisuru,-1.2395542,36.7839651,091169c1392d4a13fb52b8cdb035004f0fe4c0c2,Sifa Primary School,-1.2052382,36.7576374,primary_school,4.8059783009867925
 Dagoretti South,Uthiru,-1.2631329,36.7188955,64de3e56a90d787edb318220c087e7da9c16b8ed,Excuisite Styles Gym & Aerobics,-1.220328,36.712775,gym,4.8050560623526986
 Dagoretti South,Uthiru,-1.2631329,36.7188955,efd56a55d573ed0ceec12d4b0d856ccb914ee075,Club Hikers,-1.2203517,36.7127808,night_club,4.802357720676753
 Dagoretti South,Uthiru,-1.2631329,36.7188955,86b98a87814b1f96b8b5a1246b081ac1d143aa46,Podleo Club,-1.2205307,36.71337990000001,night_club,4.773667657439368
 Dagoretti South,Mutuini,-1.3,36.7,ecef080b05c34b61be1f5373f34e1926173acbec,Absa | Branch | Kikuyu,-1.268358,36.670972,atm,4.771161251039491
 Lang'ata,Karen,-1.3283746,36.7049676,42bb033e00d1f7eb40a25c446e7742f542b2f7d9,Dosabi Blessed Centre Primary School,-1.2931527,36.7295009,primary_school,4.7695205266178045
 Dagoretti South,Uthiru,-1.2631329,36.7188955,84121775f1c6acb5fa73cea5a2e1dae9c97c7f0f,Kariango kinoo,-1.2471951,36.6790986,gym,4.762909425540028
 Roysambu,Kahawa,-1.1869631,36.912022,85ac10e7fe590561326f570284a869dc9ee1c458,Ruiru Peak Academy Primary School,-1.1547536,36.9397353,primary_school,4.721389713016766
 Embakasi Central,Spring Valley,-1.2477029,36.78923560000001,36f9fec138c405a27b94b2f01e4290fffa4c6715,KCB ATM,-1.2802794,36.8162615,atm,4.703195257594986
 Embakasi Central,Spring Valley,-1.2477029,36.78923560000001,99335db50d366bb72ca3f1ba857db9e44d52755b,Co-op Bank ATM - Catholic University Branch,-1.281546,36.814407,atm,4.686590380901278
 Lang'ata,Karen,-1.3283746,36.7049676,17fd98e3b777a553c65606824636be4c5687b475,Nkaimurunya Primary School,-1.3683416000000002,36.7183411,primary_school,4.683251266173465
 Dagoretti South,Uthiru,-1.2631329,36.7188955,5a396abf216310ae93c069d27c1c47dcdd6943c0,Ukristo Na Ufanisi Wa Anglicana Sacco Limited,-1.2211557,36.7154433,bank,4.680461825221253
 Embakasi South,Imara Daima,-1.3285901000000002,36.8743999,294a4faab01af3d49ad53f2c9f16efb379469487,Kenya Commercial Bank,-1.3165591,36.83421849999999,atm,4.659879919652613
 Dagoretti North,Gatina,-1.1655719999999998,36.85526373,091f78dd3373c9e939c382272345bd822fdaf839,Kamiti Anmer Primary School,-1.134449,36.88312020000001,primary_school,4.641135351770578
 Lang'ata,Karen,-1.3283746,36.7049676,e254a2f8ff2bfa2675708650154d2f69e8ef8227,St. Anne Kindergarten and Primary School,-1.3590927,36.7331368,primary_school,4.630957096064837
 Lang'ata,Karen,-1.3283746,36.7049676,2987e8f4787c6c23e97ed419be68e4569b256635,Juanco Petrol Station,-1.343235,36.666038,gas_station,4.629426914408059
 Westlands,Kitisuru,-1.2395542,36.7839651,d4e68f90d6f7f68403785ffc332b712121864a7c,99 DEGREES CLUB,-1.2017169,36.7665799,night_club,4.627089174733173
 Lang'ata,Karen,-1.3283746,36.7049676,bd4abeb46fe7de549461ca20c9c3bfc085519812,Juanco Petrol Station,-1.3429861,36.66607609999999,gas_station,4.615670713626714
 Dagoretti North,Gatina,-1.1655719999999998,36.85526373,c98de3606d03043db6d67f42409b8806717af8c1,G.G Town,-1.2063692,36.8477336,shopping_mall,4.610138997269416
 Lang'ata,Karen,-1.3283746,36.7049676,67bb85a74ba14d89b674e588f5768305e2c7ce6c,The Meat Shop,-1.3435492,36.6663903,shopping_mall,4.605552932361876
 Lang'ata,Karen,-1.3283746,36.7049676,5269bf0746c8ad102f027e2f4b688f5b59b840b2,Lisa Crowe Community Primary School,-1.2932631,36.7265532,primary_school,4.579799763997511
 Lang'ata,Karen,-1.3283746,36.7049676,bf53445c1d9594a924ade1e256d360c8f42b88de,Kirigu Primary School,-1.2876485,36.6989232,primary_school,4.575239622154268
 Lang'ata,Mugumoini,-1.1991235,36.846741200000004,f4fa9004b4511f07c1450365788323f87a315c9e,Njathaini primary School,-1.1994463,36.8877467,primary_school,4.555883882438786
 Lang'ata,Karen,-1.3283746,36.7049676,ef3fd7f9cc42a7a1918556afc211f62e0ef6d8ae,AliGator Gym,-1.3419913,36.6663387,gym,4.550429224208583
 Kasarani,Ruai,-1.2677339,36.9911112,a3a6479d325eb0ba9a991a5ccf71a99ddbda11ef,Oil Libya,-1.2783373,37.0306451,gas_station,4.54743447959329
 Westlands,Kitisuru,-1.2395542,36.7839651,22b1725d870e9e9ee01f154acc57d06e2371eef8,Fortune House School,-1.2043023000000002,36.7632164,primary_school,4.545287765517521
 Lang'ata,Karen,-1.3283746,36.7049676,03cb47ea044f936db6cad302b7a77e296b92c5d0,Vet Filling Station,-1.3420697,36.6667722,gas_station,4.507972351629104
 Westlands,Kitisuru,-1.2395542,36.7839651,183ae8895b155e21823d057afb95eb89d52bebec,Mitcga Primary School,-1.2160236,36.75096809999999,primary_school,4.502955279371689
 Dagoretti North,Gatina,-1.1655719999999998,36.85526373,149eb38f263dd43116756686f94687e8f923403f,Nyihia Whai shopping centre,-1.1437157,36.8211413,shopping_mall,4.502371173663389
 Lang'ata,Karen,-1.3283746,36.7049676,8c16fed7599fbbaeb8c675d521bde44c265b2bfb,Kings Pavillion Primary School,-1.2952716,36.7281955,primary_school,4.49344279859674
 Dagoretti South,Uthiru,-1.2631329,36.7188955,a796e62130d9fc3fb7ba7bef436774f069f3f156,Total lower kabete petrol station,-1.2249088,36.7059449,gas_station,4.484722122983074
 Dagoretti South,Uthiru,-1.2631329,36.7188955,e160b43ec3f3792428811670286712d5b4667099,Total Lower Kabete Service Station,-1.224796,36.70633300000001,gas_station,4.4829858563106395
 Lang'ata,Karen,-1.3283746,36.7049676,ebd8765d7974c1a09a472aa5dd30c6b53883f295,National oil-ngong,-1.3413889,36.6667907,gas_station,4.4810528104909935
 Lang'ata,Karen,-1.3283746,36.7049676,3adf97dff366fea3e04ba37a6694353aa113c45f,Gagos kuku kienyeji,-1.3408808,36.6666401,shopping_mall,4.479052560901894
 Lang'ata,Karen,-1.3283746,36.7049676,88edff7255bb1f99566861cb3897d07259ab55dd,Kleanland Carwash,-1.3416169,36.66689660000001,shopping_mall,4.478180505825291
 Lang'ata,Karen,-1.3283746,36.7049676,68634f0c270b417dbb86d2ff89672bdbdf453197,Wa KOMUH'S SHOP,-1.3431839,36.6674941,shopping_mall,4.476584460823361
 Dagoretti South,Mutuini,-1.3,36.7,9ba25f98e99b6b6c9f5a8adedc19042201e4f4d7,Kikuyu thogoto primary school,-1.2685115,36.6749891,primary_school,4.468219775944769
 Lang'ata,Karen,-1.3283746,36.7049676,e46d8a36751baf9355f7b0636c81a3075b870934,Post Bank - Ronald Ngala Branch,-1.299365,36.73278799999999,bank,4.465964174453415
 Lang'ata,Karen,-1.3283746,36.7049676,0d64d61ad23a508d503b62400418ef8e349d809c,Kuwinda Shopping centre,-1.3350657,36.7444255,shopping_mall,4.446193056766703
 Lang'ata,Karen,-1.3283746,36.7049676,a1eb9f36d0e0fed997861a8a5ba180d9150fcefc,Kenvic Primary School,-1.3431293,36.6678273,primary_school,4.439936383117851
 Westlands,Kitisuru,-1.2395542,36.7839651,e104419156fff3c3ce8d3ffca7c35d2856683a05,Samnel Primary School,-1.2235616000000002,36.7473619,primary_school,4.437968326724087
 Dagoretti South,Uthiru,-1.2631329,36.7188955,bafbc48f852c4b1b9b9f9de1daef3743db2d3441,Mary wines and spirits,-1.2234587,36.71448,night_club,4.436007643223932
 Dagoretti North,Gatina,-1.1655719999999998,36.85526373,359a6143b576956ffbe4860950d619e134b11038,N.C.C Kamiti Primary School,-1.1740758,36.8939653,primary_school,4.402436810403438
 Kasarani,Ruai,-1.2677339,36.9911112,278010d686909eea2b29edae4c4de3c9cf573d6e,Solidarity Day & Boarding Primary School,-1.2773391,37.0294297,primary_school,4.388869629965468
 Lang'ata,Karen,-1.3283746,36.7049676,81f6006c6720d3517781fb9eafb3dbe1072fd103,Olepolos Shopping Centre,-1.3487047,36.6714138,shopping_mall,4.358819492001228
 Dagoretti South,Mutuini,-1.3,36.7,bf84762bbee326985f07e4ffa1e60bd4a51c5e75,Baraniki Shopping Centre,-1.2646841999999998,36.6830702,shopping_mall,4.35190731391159
 Embakasi East,Embakasi,-1.3247280000000001,36.887724,5d87a771366dee7bc2b0d4753b1291ce22885030,Turkish Airlines Lounge,-1.3305767,36.92638369999999,night_club,4.34380854417647
 Westlands,Kitisuru,-1.2395542,36.7839651,815db6af0027c4bc69a435f9fe2f74fa00d0a54a,Yooh Lounge,-1.2005246,36.78525339999999,night_club,4.339529788683589
 Embakasi East,Mihango,-1.2692818000000001,36.95299050000001,d39372e558cbf0bd82e3b5596233a336664f4ee1,Equity Agent,-1.2798383,36.9153902,bank,4.338895318481497
 Dagoretti South,Mutuini,-1.3,36.7,6e57d69e4aa01b024426bbc0331e85c67256712c,Thogoto Primary School,-1.2684691,36.6771406,primary_school,4.3274455311990145
 Roysambu,Kahawa,-1.1869631,36.912022,e2a687f5b042e9087e19e2d02530864c1eb88097,Moonstar Filling Point,-1.1519429,36.9288269,gas_station,4.3163223235038
 Lang'ata,Karen,-1.3283746,36.7049676,a9791811391baad917bc3cd5b6d40106177e60f9,Church of the Rock Academy Primary School,-1.3607091,36.7262584,primary_school,4.30180293940113
 Dagoretti South,Uthiru,-1.2631329,36.7188955,30d5923f37ff743f9183b59cb27380df0b694615,WOLOWORLD OF FITNESS GYM,-1.2489252,36.6830636,gym,4.28252438781205
 Lang'ata,Karen,-1.3283746,36.7049676,91ff3fef7c9c18d64ba920803263730aa24c5d68,Karen C Primary School,-1.3382899,36.74220529999999,primary_school,4.2811426717231384
 Lang'ata,Mugumoini,-1.1991235,36.846741200000004,377b85334fa03cb4a2fb5403146d8afde49e258b,24/7 Jiweze Improved Productivity Programme,-1.2374087,36.84389,bank,4.266223515528347
 Embakasi East,Mihango,-1.2692818000000001,36.95299050000001,7686b98a4f59062e5224e7b0b765ef493ad718e1,Blesings Primary School,-1.2751416000000002,36.91510450000001,primary_school,4.259120881196374
 Dagoretti South,Mutuini,-1.3,36.7,dd8dfae0ce8ae8e63bd9a225997cae7e43f68067,Junction Business Centre,-1.2680198,36.6789789,shopping_mall,4.252475029103722
 Westlands,Karura,-1.2369881,36.83255910000001,f068e764d42b600a2451aec87ac3f3b73c087bfb,PesaPoint POS Projection Solutions,-1.272018,36.817229,bank,4.2489820329463965
 Lang'ata,Mugumoini,-1.1991235,36.846741200000004,762e70aecb72a7158db4807eb8327db0625d8081,Bangladesh High Commission,-1.195898,36.8086521,embassy,4.24688393991617
 Embakasi East,Mihango,-1.2692818000000001,36.95299050000001,89c81c8baef36e4cdfea1c9fe99765610673eefb,Silverline Primary School,-1.2754513,36.9152829,primary_school,4.244957152965171
 Dagoretti South,Mutuini,-1.3,36.7,e995c3678106d6e0bd00ed479e0656effe56d7b2,Thogoto Shops,-1.2748191999999998,36.6713348,shopping_mall,4.239319787484138
 Lang'ata,Karen,-1.3283746,36.7049676,e76ef1e66f2022df1592aa53b3153a03d9406a77,Hass Petrol Station Karen,-1.3394932,36.7414467,gas_station,4.236807024779771
 Dagoretti North,Kabiro,-1.2878118,36.751501399999995,0f01e7a5ed812db6f06541f706ec08400fbbdb91,Embassy of the Federal Republic of Somalia,-1.2843704,36.7894403,embassy,4.232216063232171
 Embakasi East,Utawala,-1.285877,36.98408679999999,6b121416dd5cd5fbc298ea38bbb139dcaf3095e1,Silver Springs Fitness Centre,-1.2986925,37.01983370000001,gym,4.218991859298655
 Embakasi East,Mihango,-1.2692818000000001,36.95299050000001,0175276c5b9986120d9d9bed0564d4aa5e211eb2,Thawabu Primary School,-1.2783042,36.91614620000001,primary_school,4.2143168928931445
 Embakasi East,Lower Savanna,-1.3247280000000001,36.887724,ddce0bf7dc174e2a34b36ec54c9c62ba45f4af51,Standard Chartered Bank ATM,-1.329569,36.925322,atm,4.21146085375581
 Embakasi East,Lower Savanna,-1.3247280000000001,36.887724,acf4194ff762643c73e249d6c074393d17430f62,Smoking lounge,-1.3291594999999998,36.92528679999999,night_club,4.202006993634597
 Westlands,Karura,-1.2369881,36.83255910000001,73f28aec3622c26127d805e31fad2600d243031b,Co-op Kwa Jirani Eric Wambua Musembi T/ A Lexxy Technologies,-1.2741,36.82539999999999,bank,4.200060693297464
 Westlands,Karura,-1.2369881,36.83255910000001,c83821fccfe4f591f86dac1e6658d0bacd3e4f44,PesaPoint POS Man Dao Investments,-1.268034,36.811108,bank,4.1930816050966975
 Kasarani,Ruai,-1.2677339,36.9911112,02bc5d588e53c2841068d3a8c0420fbe4efd5074,"Manyatta Primary, Ruai",-1.288015,37.02285120000001,primary_school,4.184933363466576
 Westlands,Kitisuru,-1.2395542,36.7839651,87f79159c30bf2368a5b55b98c99a23d0a7f15ed,Alma,-1.2047808999999998,36.7696777,shopping_mall,4.177505211562593
 Dagoretti North,Gatina,-1.1655719999999998,36.85526373,a9e6182753938d0a3e68f93f4c346503e708e401,PesaPoint POS Kiambu Fertilizer,-1.158383,36.818361,bank,4.1770822664022775
 Lang'ata,Karen,-1.3283746,36.7049676,a045e92f74ceff86337306b7fd330afa1ea985ba,OLA Energy Elbulbul,-1.3390598,36.6689854,gas_station,4.170066371128559
 Lang'ata,Karen,-1.3283746,36.7049676,0bcbf10d2a3529c7eb417e83c7d8c6308199d3bb,Don Bosco Primary School,-1.3273458,36.7424694,primary_school,4.167840958379112
 Embakasi Central,Kayole North,-1.2659842,36.916945500000004,86d9e2a09df04aac00c3545ba0edb78cd7b047c9,Ecobank ATM Mutindwa,-1.2846919,36.8845689,atm,4.1545086127208775
 Westlands,Kitisuru,-1.2395542,36.7839651,cc5a303caff0e335450529bcc19b387edbc3c11f,Lower Kabete Primary School,-1.2398596000000002,36.74659529999999,primary_school,4.151889942949735
 Kibra,Sarangombe,-1.31226715,36.77745932,8df60f319f046f68280cae87e1d02cbedead0f57,PesaPoint ATM Langata Kenol,-1.341126,36.753762,atm,4.149143216312784
 Embakasi East,Mihango,-1.2692818000000001,36.95299050000001,6f13b7bb1a2e2e5cfc2fe525940e3c721f7f8d5a,Halisi academy primary school,-1.274729,36.91605999999999,primary_school,4.147307326675452
 Kibra,Sarangombe,-1.31226715,36.77745932,d7a893d1fb2ea423879d7149056a752c6e244888,PesaPoint ATM CFC - Langata Road,-1.341142,36.753835,atm,4.145378229819537
 Embakasi Central,Kayole Central,-1.2659842,36.916945500000004,bacea222408c2d75349c5ebbcf2c0f75f10ed5a3,Eco Bank ATM,-1.2846839,36.88473249999999,atm,4.138335786173845
 Dagoretti South,Uthiru,-1.2631329,36.7188955,ae8d72a06e35d3ce553842efbdd2dc8bbb40a73c,Waynser Supermaket,-1.2500426000000002,36.6840705,shopping_mall,4.133426018094267
 Westlands,Kitisuru,-1.2395542,36.7839651,1f6b74d8480e3da9e0bb2b402d52cd6c2829c0e5,The Cask Concept 2011 Executive Lounge,-1.202407,36.7854003,night_club,4.131065192451559
 Embakasi Central,Kayole Central,-1.2659842,36.916945500000004,5d7fc50ad3582421e8e78006e1892395316a89a9,Pesa Point,-1.2697155,36.87995970000001,atm,4.129912608192632
 Dagoretti South,Mutuini,-1.3,36.7,48ce721922dacfe65fa24106a191e1c0e1641a7d,Steve Shop,-1.2754726,36.67221170000001,shopping_mall,4.118220782876591
 Westlands,Kitisuru,-1.2395542,36.7839651,c6ff6cdc797da69a25ac742c74a7cb7f7b555669,Gas Point Depot -Ruaka,-1.2040435,36.7734061,gas_station,4.116809172141942
 Embakasi Central,Kayole Central,-1.2659842,36.916945500000004,508cd59c50834421d14467fd4a45ce4a09c48594,BBK ATM,-1.2846356,36.884931,atm,4.116574629079021
 Kasarani,Mwiki,-1.2322833999999998,36.9275102,3cb7226ed35fde703f681c80278c334123069465,Githurai Nairobi,-1.2108384,36.9576477,shopping_mall,4.109742832088429
 Westlands,Kitisuru,-1.2395542,36.7839651,875d32a1022869f91e6bf1aa11e35aa206fb610a,By Grace Kerosene Pump,-1.2042258,36.7734044,gas_station,4.097449077293806
 Embakasi Central,Kayole South,-1.2659842,36.916945500000004,fb88d784ab3fc236331e84399a1a799617e6a05e,KCB ATM,-1.284146,36.884877,atm,4.094670837585173
 Dagoretti South,Mutuini,-1.3,36.7,c77290033d902c00c5cbb0f014edf88668a6da71,Great Vision Academy Primary School,-1.2692716999999998,36.6796736,primary_school,4.0938456860134504
 Dagoretti South,Mutuini,-1.3,36.7,1ef09a222f057966372d8715857188542bd3bb4a,Kobil Station,-1.2692653,36.67991869999999,gas_station,4.079484038606996
 Westlands,Karura,-1.2369881,36.83255910000001,3520ef9f77b8d509d191e142578c8aea3e8c8dc1,Equity Bank Agent,-1.263749,36.8075091,bank,4.0729278790981285
 Embakasi East,Upper Savanna,-1.3247280000000001,36.887724,7ecce8a02f1cd5fb521937bb75e7f25dcb1522e8,KCB ATM - JKIA,-1.330631,36.92384699999999,atm,4.066353221085673
 Embakasi Central,Spring Valley,-1.2477029,36.78923560000001,334041d1ba37d70f2fb6020fb7b9c16dbb16f1c6,Co-op Bank ATM - Kahawa Wendani Branch,-1.275042,36.813424,atm,4.056023334842501
 Embakasi Central,Spring Valley,-1.2477029,36.78923560000001,363741328fe4202c0fca99df380d01dbe218a7b4,Coop Bank ATM Chiromo Branch,-1.2750002,36.81344349999999,atm,4.053982174650491
 Lang'ata,Karen,-1.3283746,36.7049676,d4df2b030530886dc25e69c8389e880e77cc22a8,Karen C Primary,-1.3382845,36.7400166,primary_school,4.046500720709056
 Lang'ata,Karen,-1.3283746,36.7049676,2e64970c549690e658b014d9c66ba5f562f825d9,OLA Energy Embulbul,-1.3381504,36.6699218,gas_station,4.0421283439734745
 Dagoretti South,Mutuini,-1.3,36.7,7079cfd777b38e3c3a7c49588617dc0e002f865a,Golden Heights Primary School,-1.2776065,36.6713463,primary_school,4.040567810961186
 Lang'ata,Karen,-1.3283746,36.7049676,4f8a38e91a89d838874be3ee6069cbea1f16907d,Total Karen Service Station,-1.338456,36.739756,gas_station,4.023913924759752
 Westlands,Kitisuru,-1.2395542,36.7839651,8e3512bf1ba855042651e05a5bd54dd28b898666,Total - ruaka,-1.20367,36.787874,gas_station,4.011213883846974
 Lang'ata,Mugumoini,-1.1991235,36.846741200000004,63388e8eb7b36479a104a380ad259471a2ede55a,Embassy Of The Republic OfZimbabwe,-1.2012198,36.8107205,embassy,4.008700548292373
 Lang'ata,Mugumoini,-1.1991235,36.846741200000004,015ec3a03833adb408bef075ac1da152d2169e73,Zimbabwe Embassy,-1.2012198,36.8107205,embassy,4.008700548292373
 Lang'ata,Mugumoini,-1.1991235,36.846741200000004,611eebe28a96de27a7cc70155438afc946b52eae,National Bank,-1.210547,36.812557,bank,4.0044212220368705
 Embakasi Central,Kayole North,-1.2659842,36.916945500000004,1e5666ed6ca74ca658c8dd71be432ddc76a1d2a0,Consolidated Bank ATM,-1.2785893,36.883204,atm,4.001763428802145
 Lang'ata,Karen,-1.3283746,36.7049676,51d47dd9817a6154fe50581bac972db14ca272fd,Splendid House,-1.3254721,36.6691534,shopping_mall,3.991841765410154
 Lang'ata,Mugumoini,-1.1991235,36.846741200000004,c8021a6c8761de43c2405b556fa258773f8b4562,Zimbabwe Embassy,-1.196892,36.811004,embassy,3.9781685198100623
 Embakasi Central,Kayole South,-1.2659842,36.916945500000004,ce351d45f6c2c0168b14b5ffaf5f1e4aff33227d,Pesa Point,-1.2779767,36.8832068,atm,3.9781533613433058
 Embakasi East,Mihango,-1.2692818000000001,36.95299050000001,3f2df8c07acd65221c715a419a0ac92b22a20ecd,Divine Vision Comm Center Primary School,-1.2738625,36.9174877,primary_school,3.976992079566129
 Roysambu,Kahawa,-1.1869631,36.912022,c0dd38fb9c962dd2b60d3208814aea93c35e114e,Kings Fitness Centre,-1.1611479999999998,36.9368103,gym,3.976697585357514
 Embakasi East,Utawala,-1.285877,36.98408679999999,af20cbf4e818168301fd08ec2a1d26be4aea8ecf,Seme Primary School Katani,-1.3209943000000002,36.9907566,primary_school,3.972140672117941
 Embakasi Central,Kayole South,-1.2659842,36.916945500000004,7af6602be81aa740f7a7a2d75b3dccaad009ddd5,Equity ATM,-1.2779411,36.8832627,atm,3.9709769383608693
 Roysambu,Kahawa,-1.1869631,36.912022,dac3502c1167fd2f73b7888421018abca021c813,Kings Fitness & Recreational Centre,-1.1611113000000002,36.9366354,gym,3.966218108677915
 Lang'ata,Karen,-1.3283746,36.7049676,f2b4a8d76e17c8595997d953a1217dae9e9e47b3,PesaPoint POS Innscor - Ngong Road,-1.307613,36.733989,bank,3.9645978374669673
 Embakasi South,Pipeline,-1.0881862,36.5315908,b5c1c17e181f18ef154ae18930399bdc9d1a2a2f,Namuncha Primary School,-1.0707774,36.562665,primary_school,3.957566893659542
 Kasarani,Ruai,-1.2677339,36.9911112,ef8c03fe4e05e86887d779303a6e48c927e92db8,Exxen Energy By Pass,-1.2322429,36.98983519999999,gas_station,3.9464883404289437
 Lang'ata,Karen,-1.3283746,36.7049676,b94f22f04b364e7b7433a38ab91f650391e69dba,ABBÊ INDOOR CYCLING STUDIO,-1.3630136,36.69737720000001,gym,3.9405452787433104
 Westlands,Kitisuru,-1.2395542,36.7839651,13a943fe8434e656ba0c112a5066e4f66f58a07f,Total Kitisuru Service Station,-1.2351609,36.748992,gas_station,3.9160345753008343
 Roysambu,Kahawa,-1.1869631,36.912022,d8f9ffc839d60c7676361b01ed824a912d9e7a7e,Shell Eastern Bypass Ruiru,-1.1537678,36.9235589,gas_station,3.9051781969320247
 Dagoretti South,Mutuini,-1.3,36.7,dc30f185b103a8bd37f709da33b01a0b11a6fd97,Karen-End Shopping Centre,-1.3077101,36.6657999,shopping_mall,3.894910450083638
 Lang'ata,Mugumoini,-1.1991235,36.846741200000004,2468b4c223995d0f090beb5734ab61fcb424fa06,Ngegu Shopping Centre,-1.1767745,36.8197914,shopping_mall,3.890104925578258
 Lang'ata,Karen,-1.3283746,36.7049676,f7f533b844d6fb6cfc2668fb7146ef52b49e60b5,Total - karen,-1.332712,36.73970500000001,gas_station,3.889139845359331
 Dagoretti South,Mutuini,-1.3,36.7,462a85200568d863204a6b3b4e33b846ec3aa86e,Karen-End Play Ground,-1.3072928999999998,36.66580560000001,shopping_mall,3.8843563111996344
 Embakasi West,Mowlem,-1.3247280000000001,36.887724,6fb5a29d089847483a3cbc130e777646081beeef,Embakasi prebysterian academy,-1.303951,36.915697,primary_school,3.8714955426177524
 Roysambu,Kahawa,-1.1869631,36.912022,50958eed618271c41297ecfb5885e5db5f9c5406,Sarafina's Club 254,-1.152589,36.917666,night_club,3.870952386136955
 Westlands,Karura,-1.2369881,36.83255910000001,7e8089ea193eab0def3a7ccb1f3e2c0a73ebe4b8,Pilates Pasc,-1.2173382,36.803920100000006,gym,3.858994076289965
 Dagoretti North,Gatina,-1.1655719999999998,36.85526373,b72bbf1e7d2b0b67a2c0ed64e59e40c53aad083c,Gichocho Primary School,-1.150478,36.8240181,primary_school,3.8554480828529543
 Westlands,Kitisuru,-1.2395542,36.7839651,7806d18786707e910d2eae1970f05830d16df91c,Playing Fields Club,-1.2396648,36.8186348,night_club,3.8517923010783726
 Westlands,Kitisuru,-1.2395542,36.7839651,67e07d1e04ccf5da018f69c0da616ac9ae2a16fc,The Auto Clinic Pub & Grill,-1.2063028999999998,36.7933498,night_club,3.8393387796490686
 Roysambu,Kahawa,-1.1869631,36.912022,09c136772d4fa5f8f92c857edd39c625688e52be,Wayuni Music & Art Distribution Centre,-1.153658,36.920959,bank,3.8319096371557904
 Westlands,Kangemi,-1.2654258999999999,36.7525183,501813adde1780b6dd044e94efa297a2ac227603,Kitisuru horse stable,-1.2311187,36.7557998,gym,3.8297833563650876
 Dagoretti North,Gatina,-1.1655719999999998,36.85526373,6ba98ba063e928014103056eec9c360926737e5d,Benson Njau Primary School,-1.1406971,36.8314195,primary_school,3.828703961611474
 Kasarani,Ruai,-1.2677339,36.9911112,b12d0f0caa15559b47f5b669d0d4de738ddc0716,"Kadamawe Junction,Ruai,Nairobi Kenya",-1.2518328,37.021669,shopping_mall,3.827244348241841
 Dagoretti South,Uthiru,-1.2631329,36.7188955,1e9bd91f14f7a59616ea6c6f072bda90f2954fd4,Kaka 3D,-1.2299652,36.70970940000001,night_club,3.824449231989924
 Lang'ata,Karen,-1.3283746,36.7049676,24175f18282e3dc3b0ef78d8a28084f7355608e6,KCB ATM,-1.308286,36.732909,bank,3.8235120859062737
 Dagoretti South,Mutuini,-1.3,36.7,d892db453b267e08114561b4fa826426e515bf65,Ngando Preparatory Primary School,-1.307568,36.7334975,primary_school,3.815293024195896
 Kasarani,Ruai,-1.2677339,36.9911112,868f7c8ef002f760fa0f85f315b87154bf959c84,"Ngundu, Kadamawe Junction",-1.2518104,37.0214085,shopping_mall,3.8027535789246234
 Dagoretti North,Gatina,-1.1655719999999998,36.85526373,20e808c7055a26d1102143891328fd6480036d37,PABEL ACADEMY,-1.156924,36.8221567,primary_school,3.80173477355333
 Kasarani,Ruai,-1.2677339,36.9911112,31bf8f8d75b5b78ba3bbaf105ed1538b2cd3e309,Havgas Plant,-1.2339723,36.9860942,gas_station,3.7929394725896564
 Westlands,Karura,-1.2369881,36.83255910000001,7228084428a4e86d684797cf22d169974f5fed64,Serbia and Montenegro Embassy,-1.208913,36.8131528,embassy,3.7923537757556818
 Kibra,Sarangombe,-1.31226715,36.77745932,3f55cbb92b49d3b8efa6b9f6e4c17e6591d94033,Galleria Co-op Bank ATM,-1.343508,36.764178,atm,3.7721852080306912
 Lang'ata,Karen,-1.3283746,36.7049676,fb890093d3b462798c179b35ed9b639ba17b7cce,Serare School,-1.330245,36.671183,primary_school,3.7590577668686733
 Kibra,Sarangombe,-1.31226715,36.77745932,a44a95cf2e46e8b979dcb8b8f5bce8ff5d536eb4,Kenol Langata,-1.342468,36.762249,gas_station,3.7574768369179044
 Kasarani,Ruai,-1.2677339,36.9911112,784c7dea26a0df498bc6159d42c6ce35020a64cf,shell Fanaka,-1.2339947,36.98995899999999,gas_station,3.7514570170843555
 Lang'ata,Karen,-1.3283746,36.7049676,fc0a4405ab438b9e985358179d5efed81f3bd50a,RyanCliffe,-1.357443,36.687797,gym,3.7514222782340974
 Dagoretti South,Mutuini,-1.3,36.7,3e5ac71da39385c17e2c4a15c0f02ba5f3faeacd,St Marvins School,-1.2735729,36.6792348,primary_school,3.7344779175944383
 Kibra,Sarangombe,-1.31226715,36.77745932,142380d1df06fd86c59d4c55aa9114adc89c068c,NIC Bank,-1.3431782,36.76429870000001,bank,3.733211652364689
 Kibra,Sarangombe,-1.31226715,36.77745932,ce2514f01aee50ce4a149c4305aaeafbd4e11d27,Galleria Mall,-1.3436978000000002,36.7656044,shopping_mall,3.732793958017329
 Kibra,Sarangombe,-1.31226715,36.77745932,5110f64ee1a4613d8d109aa77769ce120b28d77b,KCB ATM - Maasai Market,-1.343427,36.765189,atm,3.7213080348190277
 Dagoretti North,Gatina,-1.1655719999999998,36.85526373,ee0d36316232efb6e91d7ba5ea14c3243087a810,Mwandus Petrol,-1.1617245,36.82201,gas_station,3.719219523290941
 Lang'ata,Mugumoini,-1.1991235,36.846741200000004,c89d79ec06790d0808c0b699fe21aba063641a00,Chelete Primary School,-1.2225089,36.82284050000001,primary_school,3.715411809666398
 Kibra,Sarangombe,-1.31226715,36.77745932,719ff3e91bee952b4c0f6dfcb6c02ec17b133d5b,Club M's,-1.3415857,36.7616406,night_club,3.7017759936741808
 Westlands,Kitisuru,-1.2395542,36.7839651,0171b7334237fabeec180777180309411a19725f,Ruaka Square,-1.2062761999999998,36.78455299999999,shopping_mall,3.698598292910334
 Kibra,Sarangombe,-1.31226715,36.77745932,fff9683affe117dae96426f5aa322f593f885630,Standard Chartered Bank ATM,-1.342781,36.764294,atm,3.6928459585452607
 Kasarani,Ruai,-1.2677339,36.9911112,aa893bdd94aaf73283225d8c5ff4459b741ee57b,Sele sele,-1.2891053999999995,37.0165363,shopping_mall,3.6903827659848933
 Lang'ata,Mugumoini,-1.1991235,36.846741200000004,285a4e5abb550c14671f76ca96bc54601d8b7bd1,Embassy of Romania,-1.2112806,36.8158714,embassy,3.68613584551457
 Kibra,Sarangombe,-1.31226715,36.77745932,7f88e8dfe4950496789f356d54da66319ee67062,Essy Wines&spirit,-1.3417921999999998,36.76258809999999,shopping_mall,3.673459338178483
 Kibra,Sarangombe,-1.31226715,36.77745932,2a94a8705c48805964a077f09ef478903990658f,PesaPoint ATM KCB - Bomas,-1.342674,36.764529,atm,3.6716382689725697
 Kibra,Sarangombe,-1.31226715,36.77745932,7fa26c541cbca1bfb0d72bac851b20158e768734,OLA Energy,-1.342642,36.764459,gas_station,3.6714182330967837
 Lang'ata,Karen,-1.3283746,36.7049676,9ff623d47316c7bc72dd80f49d76aa18e028a83e,Pride Ride Kenya,-1.3353271999999998,36.6726768,gas_station,3.669604824963724
 Dagoretti North,Gatina,-1.1655719999999998,36.85526373,f02e8a304c0f49639be6207d80dbe5a9e28c68bd,St Peter and Paul Catholic Primary School,-1.1708158000000002,36.8226723,primary_school,3.667561848698811
 Westlands,Kitisuru,-1.2395542,36.7839651,2674f7b3a2b6d5ac615dfd464273a3d0488a13c6,Physiq & Tone Gyms,-1.2065952,36.7844289,gym,3.6629350668119076
 Kibra,Sarangombe,-1.31226715,36.77745932,f23f778dc4205a0c11d76bcb904d538ba715cdf2,PesaPoint ATM Oilibya Langata,-1.342585,36.76453400000001,atm,3.6623207206545483
 Dagoretti South,Uthiru,-1.2631329,36.7188955,f57c1a9c0837c8f13fc4ac4ebdac1ea62bfc95f6,Lucimo Carwash Muthiga,-1.2508078,36.6883898,gas_station,3.6554217255092585
 Dagoretti North,Gatina,-1.1655719999999998,36.85526373,8c14cc4a0c7df5ae950c35188d9d23571544eb0a,Abundant Fill Petrol Station,-1.1632585,36.8225059,gas_station,3.6485347701358717
 Westlands,Kitisuru,-1.2395542,36.7839651,85c91c1ec93b4979cc3aea0543d6a59eca374cba,ROBA GAS SUPPLIER,-1.2068331,36.78180909999999,gas_station,3.644016989569803
 Dagoretti North,Gatina,-1.1655719999999998,36.85526373,6337ff8826c371d36ad7aba2b9784bb5361bc326,Quickfill Service station,-1.1632286,36.82258230000001,gas_station,3.640303909300778
 Westlands,Kitisuru,-1.2395542,36.7839651,093ae5650a13ad5447219e8fe2aad3aa7d964346,Quick Mart Ruaka,-1.2068367,36.7834295,shopping_mall,3.636222818518005
 Lang'ata,Karen,-1.3283746,36.7049676,6cde008a1dee891c3a7b53c9106bbb2ad1f82889,Gulf Energy - Ngong Bubul,-1.334142,36.672943,gas_station,3.6150424608022678
 Dagoretti North,Gatina,-1.1655719999999998,36.85526373,1bb623a138878510badf66230125e943a4435bad,Nyati Service Station,-1.1630962,36.8228777,gas_station,3.608661144474839
 Westlands,Karura,-1.2369881,36.83255910000001,6f3a9b353beaa7b566324dd180eb65505af607da,PesaPoint POS Coach Berbers,-1.267508,36.821638,bank,3.6020271843107476
 Westlands,Kitisuru,-1.2395542,36.7839651,b8b4cbce2e582825b26f453241445fe5f12e468f,Kabete International School,-1.2401351,36.75160109999999,primary_school,3.596190578088153
 Lang'ata,Karen,-1.3283746,36.7049676,b49ac94c29777e8f6c5ea02a669329a5b296fa2f,KAREN WEST,-1.357521,36.69117190000001,shopping_mall,3.5832110233587793
 Embakasi East,Upper Savanna,-1.3247280000000001,36.887724,194b1450d866d83d98011a949cfe132e9b53868e,Madaraka Express Waiting Lounge,-1.3542054,36.90063840000001,night_club,3.576101630331936
 Lang'ata,Karen,-1.3283746,36.7049676,5173719f4d73e42fdbcf4dbcbe6f4e607a620231,Billionaire lounge,-1.338345,36.7355222,night_club,3.57070937099207
 Embakasi West,Kariobangi South,-1.3247280000000001,36.887724,5206756151111bc1c163ff8385d8fa827d1663da,NCC Embakasi Primary School,-1.3069941,36.9144581,primary_school,3.5643740081613933
 Lang'ata,Karen,-1.3283746,36.7049676,a094cf717ea0a720f40f22b59ac9d4e97233b3bb,PesaPoint POS Pharmart Chemists Ltd - Ngong,-1.334482,36.673591,bank,3.551242615555054
 Lang'ata,Mugumoini,-1.1991235,36.846741200000004,77eceb082b581bcc979b0f8d3007e55db7cffab7,Ngegu Primary School,-1.1791771,36.8218311,primary_school,3.545752668898171
 Embakasi West,Kariobangi South,-1.3247280000000001,36.887724,bb0632a96d57f3a0494453acb23fe3fb58f79645,National Bank,-1.336402,36.917425,bank,3.545493757067757
 Westlands,Kitisuru,-1.2395542,36.7839651,8967163726537be35562b8da090c607e66f9bbbc,the Chilz Lounge,-1.2078387,36.7866173,night_club,3.5366846576192117
 Lang'ata,Mugumoini,-1.1991235,36.846741200000004,2b038adf1f9bc2ffae6c497b5b76be89262aea17,Standard Chartered Bank Ridgeways ATM,-1.2306875,36.8492471,bank,3.5185847184737877
 Dagoretti North,Gatina,-1.1655719999999998,36.85526373,eceb34a8966c76d50d6c3d229ef1fa0aced63c51,Kimap kerosene pump,-1.1643875,36.82362910000001,gas_station,3.517139127916698
 Dagoretti North,Gatina,-1.1655719999999998,36.85526373,412bd19d42aeec4faac0f0321f75855a5e8ead22,Video library,-1.1722367,36.8243426,library,3.5143246690250884
 Dagoretti North,Gatina,-1.1655719999999998,36.85526373,c9d49603be994ee95192d68e79349b48ec2b7d28,PesaPoint POS Agape Growers - Kiambu,-1.164569,36.823843,bank,3.4926892250683634
 Kasarani,Mwiki,-1.2322833999999998,36.9275102,bf80543471650c0b8a1aca698cf0a70a8d98afac,Champions Lounge,-1.2133386,36.9525646,night_club,3.4900053805698303
 Dagoretti North,Gatina,-1.1655719999999998,36.85526373,ab447e62820f13246b7008e540c7e9712f886388,Kiambu Mall,-1.1650622,36.82408299999999,shopping_mall,3.4647087139780117
 Embakasi East,Upper Savanna,-1.3247280000000001,36.887724,9feb80e5065b210887b9209153c2cadcf50874d4,National Bank ATM-Tuskys,-1.317541,36.918031,bank,3.460399186860505
 Westlands,Kitisuru,-1.2395542,36.7839651,8624d49f3eeeb423be58962eea6a314eb9cbb052,Urafiki Service Station,-1.2087276000000002,36.78803550000001,gas_station,3.4553296847254407
 Embakasi East,Utawala,-1.285877,36.98408679999999,0b2d65726009aae88a83931153df6131aea7fe2a,Grandmak Primary School,-1.2837742,36.9530575,primary_school,3.4551783077387004
 Dagoretti South,Mutuini,-1.3,36.7,7a27c7367c2676c087c61268cbfe2fc314b3f84b,Tash Shop,-1.2734921,36.6838073,shopping_mall,3.4515754842458914
 Embakasi West,Kariobangi South,-1.3247280000000001,36.887724,dccbf903578efd9d452e914871c8931ea18ab85b,PesaPoint POS Nippon Business Snack Shop,-1.317063,36.917828,bank,3.451184411632332
 Lang'ata,Karen,-1.3283746,36.7049676,d68c232b242eb360c77cbab4acd7ff66cd84e8a1,BIG FIVE KINYOZI EMBUL BUL,-1.334709,36.6745626,gym,3.4504114130001136
 Westlands,Kangemi,-1.2654258999999999,36.7525183,afd98276cfdd64ddbddd163a27c5e663d890fbd1,I&M Bank ATM,-1.2904411,36.7707829,atm,3.441632692569763
 Westlands,Kangemi,-1.2654258999999999,36.7525183,52a0bd3860d414d52361bac6b873a37df84ea360,Co-operative Bank ATM,-1.2904076,36.7707574,atm,3.4369555739746382
 Dagoretti South,Uthiru,-1.2631329,36.7188955,300c8f8de96252d7898a37c8df573939bfaa4211,YUCCA Sound's Staffs,-1.2545241000000005,36.6891925,shopping_mall,3.435822162064105
 Westlands,Kangemi,-1.2654258999999999,36.7525183,cee1d49935bce645b1abbc4d7ab48b933d151c1d,Equity Bank Atm,-1.2903753999999998,36.7707641,atm,3.4345052946420678
 Dagoretti North,Gatina,-1.1655719999999998,36.85526373,3d6a3f3ee544febc26fa20ed67a96267886e2997,Kerosene pump,-1.1654762,36.8243641,gas_station,3.433030972068042
 Kasarani,Njiru,-1.2539022,36.9343299,e714e37d4aa44692a897d11822c95eeabd179e36,Equity bank atm- the scepture building,-1.227536,36.918445,bank,3.4203946026611662
 Kasarani,Njiru,-1.2539022,36.9343299,136d0e9f9dae72fc553af5c779ae0ddb0e1ab883,Equity Bank Hunters,-1.2275518,36.9184448,bank,3.418902172302618
 Westlands,Kitisuru,-1.2395542,36.7839651,e4f74df9882958bb285e682bd5e14fd14a842ea1,Standard Chartered Bank - Two Rivers Branch CDM,-1.2107526000000002,36.7947782,bank,3.418613514937936
 Kasarani,Njiru,-1.2539022,36.9343299,c4bb9e871f729c7d71f33ba522ed85cb98bd7b68,Equity ATM,-1.2275907,36.9184399,bank,3.4154819145847037
 Lang'ata,Karen,-1.3283746,36.7049676,a4918aa8acde59a38e85ff6b20936b207967dc0e,Hajji Ramathan Primary School,-1.3357733,36.6751434,primary_school,3.4138079244792023
 Dagoretti North,Gatina,-1.1655719999999998,36.85526373,91fb9edd48fc00988a0c680f5942d2be9203be5e,KETON BEAUTY OPTIONS,-1.1648686,36.8245795,shopping_mall,3.4099794290818704
 Westlands,Kitisuru,-1.2395542,36.7839651,6b4b6ec58cf475bbad7763709fb317438b380f82,Two Rivers Mall,-1.210846,36.7946976,shopping_mall,3.4057529312921755
 Dagoretti North,Gatina,-1.1655719999999998,36.85526373,f23c7222013b6b450ee773d76ae593f3ab2d28f9,Kibra funeral servises,-1.165972,36.8246583,night_club,3.4006184414714227
 Dagoretti North,Gatina,-1.1655719999999998,36.85526373,8cebbb46d34a063cb1df71c01699e5b52dc1ce07,PesaPoint POS Cleanshelf Supermarket - Kiambu,-1.165446,36.824723,bank,3.393168821327762
 Dagoretti North,Gatina,-1.1655719999999998,36.85526373,fb579f58550103316e7e643bda841f4a03d39809,PesaPoint POS Kamindi Selfridges - Kiambu HQ,-1.165473,36.824739,bank,3.391380126035144
 Westlands,Kangemi,-1.2654258999999999,36.7525183,8b5f9495243a01921feee81f57d589d8da706a6f,Core Vibrations Health Studio - Power Plate Center,-1.2351238000000002,36.7492799,gym,3.3864902117577946
 Westlands,Kitisuru,-1.2395542,36.7839651,6d1f418be44e0fe115d1b62eb898f1a4114ebf79,Delta Service Station – Ruaka Town,-1.2093923,36.78821049999999,gas_station,3.3847684430334826
 Roysambu,Kahawa West,-1.1856847,36.90579279999999,4448e63a6417fd77b76495930b0cf0b0dd0ef7f8,Sunrays Junior Primary School,-1.1558303,36.9116029,primary_school,3.37979020653899
 Westlands,Karura,-1.2369881,36.83255910000001,15add02393bc08eeaa9995afcf17e024ceb8a7c4,Embassy of Romania,-1.2115101,36.815946,embassy,3.379733966393916
 Westlands,Kitisuru,-1.2395542,36.7839651,ae620694c9054b96e3d18e88d4afeb0639a20359,Delta Petrol Station,-1.2094992,36.78835069999999,gas_station,3.375218802211769
 Dagoretti South,Uthiru,-1.2631329,36.7188955,4ea0dc401bebdc4f746012f054eee180d1db7d0c,Kinoo Primary Shopping Centre,-1.2494597,36.69177440000001,shopping_mall,3.3745403353131036
 Lang'ata,Karen,-1.3283746,36.7049676,64e75243e29910c64cb5ec912abaa37b910fe8d0,Economy Gen. shop,-1.334626,36.6752681,shopping_mall,3.3718077503038746
 Embakasi East,Utawala,-1.285877,36.98408679999999,589074263e67d0cb16c0393bd5fd005d5fd229d7,"Bethel Estate, Katani",-1.3161668,36.9853086,shopping_mall,3.368693270285939
 Dagoretti South,Uthiru,-1.2631329,36.7188955,114fd5af66591b288ee30f0f44ee81a41c17605b,Sidan Bank,-1.2663358,36.7490348,bank,3.3672806086505016
 Kasarani,Njiru,-1.2539022,36.9343299,cd5c15344b5e1167d7093d1ad9bfd207df8e16f9,Postbank Elizawa Agencies,-1.2761617,36.913794,bank,3.3650970184290134
 Westlands,Kitisuru,-1.2395542,36.7839651,8f09ff71c269193f173d7975f8ebcce4ead06ce7,Shaz Energy Station,-1.2097034,36.7886126,gas_station,3.3571182786064053
 Dagoretti North,Gatina,-1.1655719999999998,36.85526373,629a0104d9a5f55b4bdfc25f726fa367340b968d,PesaPoint ATM Kiambu,-1.167457,36.82513600000001,atm,3.353801488876733
 Dagoretti South,Uthiru,-1.2631329,36.7188955,fb6e0e36187c62fc410ed19ece5770ef95687856,Sidian Bank,-1.2662149,36.74892000000001,bank,3.3531995059339548
 Dagoretti North,Gatina,-1.1655719999999998,36.85526373,186d924675b8b69a5a2705be1436f5a882b021ce,Raha Gym,-1.1724605,36.8258805,gym,3.3530818016821895
 Dagoretti North,Gatina,-1.1655719999999998,36.85526373,04c1b9699dd233247acc625f05e1ca0a4c49f4f8,Ngegu Center,-1.1688701,36.82532179999999,shopping_mall,3.3467383120319183
 Dagoretti North,Gatina,-1.1655719999999998,36.85526373,1dd25900a2a22576cb4ff8913c4aa7b031f59029,Pioneer Credit,-1.1673815,36.82519509999999,bank,3.3467336775900534
 Dagoretti North,Gatina,-1.1655719999999998,36.85526373,b4214263c5294c341e5dfd66ca1d78eeddffb33a,Pioneer Credit,-1.1673915,36.8252157,bank,3.3445161028742003
 Lang'ata,Mugumoini,-1.1991235,36.846741200000004,72cb983f95aeb243a5bfbf387ce5388b9585e2b6,Master Mpesa Agencies,-1.2109094,36.8743715,bank,3.3374615851432763
 Lang'ata,Karen,-1.3283746,36.7049676,a4f75e1f8d6f50612e4aa5f21e808c55dd60ac90,Ngong Forest Primary School,-1.3059363000000002,36.72486870000001,primary_school,3.332497107917306
 Dagoretti North,Gatina,-1.1655719999999998,36.85526373,996287e51e8bca2bf18ca70951a630a9bd596ad7,Diesel pump,-1.1666982,36.82529870000001,gas_station,3.331529146750332
 Dagoretti North,Gatina,-1.1655719999999998,36.85526373,91595cbce035cc7c85982fc0c8a235b9ae777017,brooks animal feeds,-1.172621,36.82619299999999,shopping_mall,3.3234471649108372
 Dagoretti North,Gatina,-1.1655719999999998,36.85526373,1573e5cd4380288f3f3b77a7d1ee0aebc26fafe8,Pioneer Credit,-1.1672917,36.82540469999999,bank,3.3229002664937246
 Dagoretti North,Gatina,-1.1655719999999998,36.85526373,953c318187448ae95f2238fab6b74039aaa8d66f,Pioneer Credit,-1.1670986,36.8254262,bank,3.319349809290976
 Westlands,Karura,-1.2369881,36.83255910000001,e6ca33ab3b116247bd14ce94367667f47b3102b7,Brilliant Centre Primary School,-1.2288725,36.8613021,primary_school,3.318234802692251
 Westlands,Karura,-1.2369881,36.83255910000001,0866a4eeac2fdd8b52e9e7e5970a9e9f9c05ad2c,Gsu primary school,-1.241203,36.862096,primary_school,3.314781993674388
 Westlands,Kangemi,-1.2654258999999999,36.7525183,6d748bf5785d837abbc51d26c9b0852acbe568e6,Mwai Kibaki Library,-1.2391912,36.738359,library,3.3126646000856375
 Lang'ata,South C,-1.3204426999999999,36.83053678,15352dcd83922ea56d031fab82a4561b2e7d061f,Co-op Bank ATM - DOD Hurlingham Branch,-1.2920659,36.82194619999999,atm,3.294634714687748
 Lang'ata,South C,-1.3204426999999999,36.83053678,e0a49fdbe86799617d7148ae7b940fbde988c710,Co-op Bank ATM - Runyenjes Branch,-1.2920659,36.82194619999999,atm,3.294634714687748
 Lang'ata,South C,-1.3204426999999999,36.83053678,b27721d5dac6ac90c01e25a4c1a11019c87bb127,Co-op Bank ATM - Ruaka Branch,-1.2920659,36.82194619999999,atm,3.294634714687748
 Lang'ata,South C,-1.3204426999999999,36.83053678,c1bae144f4271acbd086510417bdebdf258c95c2,Co-op Bank ATM - Nakumatt Embakasi Branch,-1.2920659,36.82194619999999,atm,3.294634714687748
 Lang'ata,South C,-1.3204426999999999,36.83053678,3b9df85a1443a55653f49a4a241fba17592d73f3,Co-op Bank ATM - Parliament Road Branch,-1.2920659,36.82194619999999,atm,3.294634714687748
 Dagoretti North,Gatina,-1.1655719999999998,36.85526373,8bd686014c2081b1b706bc9ca105215641d27913,Kirigiti Prime Academy,-1.1683181,36.8258264,night_club,3.284753939337213
 Roysambu,Kahawa West,-1.1856847,36.90579279999999,e9793fde598dcc44019276d636e049f97fe22ba8,Nova Pioneer,-1.1576585,36.8964213,primary_school,3.283848026378886
 Lang'ata,Karen,-1.3283746,36.7049676,384eb7a19e5186d81aa35882e252a3b5b5a8788d,Elirama Primary School,-1.3321981,36.675716,primary_school,3.2773696976801614
 Kasarani,Njiru,-1.2539022,36.9343299,2e536d3b7331be086c219ea8b13760971b324c4d,Rafiki Deposit Taking Microfinance,-1.2723816,36.91136819999999,bank,3.27483970370937
 Dagoretti North,Gatina,-1.1655719999999998,36.85526373,03779d2aaa126256989b9fcbdd3bfd524d50fba8,PesaPoint POS Marinya Candy Shop,-1.168407,36.825925,bank,3.2747823703616046
 Westlands,Kitisuru,-1.2395542,36.7839651,d3f2fa5cd9c0ff1710ec8935b5524c1419d8bf41,Total Rosslyn Service Station,-1.2106473999999998,36.7894119,gas_station,3.2687734126333323
 Dagoretti North,Gatina,-1.1655719999999998,36.85526373,2ff18e10698db23686def72d0e52140908654cc5,Kobil Banana,-1.16808,36.825983,gas_station,3.2650662910659944
 Dagoretti South,Mutuini,-1.3,36.7,e4942d55df04f7350fa280276e8beacfb2483a92,Gitiba Primary School,-1.3065254,36.6713884,primary_school,3.260307473685681
 Dagoretti North,Gatina,-1.1655719999999998,36.85526373,1c216f35f892c052bdbc310fcb82d6ab1905aa95,geokims mobi enterprises airtel shop,-1.1685484,36.8262161,shopping_mall,3.2441563043761423
 Dagoretti South,Uthiru,-1.2631329,36.7188955,62083accc7418d4d1854e0d034e3ce9b3a6efd54,Villa Moran Apartment,-1.2530148,36.69150860000001,shopping_mall,3.2437431570312625
 Embakasi West,Kariobangi South,-1.3247280000000001,36.887724,36d488cbf13be475c176765be9bfeffce31318f3,Total-Embakasi,-1.3113155,36.91365649999999,gas_station,3.2436998132063657
 Dagoretti North,Gatina,-1.1655719999999998,36.85526373,038c9e5e4105f7559357e131b10ef787dda99cbe,PesaPoint POS Home Choice - Kiambu,-1.168745,36.826268000000006,bank,3.2407243105038557
 Embakasi East,Upper Savanna,-1.3247280000000001,36.887724,3a863df318c244cbcf511beb109c58d1c32189f2,Total Embakasi Service Station,-1.311398,36.913652,gas_station,3.239052834774184
 Roysambu,Kahawa,-1.1869631,36.912022,0c76fb4b370674c471ee498cf876f4e1ffae44d0,National Oil Petrol Station,-1.1776791000000002,36.9396461,gas_station,3.2378407859999174
 Dagoretti North,Gatina,-1.1655719999999998,36.85526373,1df909b572cca8937a5722717e67cd6a2bf3952b,Ponyways Academy Primary School,-1.1579218,36.88337660000001,primary_school,3.2370311318643457
 Dagoretti North,Gatina,-1.1655719999999998,36.85526373,b04f5e2f1497cec2a69c55dc66404f1e9070b6ce,Post Bank - Karuri Branch,-1.166358,36.826172,bank,3.2333323961891334
 Roysambu,Kahawa,-1.1869631,36.912022,81fb5c581930397c6f07b7237c446497cea5357e,Githunguri Primary Special Unit Primary School,-1.1630288,36.928563200000006,primary_school,3.2328565611036
 Roysambu,Kahawa West,-1.1856847,36.90579279999999,031629f53183ee02a2d326a2b0dff1330547efe7,Ruiru Progressive Primary School,-1.1570568,36.9105249,primary_school,3.22442891540787
 Dagoretti North,Gatina,-1.1655719999999998,36.85526373,1dd7613ba102ffeb7e973be333ac8ad381143f5d,Saldana Suppliers,-1.1690241,36.8264723,shopping_mall,3.2217073819416067
 Dagoretti North,Gatina,-1.1655719999999998,36.85526373,4749fa077f507e05f64668b9681cecc548ba3ee7,Nyumbani Sports Club,-1.173934,36.8275126,night_club,3.2201889452554475
 Dagoretti South,Uthiru,-1.2631329,36.7188955,2ec91dcb6300df4123abaf8f8e1e2307714f6af3,Equity Bank Atm,-1.2849948999999998,36.7377468,bank,3.207539077417591
 Dagoretti North,Gatina,-1.1655719999999998,36.85526373,f14d445ec65876b041a8d15afe5acae3fc29408b,Fep Kiambu,-1.1698326,36.826715,bank,3.2069641473176826
 Lang'ata,Karen,-1.3283746,36.7049676,eec442ae76938ca08e77d1d4802d3747309b5a10,Umoja centre,-1.331259,36.676278,shopping_mall,3.203352896893768
 Kasarani,Njiru,-1.2539022,36.9343299,47de22381a08f8120f017c10d4e798bf414af634,Rafiki Traders,-1.2714953000000002,36.91150700000001,bank,3.2017707856384368
 Dagoretti North,Gatina,-1.1655719999999998,36.85526373,7143d3505c27e2a25dc1c95d4e068d096b5b1908,Bookshop,-1.1694126,36.8267348,shopping_mall,3.1982266486150985
 Dagoretti North,Gatina,-1.1655719999999998,36.85526373,6580f5d1452a20ded56b940b8b7960a0a96558b7,Oilibya Kiambu,-1.168568,36.82666500000001,gas_station,3.194772750749335
 Dagoretti North,Gatina,-1.1655719999999998,36.85526373,5fa9afa757faea03723653815eb85a8564eafa19,OilLibya Petrol Station,-1.1684787,36.8266675,gas_station,3.193477583407163
 Dagoretti North,Gatina,-1.1655719999999998,36.85526373,efe82899ee85d3f25236aa7be2b55b90b7f197ac,JUMIA TRD STATION KIAMBU,-1.1690157,36.8268002,shopping_mall,3.185426881406204
 Dagoretti North,Gatina,-1.1655719999999998,36.85526373,065f69b1ecb6b19d13e917d1afb65fea011285c8,Kiambu Kobil,-1.1685175,36.826750200000006,gas_station,3.184776924084335
 Roysambu,Kahawa West,-1.1856847,36.90579279999999,5e4756e427f314b730b5ea67fda75a848bb1775b,Insight Preparatory Primary School,-1.1609181,36.8914156,primary_school,3.1821422474002627
 Dagoretti South,Uthiru,-1.2631329,36.7188955,4a0bc2b6a36ae2c4595ad3cda89025d49ea536c1,First Born Christian Centre Lower Primary School,-1.2550447,36.6914445,primary_school,3.179445705010072
 Dagoretti North,Gatina,-1.1655719999999998,36.85526373,8cabb35e584c7405099eae2de0cc3217bae8820f,24-7 Gas Station,-1.1702404,36.8271286,gas_station,3.1686262485207166
 Dagoretti North,Gatina,-1.1655719999999998,36.85526373,d880a6b5222e3c676ac6060f44b62ee57a7d2b42,Pongezi Plaza,-1.1696236999999998,36.82703520000001,shopping_mall,3.1684015042348275
 Dagoretti North,Gatina,-1.1655719999999998,36.85526373,1b5420919c7fce14f67cf341326ea8352626ec1d,Reymark Hotel Gym,-1.1690029,36.82697019999999,gym,3.166505565875354
 Dagoretti North,Gatina,-1.1655719999999998,36.85526373,fe259b3533b2117730dfbb1d7fba43c59c3e8aff,Barclays ATM,-1.1698741,36.8270932,atm,3.166104925043791
 Lang'ata,Mugumoini,-1.1991235,36.846741200000004,d2f80bc8e56c9f9a72a9e6d1d49b7ce4a47ae706,Nic Bank Ridgeways,-1.2263341,36.8384222,bank,3.161878595706668
 Dagoretti North,Gatina,-1.1655719999999998,36.85526373,d25022f24fb68c7e049f22724b9761989f95429e,National Oil,-1.1702103,36.8272065,gas_station,3.159541132283323
 Westlands,Kitisuru,-1.2395542,36.7839651,3064c18dad4acb106bbaa3db394065b58d6684cd,Simmoga Valley Primary School,-1.2111645,36.7854492,primary_school,3.1591144237223703
 Lang'ata,Mugumoini,-1.1991235,36.846741200000004,1e15fab2f295fd3c9f94b0786305c1f2aaf29d29,NCBA CIATA,-1.226374,36.83865499999999,bank,3.1586657975085073
 Lang'ata,Mugumoini,-1.1991235,36.846741200000004,654a1b76083f85b15bf6c9d29fe1a47069747ae3,NCBA Ciata Mall - (ATM),-1.226374,36.83865499999999,bank,3.1586657975085073
 Dagoretti North,Gatina,-1.1655719999999998,36.85526373,4bdbbff2fe500a3b09e92c6abe647de16e44d967,Kiambu Equity Bank,-1.1704215,36.8272504,bank,3.1586484993690647
 Dagoretti North,Gatina,-1.1655719999999998,36.85526373,bcd26f3fb2403cfa95d2a768d8691f6354b7bb7e,Service bay,-1.174803,36.8284249,gas_station,3.153357408635094
 Dagoretti North,Gatina,-1.1655719999999998,36.85526373,ded89338effe9381753f850bfbe1915ca3026989,Joy Ann Gas Bay,-1.1707004,36.8274167,gas_station,3.145911102718506
 Westlands,Kitisuru,-1.2395542,36.7839651,eaabe24edf34ec6a593b5e30236d1549c71b2e05,Bonny Kim Kinyozi,-1.218667,36.76486360000001,shopping_mall,3.1450066872522577
 Dagoretti North,Gatina,-1.1655719999999998,36.85526373,d130487816123a65f3e63bd0e9f1c1f0920c39d7,Equity ATM,-1.1703233,36.8273708,atm,3.1436176100599975
 Dagoretti North,Gatina,-1.1655719999999998,36.85526373,22c8b454ba9ac38022148228b90dcda625f2526f,Total Kiambu Service Station,-1.1747919,36.82853809999999,gas_station,3.141064829270017
 Kibra,Sarangombe,-1.31226715,36.77745932,f82a97008b004e828549ab93f5f89217a4565a32,Bellion Eng. Ltd,-1.3364051,36.76275629999999,shopping_mall,3.140545815290692
 Dagoretti North,Gatina,-1.1655719999999998,36.85526373,2a78abcdd6085f69945d1dd1b5a210ba4cccd586,Corner Shopping Arcade,-1.1685306,36.8272018,shopping_mall,3.1350254921415464
 Dagoretti North,Gatina,-1.1655719999999998,36.85526373,b75dfd7069b1aec32d06964c5eaa14b9a406a64f,24/7 Jiweze Improved Productivity Programme,-1.1703531,36.82749550000001,bank,3.1305211635720585
 Dagoretti North,Gatina,-1.1655719999999998,36.85526373,b58c900ace63121394c62f40a6db39b8405b8d27,Club Spillaz,-1.1679407,36.827226,night_club,3.1261513032107207
 Embakasi East,Utawala,-1.285877,36.98408679999999,a6ce07e0a8f1f9a7dd338c27bbec232b33ca4cc2,White house zebra,-1.3071498,37.0024825,shopping_mall,3.1248898542137824
 Dagoretti North,Gatina,-1.1655719999999998,36.85526373,4b786e3ceb338776628dd72cf67317498e5d9c01,Co - Operative Bank,-1.1707912,36.8277161,bank,3.115066171212106
 Roysambu,Githurai,-1.2062932,36.9206391,a51005fd5373b4f364aff12b308005ce1d6a9ec3,Evolve Fitness,-1.1952716,36.9464106,gym,3.114189264765294
 Embakasi Central,Kayole South,-1.2659842,36.916945500000004,7e692c26533565a2641e70abe951c7cd9d99dba2,Ecobank ATM Greenspan Mall,-1.2891111000000002,36.901145,atm,3.112267462488079
 Westlands,Kitisuru,-1.2395542,36.7839651,abed5cc7f5b676d2dbd82978843dcddabfaa57e7,Rosslyn Riviera Mall,-1.2162555,36.799493700000006,shopping_mall,3.111217616283844
 Dagoretti North,Gatina,-1.1655719999999998,36.85526373,fecbe5a76a7762b59e0814dd78d1634ba61152e3,PesaPoint POS Kamindi Selfridges - Kiambu Town,-1.17105,36.8278067,bank,3.1106767048577226
 Embakasi Central,Kayole South,-1.2659842,36.916945500000004,123a7d66020d079addc8a6a1c506eec9c8f5a370,Standard Chattered ATM,-1.2891433,36.90123079999999,atm,3.109861554533692
 Roysambu,Githurai,-1.2062932,36.9206391,cd52c8f9cf1a08b4c902abc91ac2cefcca7d4d5c,Evolve Barber Cutz and Trimz,-1.1953617,36.946399,gym,3.1090787208297512
 Dagoretti North,Gatina,-1.1655719999999998,36.85526373,f1f96d08e3e1fb4d4a7349b69d420a7ecc68d358,Coop ATM,-1.1708127000000002,36.8278013,atm,3.106213339502835
 Dagoretti South,Uthiru,-1.2631329,36.7188955,2eabc5c4b7e431191cddca49b11445cf3fd05771,Post Bank - Kawangware Branch,-1.283791,36.737723,bank,3.105657200407295
 Dagoretti North,Gatina,-1.1655719999999998,36.85526373,4aae1d19fd622725f59d770d174eb5819f03bf5f,M-Pesa Family Bank,-1.1701825,36.82772219999999,bank,3.1025157977837945
 Dagoretti South,Uthiru,-1.2631329,36.7188955,b6bf7123e72ff9ca576affc46e0f3b046c8e4313,KARIANGO,-1.2526258,36.69302529999999,gym,3.1022499051720565
 Dagoretti South,Uthiru,-1.2631329,36.7188955,4019ec5f4514b51c54a6c6bffda99ec92ebede6f,club mayy,-1.2526258,36.69302529999999,night_club,3.1022499051720565
 Dagoretti South,Uthiru,-1.2631329,36.7188955,fe5ce457a0bf3aae4e7523b3bff1ce361fd8c997,Silverhedge,-1.2526258,36.69302529999999,shopping_mall,3.1022499051720565
 Dagoretti North,Gatina,-1.1655719999999998,36.85526373,aac38ea98e033855dd387b470296010a4059324c,Extrim Fitness Gym,-1.1710795,36.8278972,gym,3.1014622218642236
 Dagoretti North,Gatina,-1.1655719999999998,36.85526373,087a7ef02ca6fc77beb3943171ab18c20318e321,Fireside Communications ltd,-1.1710795,36.8278972,shopping_mall,3.1014622218642236
 Dagoretti North,Gatina,-1.1655719999999998,36.85526373,98808a726a0391f4622dfbf1da94ab60e611736c,K-UNITY SACCO LIMITED,-1.171163,36.827916,bank,3.1012601530541075
 Dagoretti North,Gatina,-1.1655719999999998,36.85526373,aa8f457ae10ebe27a33bcbd4c87e08c3f1748f03,Pima Gas Ralu,-1.1689034,36.8275626,shopping_mall,3.099837785577405
 Dagoretti North,Gatina,-1.1655719999999998,36.85526373,f69e5177f5c297e634bebf3b9b3d7067485925b8,Absa | Atm | Cleanshelf Supermarket Kiambu,-1.160352,36.827888,bank,3.0963259157449463
 Dagoretti North,Gatina,-1.1655719999999998,36.85526373,8293c4e33baeba8397cef88d6f68df1b227b34e8,Vam Shopping Complex,-1.1713276,36.8280146,shopping_mall,3.0942572984473675
 Embakasi Central,Kayole South,-1.2659842,36.916945500000004,73887b83084a389175dfd5e9db16a110bdfeb689,Family Bank ATM,-1.2889144,36.9011986,atm,3.090868045590944
 Westlands,Kitisuru,-1.2395542,36.7839651,ba047748f1879901c3c084fbd4bf6d3593cfe374,Jemimah Shops,-1.2187806,36.765511,shopping_mall,3.0874779435149518
 Westlands,Kitisuru,-1.2395542,36.7839651,d3f99ce417bf8f88a4061935fd134326833e38a1,Njoroge Apartment,-1.2182396,36.76614939999999,shopping_mall,3.0867295109083805
 Westlands,Kitisuru,-1.2395542,36.7839651,8e5ce772ff7c1382aed01b8600f98356602a041d,Jiko Jiko,-1.2185148,36.7658376,shopping_mall,3.0858214001883866
 Dagoretti South,Uthiru,-1.2631329,36.7188955,31f52da99a6c7d6778d8660fa21374cd1fae99e0,Ndongoro Primary School,-1.2355598,36.7156296,primary_school,3.0854721246060124
 Dagoretti North,Gatina,-1.1655719999999998,36.85526373,162c4ea70759a2fb48a9efe1e135ca8e3ee7481c,KCB ATM,-1.170412,36.827937,bank,3.083327419576829
 Lang'ata,Mugumoini,-1.1991235,36.846741200000004,5a8cec8c276bbdf4e279ae3a32ed697646f0dd7a,W3mall,-1.221208,36.86353539999999,shopping_mall,3.0828848134082723
 Embakasi Central,Spring Valley,-1.2477029,36.78923560000001,5b1fdb68c62ed6863710bea09475eed49623c0dc,Kasuku Center,-1.2748229,36.794951,shopping_mall,3.0798789200865238
 Westlands,Karura,-1.2369881,36.83255910000001,aad67b55f4e45ede101671ac5ed4a235d42034d2,La Verne Primary School,-1.2348149,36.860193,primary_school,3.07958942633393
 Dagoretti South,Uthiru,-1.2631329,36.7188955,2a838c8a920384fa36f943e1f6c611438284d214,Absa | Branch | Premier Flagship,-1.264419,36.746564,atm,3.0772379043934035
 Lang'ata,Mugumoini,-1.1991235,36.846741200000004,696ad86c2bf695a28fe2e672bf021cbb5f63ec0c,Equity bank ltd-ridgeways mall,-1.225939,36.840021,bank,3.07198518427205
 Kasarani,Njiru,-1.2539022,36.9343299,3066d3812cf85232f34e61036551b7607e07701c,Faulu Bank,-1.2709463,36.9125658,bank,3.071453650353772
 Lang'ata,Karen,-1.3283746,36.7049676,4bd96aa86daa7415532c845465748eed286cd3b5,FLOWILMA SQUARE,-1.3374269,36.6788517,shopping_mall,3.0707858709175624
 Dagoretti North,Gatina,-1.1655719999999998,36.85526373,0b9d9ebed02afaf3c98e895118799d821b5e747f,Postbank,-1.170637,36.8281209,bank,3.067699825950995
 Dagoretti North,Gatina,-1.1655719999999998,36.85526373,05a57f471c2d33d0d84b32db137c75980a2466e7,Shell,-1.171454,36.8283236,gas_station,3.0636423895329994
 Dagoretti North,Gatina,-1.1655719999999998,36.85526373,32be69af4b5ea589b5a6ced6506072972cb01bfa,Shell Petrol Station,-1.1714418,36.82833170000001,gas_station,3.062474151170329
 Westlands,Kitisuru,-1.2395542,36.7839651,25c52661a82e3f5855005a029f1d763b3ef134fc,Stephen Kamuiru Primary School,-1.216521,36.768833,primary_school,3.062305653694625
 Dagoretti North,Gatina,-1.1655719999999998,36.85526373,33aeafb0a06439d60145ba612cc7ae9452ae8c10,Xcite & Cool Scent,-1.1691715,36.82793809999999,shopping_mall,3.062170474846684
 Lang'ata,Mugumoini,-1.1991235,36.846741200000004,eece65103e8f887f867e54371829b18a90684916,Co-operative Bank Ridgeways Mall,-1.2257632,36.8397636,bank,3.060157875810577
 Dagoretti North,Gatina,-1.1655719999999998,36.85526373,35324e34f5fc196a97f87f3d445612a8320db8a4,Biz Hub Mall,-1.1692034,36.82796629999999,shopping_mall,3.059529790647846
 Embakasi East,Upper Savanna,-1.3247280000000001,36.887724,4063e2c3afdaa429fb1a27e1f3871735b69ec2e0,Kencor petrol station,-1.3183633999999995,36.9144246,gas_station,3.0494702470883515
 Dagoretti North,Gatina,-1.1655719999999998,36.85526373,a7c0359351b988c6133fe717611360e50c146b62,Petrol Station,-1.1714658000000002,36.8284623,gas_station,3.0488705334322925
 Westlands,Kangemi,-1.2654258999999999,36.7525183,9e4e29046de3d9d2468dd4a9a23d53bbb220253c,KSG Library,-1.2393671,36.74393320000001,library,3.0488198901961776
 Lang'ata,Mugumoini,-1.1991235,36.846741200000004,80fde3c3dcbcf1edde21e8a1757b3a14c20b70a3,BARCLAYS,-1.2256824,36.83988770000001,atm,3.0479992058130496
 Dagoretti North,Gatina,-1.1655719999999998,36.85526373,757d7745c2fbd0716582754e2294df72458bb9d5,Jumbo Petrol Station,-1.1603548,36.8821914,gas_station,3.047381890115039
 Dagoretti South,Uthiru,-1.2631329,36.7188955,e79a1185a1abf4114ed640b71f48ac8e1f17be2a,Ma Naj Shop,-1.2357693,36.7172739,shopping_mall,3.0461153901926568
 Dagoretti South,Uthiru,-1.2631329,36.7188955,1369d188ad5eb6fc50af265d76029f63a504d769,Blessing Furnitures Kinoo,-1.2543736,36.69292000000001,shopping_mall,3.0455708702989774
 Dagoretti North,Gatina,-1.1655719999999998,36.85526373,a5c7a790bfc3d898002d2974a4b7712ba939c02b,National Bank ATM,-1.1714912,36.8285188,atm,3.043348910455978
 Dagoretti South,Uthiru,-1.2631329,36.7188955,6de3b2033908b3cd2335f6ed9ef523cb08084317,Way Of Life Gym,-1.2549578,36.692755700000006,gym,3.042863543128404
 Dagoretti North,Gatina,-1.1655719999999998,36.85526373,d74640525b715f23dd1daa590d38b5e5e58f0ba5,National Bank-Kiambu,-1.171459,36.828543,bank,3.0399518265312375
 Kasarani,Ruai,-1.2677339,36.9911112,dc82a5ba6ad1067aea4c3ea18f5ab8f9ae4beb51,Penucci Education Center Primary School,-1.2635823,37.0181422,primary_school,3.0383204540299573
 Dagoretti North,Gatina,-1.1655719999999998,36.85526373,33cc77c452eee760979e301d5ee1b6d4c39db9c9,Sache fitness,-1.1715337,36.82858820000001,gym,3.0368479078429895
 Westlands,Kitisuru,-1.2395542,36.7839651,e4aad801757bfa95cc13cf295c99ad3dabf36073,Wakai Building,-1.219095,36.7658456,shopping_mall,3.0366734711517305
 Dagoretti North,Gatina,-1.1655719999999998,36.85526373,6ece52f44678f3608513d3c8b4dd8dca73ff41f4,Family Bank,-1.1709156,36.82847720000001,bank,3.0347004832923163
 Dagoretti North,Gatina,-1.1655719999999998,36.85526373,f5c6da1d346a062ff1c656b8d28eed5e0c636e89,Ukristo Na Ufanisi Wa Anglicana Sacco Limited,-1.1709040000000002,36.82851,bank,3.030874605204601
 Westlands,Kitisuru,-1.2395542,36.7839651,e075506f33a94ada5a0b51df8bbec610db62bc18,Kari's Kinyozi,-1.2189774,36.7661021,shopping_mall,3.027715031153526
 Dagoretti South,Uthiru,-1.2631329,36.7188955,b160ef61fdccd5234f091aeacf21160206b274cd,"MPESA,EQUITEL,CO-OP SHOP",-1.2535733999999998,36.6933764,bank,3.027612715729271
 Dagoretti North,Gatina,-1.1655719999999998,36.85526373,67d813018f07284e16a08e73fd37b8a5e4ae7e9f,Dimkes Sacco,-1.17093,36.8285516,bank,3.026909067017016
 Dagoretti North,Gatina,-1.1655719999999998,36.85526373,c66b61a16cd08a844c3becc1495de643aecbc1f9,Family Bank-Kiambu,-1.1710048000000002,36.8285922,bank,3.0241349607274923
 Westlands,Kitisuru,-1.2395542,36.7839651,7ef0da4015bbab874016521ade569158a6f03e96,Kihara Market (108),-1.2187525,36.7664384,shopping_mall,3.022428592281552
 Dagoretti North,Gatina,-1.1655719999999998,36.85526373,6349feeeff600c0a6c0667d96d258b3adb5501d3,K-unity,-1.1716796,36.8287847,bank,3.0191492181443262
 Dagoretti North,Gatina,-1.1655719999999998,36.85526373,1e31370d349bc893de7df7c9c32737665ee4f3e8,Blessed Junior Nursery School,-1.1724089,36.8290026,primary_school,3.014959922596112
 Lang'ata,Mugumoini,-1.1991235,36.846741200000004,aeacf43e63f4bb974b069749fb07bd9024fdfe00,Absa | Atm | Nakumatt Ridgeways,-1.2254329,36.840196,bank,3.012710234712488
 Westlands,Kitisuru,-1.2395542,36.7839651,9843b8c718bdd063f7c722ea4ae53559dcc537e9,Ha Njoroge,-1.2184595,36.7669393,shopping_mall,3.0121483859014186
 Dagoretti South,Uthiru,-1.2631329,36.7188955,2ae9e0a65a01af04de01c620f57e4bca21011c76,Makutano Shopping Centre,-1.251255,36.6945602,shopping_mall,3.008611129531824
 Dagoretti North,Gatina,-1.1655719999999998,36.85526373,5f1d68bf542992c31cf2a26a37e5228653ae2f02,Kiambu Primary School,-1.1697055,36.8285268,primary_school,3.005831407600455
 Roysambu,Githurai,-1.2062932,36.9206391,e94aec4ba74b57c8444c5960ef28718c4e1b3b25,Sukari Presbyterian Academy,-1.1892322,36.9415956,primary_school,3.002560080317951
 Dagoretti North,Gatina,-1.1655719999999998,36.85526373,1b961a4223794131534c0ade9944e408141e1c64,Thingira Wa Gitau Wa Ng'ang'a Wa Mathu,-1.1791493,36.878601,shopping_mall,2.9998496653580413
 Dagoretti North,Gatina,-1.1655719999999998,36.85526373,ffa8bd7fc93bc7f5197c02db558f83f8ff595a49,St. James Academy Kiambu,-1.1703414,36.8287099,primary_school,2.9974134842960307
 Dagoretti South,Mutuini,-1.3,36.7,9d7db2775beabd0504b1c035741ac317fbe4de23,Mutaratara Learning Center,-1.2769531,36.6859893,primary_school,2.9970013681543506
 Lang'ata,Mugumoini,-1.1991235,36.846741200000004,3d292d0f746cc56cfd5edceb917f7f40cbf284d5,Ecobank ATM,-1.2252577,36.840087200000006,atm,2.9967793819522766
 Lang'ata,Mugumoini,-1.1991235,36.846741200000004,7c5cdd8753d9ade68fecedf02e3a9db3a53ff7f0,Chase bank (kenya) ltd-windsor,-1.2253040000000002,36.840305,bank,2.995898250174271
 Dagoretti North,Gatina,-1.1655719999999998,36.85526373,1fe46d0262fa2bd6f3d618bf275425c6f98db3d5,Christian Entrepreneurs Sacco Ltd,-1.1718316999999998,36.8290499,bank,2.994327704698211
 Roysambu,Zimmerman,-1.2103968999999999,36.89522120000001,6b9d32e7fee82a324fe85997b0df99722b621a7c,Absa | Branch | Garden City,-1.2319673999999998,36.8790694,atm,2.9942983356219455
 Kasarani,Njiru,-1.2539022,36.9343299,fb15755339a8429e2c52678597c0a4fad7154f05,DIGITAL AGE ENTERPRISES,-1.2703821000000002,36.91301370000001,bank,2.993676377757222
 Dagoretti North,Gatina,-1.1655719999999998,36.85526373,315ff736bda187819cd077e10b06298ef48966eb,Kongo Primary School,-1.1429628,36.8698444,primary_school,2.9894216786174503
 Dagoretti South,Uthiru,-1.2631329,36.7188955,4de64112b32024142e1e877b4dd9a77f14ad452f,Classic Pub Kinoo,-1.254572,36.69345200000001,night_club,2.9825207131641776
 Lang'ata,Karen,-1.3283746,36.7049676,24bf5d32898b49b28b6f489c093bc581d0637589,PCEA Amani Primary School,-1.3363364,36.6793665,primary_school,2.9785930063483628
 Dagoretti North,Gatina,-1.1655719999999998,36.85526373,98e3b54ed852e2bdf7abea08618ddabbd6a487a2,ACK St. James Primary school,-1.1703353,36.8289212,primary_school,2.9741897111964555
 Lang'ata,Karen,-1.3283746,36.7049676,4e7e5c64ad6f55dcec89341f26ceafc0ec3eb338,Masai Boys Primary School,-1.3311464,36.67835799999999,primary_school,2.9722018139884274
 Dagoretti North,Gatina,-1.1655719999999998,36.85526373,34ce0106179f5cb75839b65b738f48ef54e5760e,Kiambu Primary School,-1.1695951999999998,36.8288313,primary_school,2.9705332872467927
 Dagoretti North,Gatina,-1.1655719999999998,36.85526373,0680ee28b50fbe0fdc8fe3479c16c498e6d07e46,Standard Chartered Bank - Kiambu Branch,-1.1721344,36.8293549,bank,2.9694602389746505
 Dagoretti South,Uthiru,-1.2631329,36.7188955,7211dd6441c7fb4e4487ee2cff13d0744aa2aa50,Dottcom Traders,-1.2546174,36.69359470000001,bank,2.9658858692048766
 Dagoretti North,Gatina,-1.1655719999999998,36.85526373,3fcf928d9c24fde2c217f938e43e2995360b3bf1,Standard Chartered Bank - Kiambu Branch CDM,-1.1720518,36.8293903,bank,2.9634041451954847
 Dagoretti North,Gatina,-1.1655719999999998,36.85526373,4629f036a258872f467c163cd0ca55590f3bdd07,Stanchart ATM,-1.1720463,36.8294039,atm,2.9617899436499
 Embakasi South,Kwa Njenga,-1.3166386,36.884663,f4211a308f1659691b977fe2755acecf56ca622b,El- Shammah School,-1.309124,36.91023570000001,primary_school,2.9612056984399984
 Embakasi North,Kariobangi North,-1.3151376000000001,36.86733961,c9178b64d438de6b0930a3cf6663e3958f854144,Joseph Apudo Primary School,-1.296374,36.8484181,primary_school,2.9608333120447137
 Westlands,Karura,-1.2369881,36.83255910000001,25d24bcf2f6c1ca40ca6e3e2841c5b6ded277355,Highpark,-1.259653,36.81855979999999,shopping_mall,2.960155009881978
 Westlands,Kitisuru,-1.2395542,36.7839651,7d621f60b75954223d23873e182af1896b35551e,Gachie Trye Center,-1.2194018,36.766543,shopping_mall,2.9599964247434642
 Westlands,Karura,-1.2369881,36.83255910000001,a4a84464d5e9f5cd4defbde319d620e583fc1fe8,Utabibu Sacco,-1.2612219999999998,36.8215213,bank,2.959053410508119
 Dagoretti South,Uthiru,-1.2631329,36.7188955,9cdcd9e9f880c4c1845902f506e583d49d56d6b0,Jeddy Vision Primary School,-1.2533819,36.6941417,primary_school,2.9558802840655565
 Westlands,Kitisuru,-1.2395542,36.7839651,26b1179a9951f5aff03f85fa32d86078ead918a6,Njororo Shop,-1.2193736000000002,36.76663349999999,shopping_mall,2.9558082846270985
 Westlands,Karura,-1.2369881,36.83255910000001,5b7662cf0b5e7fbda48e4927e1566e3343c88339,Muthaiga Square Nairobi,-1.2615746,36.84266210000001,shopping_mall,2.9537508170740594
 Dagoretti North,Gatina,-1.1655719999999998,36.85526373,28d735c5f9ef214b84534e90f3faad05390f5267,Co-op Bank ATM - Banana Branch,-1.1748105,36.8304102,atm,2.9459479511739355
 Dagoretti North,Gatina,-1.1655719999999998,36.85526373,d3addc03a3ac3cb1bfe7da4fe1ac69d93277e581,Co-op Bank ATM - Simba Chai Sacco Branch,-1.1748105,36.8304102,atm,2.9459479511739355
 Dagoretti North,Gatina,-1.1655719999999998,36.85526373,501923ddd99ae36d4eed9803fb25663b054ff247,Co-op Bank ATM - Githunguri Kiambu Unity Branch,-1.1748105,36.8304102,atm,2.9459479511739355
 Makadara,Harambee,-1.290941,36.89721585,98c52334cca60db92f766db89bf90d9358c8dacc,Total Body Fitness Gymnasium,-1.3115165000000002,36.9139136,gym,2.9443379883260756
 Dagoretti South,Mutuini,-1.3,36.7,2fc207f17f511ecab26f4abd5bb262673ad22290,Olympus Fitness Centre,-1.2772734,36.6864502,gym,2.940099542904788
 Makadara,Harambee,-1.290941,36.89721585,7e6808eed5299fb5d86d04e444c18c8527648265,Total Fitness Connection,-1.3114977,36.9138707,gym,2.939713797312047
 Westlands,Kangemi,-1.2654258999999999,36.7525183,99d3ad9855c14fc8b89bc684b9da3777765ed7d6,Ascend Sports Limited,-1.239702,36.7463546,gym,2.939447411132351
 Lang'ata,Karen,-1.3283746,36.7049676,f68b1111bd34184b6b0a6dac96e6d9309e67a32b,Embulbul primary school,-1.3382281,36.680418,primary_school,2.938934717382483
 Westlands,Karura,-1.2369881,36.83255910000001,7e916383e3f470bd1d19bf18da30c1a85047ba59,Danish Embassy Royal,-1.2178966999999998,36.81429,embassy,2.936076940779648
 Embakasi West,Mowlem,-1.3247280000000001,36.887724,0a781d4b1d0a3d1e5c663f6e6cb113adc101bf6a,Kanyoro Plaza,-1.3136936,36.911733,night_club,2.9356481602341447
 Westlands,Karura,-1.2369881,36.83255910000001,8d1be246280419cc79c147261a3be8b392246809,Highridge mall,-1.2589742,36.8179351,shopping_mall,2.9340997375222515
 Embakasi North,Kariobangi North,-1.3151376000000001,36.86733961,ea9a6fa190ff09416cd5dc82e874398fcb528f05,PesaPoint POS Mupja Enterprises,-1.32264,36.842018,bank,2.934061294084904
 Dagoretti South,Uthiru,-1.2631329,36.7188955,f17aa2b401f40b2e04f8b4ec146b5f78ec681db1,Chase Bank - Eagle Chemist,-1.254964,36.693786,bank,2.933605160949128
 Dagoretti South,Uthiru,-1.2631329,36.7188955,5fff7ea04e52080d9aec6347eea627ea04e84a44,NicKo Gym & Fitness Studio,-1.2376653,36.72578920000001,gym,2.93189058825298
 Dagoretti South,Uthiru,-1.2631329,36.7188955,10786c07160d5c6ed37898042419f4588be587ed,Country Club Bar,-1.2547794,36.6938891,night_club,2.9291516281285896
 Dagoretti South,Uthiru,-1.2631329,36.7188955,5f0c651ffc9dba136df6c40621346d427f34667c,Club Country Kinoo,-1.254985,36.693841,night_club,2.9270725509879765
 Roysambu,Githurai,-1.2062932,36.9206391,ccc692cdb92c9dab8f58c540baf00e5988a586df,Kahawa Sukari Kiu River,-1.2105997,36.9466235,library,2.9262740410273613
 Dagoretti South,Uthiru,-1.2631329,36.7188955,eff47255d67e5aae795c243ca8a26efe6ee0f06f,Firm and Fit gymnasium,-1.2557152,36.6936258,gym,2.9259297858537043
 Westlands,Kitisuru,-1.2395542,36.7839651,dc768e9b5eaa9b9e456d39f205b85db5d81f8046,Gasolina Petrol Station,-1.2197866000000002,36.7665796,gas_station,2.9250916660514297
 Kasarani,Ruai,-1.2677339,36.9911112,b9ca58c0a3da5190c569b98468f511d6688107c4,Shell petrol station,-1.2762079,37.0160334,gas_station,2.9245517653975956
 Lang'ata,Mugumoini,-1.1991235,36.846741200000004,663bbc44f46c5597f8bc85bc6193a2723ffd2f5c,KCB,-1.2254138,36.8476423,atm,2.92322736014775
 Kasarani,Njiru,-1.2539022,36.9343299,73a2ad29206cbcf1b9f6ea2d96ce6f2c7c3d7002,Filna Beauty Shop,-1.2679165,36.9120776,bank,2.9218207111651004
 Kasarani,Njiru,-1.2539022,36.9343299,21259c59c34e0d78bc667e3252c3e9defcb4ae4d,Damashimwe Savings and Credit Co-Operative Society Limited,-1.2476544,36.90880080000001,bank,2.919989529814775
 Dagoretti South,Uthiru,-1.2631329,36.7188955,474d6ef6f0a45a5af6b7042f95360df662c202c8,Pesa Point,-1.2543837,36.69411470000001,atm,2.9197374466984654
 Makadara,Harambee,-1.290941,36.89721585,4d32d2fa087fdedeaa58c6b1a54ea4482221e58c,Jamii Fitness Center,-1.3113013,36.9137785,gym,2.916312878810617
 Westlands,Karura,-1.2369881,36.83255910000001,cf74b8b7ac485875720ae3a4224727dbed1db841,Naturopathy Yoga & Acupuncture Centre,-1.260546,36.821027,gym,2.914574294393226
 Dagoretti South,Uthiru,-1.2631329,36.7188955,7c0724bdb1b3c4e525296cb52c6c7f93937adea0,Neema Plaza,-1.2543133,36.69419309999999,shopping_mall,2.914147676261474
 Westlands,Karura,-1.2369881,36.83255910000001,edca65c1bf38c062510ccd47019c3d57494bca03,Deep Sea,-1.2542305,36.8128128,shopping_mall,2.9127341423339645
 Westlands,Karura,-1.2369881,36.83255910000001,e8483c68a760fe9da6d732adc791586eecdcac76,Arvind Pathak Naturopathy & Yoga Centre,-1.2605218,36.8210234,gym,2.912335051310224
 Dagoretti North,Gatina,-1.1655719999999998,36.85526373,04e80d5d363a0cbfde900e6aecfa71481cc3e2f9,Quick servises/ATM,-1.1723976,36.829980600000006,atm,2.909609921924727
 Dagoretti North,Gatina,-1.1655719999999998,36.85526373,ff845bbaf8c047597be598d2bfe2f9fa6d2198f6,KCB Quick Serve,-1.1724244,36.8300048,atm,2.907792768347719
 Dagoretti North,Gatina,-1.1655719999999998,36.85526373,5edc72d152d825f924aacfb253d97e1d81a104d6,KCB Kiambu Branch,-1.1722709999999998,36.829968,bank,2.9073274682305157
 Westlands,Kitisuru,-1.2395542,36.7839651,7f19b852169d14178cd95f7d6c691c30fe13fc42,Jaks barber,-1.2196438,36.7669916,shopping_mall,2.907129526042726
 Makadara,Harambee,-1.290941,36.89721585,dd51bc9ae3adb42f031f6d0309b4dcde40cda994,PesaPoint ATM KCB - Embakasi,-1.3114693000000002,36.9134281,atm,2.906538069229327
 Dagoretti North,Gatina,-1.1655719999999998,36.85526373,4f6cd18e74fb0dd4948bda4f4c82ddeaa9ef9710,KCB Bank,-1.1723911,36.8300114,bank,2.9061180118207814
 Dagoretti South,Uthiru,-1.2631329,36.7188955,7654bf09bda5de4393de9765ac9d16b73bc0c2f4,Equity Bank ATM,-1.254983,36.69406499999999,atm,2.9034866128024883
 Dagoretti North,Gatina,-1.1655719999999998,36.85526373,831ee2d30eec06fc1fb6c1a5d56f8a660ce95382,Geba Gym Equipment and Supplies,-1.1698227,36.829502700000006,gym,2.9008199646147066
 Westlands,Kitisuru,-1.2395542,36.7839651,9d0148a92e47defa1bf40bfe12126a3f0326a02b,Early Learners Primary School,-1.2192214,36.76760720000001,primary_school,2.8996638641855395
 Makadara,Harambee,-1.290941,36.89721585,f21e2ac1b1964e19d44f9289479bc5a64758c5b4,KCB Embakasi,-1.3113583,36.913463,atm,2.8992793615019057
 Dagoretti South,Uthiru,-1.2631329,36.7188955,3c37130d4dcdee8d494f0a10021a47cffa90614d,National Oil Corporation-Midrand,-1.2551458999999998,36.6940738,gas_station,2.896960422473003
 Dagoretti South,Uthiru,-1.2631329,36.7188955,ec7677fb4b19582622d23b9efc931225f9d81267,MIDLAND PETROLEUM GAS STATION,-1.2550755,36.69412670000001,gas_station,2.8937775948151905
 Dagoretti South,Uthiru,-1.2631329,36.7188955,8867a18d2e6d17c63529b0fbd0d1b97f6dea8705,National Oil Petrol Station,-1.2551448,36.6941159,gas_station,2.892545975080734
 Dagoretti North,Gatina,-1.1655719999999998,36.85526373,2dda65c5b9e0f582a9d5ab4ffeb55e39e3e0b430,Mogas,-1.1724551,36.8301579,gas_station,2.8922804079123092
 Dagoretti North,Gatina,-1.1655719999999998,36.85526373,154185eac787b59dd2fe6809b8952fe85f5f52c7,ASA Ltd,-1.1734595,36.8304741,bank,2.890283680284285
 Dagoretti North,Gatina,-1.1655719999999998,36.85526373,f982ee254bf53f24ceaa0935cad2d42f30cbc7ab,Circular Petrol Station,-1.1724649,36.83019480000001,gas_station,2.8886154886418076
 Kasarani,Njiru,-1.2539022,36.9343299,647f2c611d286a9441256c35c85f08e04d261750,Equity Agent,-1.274604,36.918606200000006,bank,2.88856668810704
 Dagoretti North,Gatina,-1.1655719999999998,36.85526373,e4fdc040fb12af7b0f25bc8cefa47a70fd2bcc59,Pamoja Women Development - PAWDEP,-1.1725302,36.83027,bank,2.882498597753862
 Dagoretti South,Uthiru,-1.2631329,36.7188955,e451d4d8cac38a8f028cca788ab731ddd4bf4b54,Imagelift Gym And Fitness Centre,-1.25574,36.69407100000001,gym,2.8777179103778234
 Embakasi North,Kariobangi North,-1.3151376000000001,36.86733961,657383dfc1ffe1a1c4b64d2d36b637273711cf84,First community bank,-1.3074941999999998,36.84265170000001,bank,2.871235670501363
 Westlands,Kitisuru,-1.2395542,36.7839651,9226d0b73b3561e1e41147d0545d3b020824c750,Zaki Furniture,-1.2197765,36.7673725,shopping_mall,2.8685457998761423
 Dagoretti North,Gatina,-1.1655719999999998,36.85526373,b9ae0b325a82dfc29a6be7aa51b96ed7f6fa0533,Post Bank - Kiambu Branch,-1.156919,36.830978,bank,2.864418421768915
 Dagoretti North,Gatina,-1.1655719999999998,36.85526373,891af5c63497c61ad300582c6205fdaa9459d3c2,Coop cash atm - kiambu road,-1.172489,36.830451,bank,2.8618982091065153
 Dagoretti North,Gatina,-1.1655719999999998,36.85526373,ce7dce32b4f08f94e79846058195dd0b32d5c72a,Co-op Bank ATM - Kiambu Branch,-1.1724918,36.8304521,atm,2.861864074523696
 Dagoretti North,Gatina,-1.1655719999999998,36.85526373,ff6cc20a441eb49ff7d5a4d99fbd7dfb2e5a6098,Emirates Sports Lounge,-1.1726996,36.83056870000001,night_club,2.8557063440330896
 Dagoretti South,Mutuini,-1.3,36.7,29e89039af574206cef2e09b2a60b2c6a561cc71,Equity Bank Agent,-1.277656,36.687341,bank,2.853608840002364
 Dagoretti North,Gatina,-1.1655719999999998,36.85526373,1ea6fe024447351607860a4bd96d119831147616,Delta Fuel Mart,-1.1720376,36.83048270000001,gas_station,2.845427730845879
 Westlands,Karura,-1.2369881,36.83255910000001,1fe7fa986f2861b5c51cb48acd955de1d67eb755,Diamond Plaza,-1.2583024,36.8184448,shopping_mall,2.840585706300744
 Westlands,Karura,-1.2369881,36.83255910000001,5b45c4bed516ff75d5249fbdc1cb104443df4d5f,Vegatable and fruit,-1.2617218,36.82627650000001,shopping_mall,2.8357774988824094
 Dagoretti North,Gatina,-1.1655719999999998,36.85526373,b5d5f448326b861e9ba90615de4322db2c1ddf16,PesaPoint ATM KCB - Kiambu,-1.172976,36.830849,atm,2.834561915174053
 Westlands,Karura,-1.2369881,36.83255910000001,cb46bade06fc3a849e7ad41db8c1cf1c0dd42a3b,KCB ATM - Highridge,-1.258251,36.8185,atm,2.832438328239902
 Westlands,Karura,-1.2369881,36.83255910000001,f86bfb3b9360bea1bedae89ac8e5eb7b5f1a6594,Libya Oil Kenya Limited,-1.261437,36.839766,shopping_mall,2.832412017732581
 Westlands,Kitisuru,-1.2395542,36.7839651,8ff4b4ffda0f15cb37ac55e359df2687ebb7328b,Embassy of Argentina,-1.227588,36.80640800000001,embassy,2.8258141028432235
 Westlands,Kitisuru,-1.2395542,36.7839651,addd5b747af1c5780223f080cdc7d5d22e09da79,FitPay Head Office,-1.2275359,36.8063369,gym,2.8215824272000747
 Westlands,Kitisuru,-1.2395542,36.7839651,22357ff76a4f2d2bb99affb226378bb61d5d347f,Embassy Of Argentina,-1.227583,36.80636199999999,embassy,2.821567676630186
 Lang'ata,Karen,-1.3283746,36.7049676,17f29e898d04b33bd6dc16a0d1da0970cdf40bbd,Baraka Joy Education Center Primary School,-1.3371726000000002,36.68114370000001,primary_school,2.8215188449997646
 Westlands,Karura,-1.2369881,36.83255910000001,d954ffd8f8f3fb2da5b11b8542a4459a2b01f772,钻石广场,-1.2581584,36.81855059999999,shopping_mall,2.82075433103077
 Westlands,Karura,-1.2369881,36.83255910000001,6f0c85c4edfbfd3647155e14f6912b4b6c97da24,The Body Bar,-1.2581584,36.81855059999999,gym,2.82075433103077
 Westlands,Karura,-1.2369881,36.83255910000001,4d72ab0564e39b894b2e5551559da7b0c8791b82,印度手机,-1.257876,36.818176,shopping_mall,2.8180239520697343
 Lang'ata,Karen,-1.3283746,36.7049676,b17e8939140b5db21c5a798cd8d001fb96a09f5b,Evertone Primary School,-1.3424983999999998,36.6839571,primary_school,2.812767526331613
 Westlands,Karura,-1.2369881,36.83255910000001,d57758ea62959d4fb15489a35df2df8015245227,Fun and shop ltd.,-1.257978,36.81844099999999,shopping_mall,2.81083319194534
 Kasarani,Njiru,-1.2539022,36.9343299,bc528a1216a46c6d4c45c041ee1fa2c005f92a9b,Kenya Women Finance Trust,-1.2688171999999998,36.9139123,bank,2.809364195630664
 Westlands,Karura,-1.2369881,36.83255910000001,eaf43baa7ca81378971ece582f7a8ec3bc7af107,Mobile Plaza,-1.2612835,36.8395259,shopping_mall,2.808586276098668
 Mathare,Hospital,-1.2616553999999998,36.84871953,7826bca2ce9c77dc570ef601e44811e2fdd481fe,PesaPoint POS Home Choice - Ngara,-1.277934,36.82939,bank,2.8078395274250227
 Dagoretti North,Gatina,-1.1655719999999998,36.85526373,1306ae4fdee0925be1c8889ff93a1e9652def66d,Alimos Enterprises,-1.1733616000000002,36.8312292,gas_station,2.8070825582962318
 Westlands,Karura,-1.2369881,36.83255910000001,5e18670dd0a927ae5efd09b2f656fcc2949eac2c,Smart Gyms Diamond Plaza 2,-1.2584925,36.8193674,gym,2.8033006448971407
 Westlands,Karura,-1.2369881,36.83255910000001,cbfa72c4b3116ef44af9f97db82cfd27f9805499,OiLibya Plaza,-1.261226,36.83953770000001,shopping_mall,2.8028069228204546
 Westlands,Karura,-1.2369881,36.83255910000001,32adc476d5a048f26afec937fa05b0630acb6fbf,Diamond Plaza 2,-1.2582806999999998,36.8190409,shopping_mall,2.8025346212477578
 Dagoretti South,Uthiru,-1.2631329,36.7188955,e3032d08a93f2b5ce5e806fd80d056775e938e6e,Home Front Entertainment,-1.2393525,36.7272151,shopping_mall,2.7995814100362053
 Dagoretti South,Uthiru,-1.2631329,36.7188955,dcc8b9b054458e26b099e6d29f810c1e93309619,Classic Villa Resort,-1.2385865,36.7245485,gym,2.799089039581592
 Lang'ata,Karen,-1.3283746,36.7049676,36fdd5d3b2c25a7bb3c28518874da627be821a11,Waziri Palace,-1.3500126,36.7178445,gym,2.7978978267105346
 Westlands,Karura,-1.2369881,36.83255910000001,137e14e557ac235c692d34b256d352ca8405e952,PJ Centre,-1.2566540000000002,36.8168391,shopping_mall,2.7975049696656864
 Kasarani,Mwiki,-1.2322833999999998,36.9275102,0f267feafffa609a190c353c173d3649d62dffd5,Mhasibu Mwiki,-1.2304942,36.9525928,shopping_mall,2.79374703153913
 Westlands,Karura,-1.2369881,36.83255910000001,f1001ab4cf6e7a473b42ab509706edc57c4eac70,Royal Danish Consulate,-1.218067,36.816004,embassy,2.7935394318351476
 Westlands,Karura,-1.2369881,36.83255910000001,8bb06df2e9050c4a7378c0a73eda4bcdebfc3495,Mall nimac homedecor,-1.2547016000000002,36.8147379,shopping_mall,2.791902344085985
 Kasarani,Ruai,-1.2677339,36.9911112,c78799cb655f96afe09660a2a7bb700978bfd98c,Petunia Primary School,-1.2651733,36.9661127,primary_school,2.7918211529812695
 Dagoretti South,Uthiru,-1.2631329,36.7188955,57e3a967b64fc4ea5ebf2bd8b6fd99e65cf37ac5,T A C C School,-1.256189,36.69475429999999,primary_school,2.7908417590003327
 Westlands,Kitisuru,-1.2395542,36.7839651,0d1351e156f9efad5edd324fc19ed15cb2f87eb5,St Michael Primary School,-1.2211333999999998,36.7668937,primary_school,2.790599650971319
 Dagoretti South,Uthiru,-1.2631329,36.7188955,af53696bc6d9f59e694966f91cc0553b1824c129,Opposite Mugaa Apartments,-1.2396996999999998,36.7278964,shopping_mall,2.7894227905974542
 Dagoretti South,Uthiru,-1.2631329,36.7188955,36b68249d716da62aa4e1e01a0aaa0f171a00fa8,Faulu Kenya - Kawangware Branch ATM,-1.2809229,36.73660220000001,bank,2.788901227831916
 Dagoretti South,Uthiru,-1.2631329,36.7188955,9696c95f4957cfc7b6ff93118c35cdab0a37291f,Faulu Kenya - Kawangware Branch,-1.2809229,36.73660220000001,bank,2.788901227831916
 Lang'ata,Nairobi West,-1.3087022,36.823097499999996,e54d5d1a85ffba674e9f45c9db3280e4e5f3ec3c,Honorary Consulate Of The Slovak Republic,-1.289634,36.806798,embassy,2.7872991397765583
 Kasarani,Ruai,-1.2677339,36.9911112,690af8dc8340174ccc3fd9d275715dfbd84a546c,Kadamawe Junction,-1.2629573,37.0157105,shopping_mall,2.7840032143527362
 Westlands,Kitisuru,-1.2395542,36.7839651,2c1e87163bb669a5dccf1ac27f698c5dd18a2fd0,Car Wash Mnada,-1.2203745,36.76786329999999,night_club,2.7825901337889323
 Dagoretti South,Uthiru,-1.2631329,36.7188955,27d96e7a6fffac67b96e3a61494e35b13b34af29,Kabete Kings Academy Primary School,-1.2396391000000002,36.7273821,primary_school,2.775785813087359
 Dagoretti North,Gatina,-1.1655719999999998,36.85526373,11948a7b7a3f27ff280c54c93959a941e7f2678d,Jamii Bora,-1.173257,36.8315061,bank,2.774233762941535
 Dagoretti South,Uthiru,-1.2631329,36.7188955,003b5c57464207fff0f9a8430a724d70c6550569,Damson Gas Mart,-1.2395744,36.7270763,shopping_mall,2.7712216989209217
 Westlands,Karura,-1.2369881,36.83255910000001,93eddb1efd06ead42d55bc92993a311b4b3f9432,Sky Mall,-1.2571961,36.8180089,shopping_mall,2.7669289685087746
 Westlands,Kitisuru,-1.2395542,36.7839651,7fac0479092287c64909ecdd9a5e97a0affb6652,Goodhope Primary School,-1.2210945,36.7673188,primary_school,2.761927622258206
 Dagoretti North,Gatina,-1.1655719999999998,36.85526373,14024dc043e45dc09a7ac44315251ddfbc92ff03,National Oil Corporation-Kiambu,-1.173368,36.831702,gas_station,2.757384419314186
 Dagoretti South,Uthiru,-1.2631329,36.7188955,3b3c31ff760f377ee9f712a1cbda867bd4e94f16,Chegge Kanyi Cresent,-1.2397188,36.7270411,shopping_mall,2.7547806467305618
 Dagoretti North,Gatina,-1.1655719999999998,36.85526373,a214e4716917eafaa32a272dfd12e279aabd276e,Faulu Microfinance Bank,-1.1734481,36.8317568,bank,2.7544204058655484
 Westlands,Kangemi,-1.2654258999999999,36.7525183,8db5e306b197d85452fc65ce944a4ca761addf19,The Hippo’s Den,-1.2414642,36.7587814,night_club,2.7521603696686023
 Westlands,Karura,-1.2369881,36.83255910000001,11fa4b81f4f020d0175b51be8836b5728cffb151,Embassy of Qatar,-1.2179778,36.8167017,embassy,2.750729845069783
 Makadara,Harambee,-1.290941,36.89721585,9bf90cf9366f64c56fec0130530288445a9a6e4a,PesaPoint POS Innscor Bakers Inn Embakasi,-1.305092,36.917517,bank,2.749478756634055
 Embakasi East,Embakasi,-1.3247280000000001,36.887724,aa8e884b020595a3574c5d34a296ae2f25305b28,PesaPoint POS G4S Ltd,-1.317717,36.91137999999999,bank,2.7411277915817442
 Kibra,Laini Saba,-1.31234835,36.79611435,674a62d6b8d882189c62e8ee6c4fef6a63497648,Embassy of Slovakia,-1.2898273999999998,36.8061423,embassy,2.7394112612230694
 Dagoretti South,Uthiru,-1.2631329,36.7188955,376aee470d31ebb7d0cecefc0fb524e1cdba1416,Post Bank - Uthiru Branch,-1.280165,36.736629,bank,2.7319936057932317
 Kasarani,Ruai,-1.2677339,36.9911112,2f4a4ba9482092a95f655c63c207700cf74fdad6,Simbara Corner,-1.2593958,37.0142269,shopping_mall,2.7301512801556562
 Dagoretti South,Uthiru,-1.2631329,36.7188955,7cd97f014d89f918ae01a0bef3aab0839b7edd02,Uthiru Genesis Primary School Kinoo Branch,-1.2497,36.6983545,primary_school,2.7269220304614175
 Westlands,Karura,-1.2369881,36.83255910000001,f7ba70ecf18efaa152d901364a56e8498319b637,Iraq Embassy,-1.2293303999999998,36.80925180000001,embassy,2.725668216425533
 Lang'ata,Nairobi West,-1.3087022,36.823097499999996,930ffba68d0d6a40f9f22d6c3f098c33d7223e2d,"Kaloleni Primary School, Makongeni",-1.2985034,36.84539729999999,primary_school,2.724354535944855
 Westlands,Kitisuru,-1.2395542,36.7839651,9fd4f71cb91b6b14818b35f2800420f79ac76210,Lower Kihara Primary School,-1.2179155000000002,36.7727409,primary_school,2.708714406937121
 Lang'ata,Mugumoini,-1.1991235,36.846741200000004,794d29daee25e4edb878f854a0e52a08628e6dcb,Hope Educational Centre Primary School,-1.2072938999999998,36.8696763,primary_school,2.7050288407788825
 Westlands,Kangemi,-1.2654258999999999,36.7525183,1348ec63d7e90379709c81cf249896d1e84a0426,Iran Embassy iranconkenya@gmail.com,-1.2413296,36.7491458,embassy,2.7037906778960408
 Roysambu,Kahawa,-1.1869631,36.912022,4522411f7ee2f8803a818f566a48707fc83c8a5d,National Bank ATM,-1.1787745,36.93493270000001,atm,2.703173274442708
 Mathare,Hospital,-1.2616553999999998,36.84871953,1ca1d6a64882fb6d48b5411eb9b8b4add4457eb4,PesaPoint POS Innscor - Parklands,-1.263877,36.824524,bank,2.699390869251017
 Dagoretti South,Mutuini,-1.3,36.7,f17bc453e68eaa4afe03d1a93fe3ad062d5ab442,"Wa Martin General Shop, Thogoto, Ndaire",-1.2836146000000002,36.68207859999999,shopping_mall,2.698063453480096
 Roysambu,Kahawa,-1.1869631,36.912022,26994550df84575389f178b37d00880cb9cb615a,Equity Bank ATM,-1.1788128999999998,36.9348579,atm,2.693911702278254
 Westlands,Kitisuru,-1.2395542,36.7839651,9863e40ad2592c8ecbc7ba3b13f44947743d140e,CrossFit Kwetu,-1.232892,36.807274,gym,2.693350086904808
 Lang'ata,Mugumoini,-1.1991235,36.846741200000004,059d7ffd59897d9dd59d43eee9e864324633b724,Amazing Grace Apartments,-1.2082516,36.86917739999999,shopping_mall,2.6911628860064716
 Westlands,Kitisuru,-1.2395542,36.7839651,388becb27ca72221859dd39d1d6fab34c5c34731,Herbivore Garden Centre,-1.233108,36.807262,shopping_mall,2.685566330062735
 Westlands,Karura,-1.2369881,36.83255910000001,63f48b790239af868a7cfd31881018f68d5916ec,Embassy Of The United States Of America,-1.228315,36.81000700000001,embassy,2.6845042514874877
 Westlands,Kitisuru,-1.2395542,36.7839651,9cfd8fbcff8b18c40b07558c8c8dff27db445c91,Peponi House Preparatory School,-1.240277,36.759817,primary_school,2.684034121730593
 Dagoretti South,Uthiru,-1.2631329,36.7188955,f779a3fd14ce450adce30b6602356239da3af80e,Kabete Market,-1.240232,36.72653590000001,shopping_mall,2.682697132805623
 Kasarani,Mwiki,-1.2322833999999998,36.9275102,d0a1c264735d9c8ecb7cfa977a9c9931d62124ad,St. James primary school,-1.244777,36.90684999999999,primary_school,2.6825484615963435
 Mathare,Hospital,-1.2616553999999998,36.84871953,95e987b5a68b21628650eb067b1af0a0d2128bf2,PesaPoint POS TSS Poppin Service Station,-1.2759881000000002,36.8293125,bank,2.6805681501421437
 Embakasi Central,Spring Valley,-1.2477029,36.78923560000001,7c6c6f166660727d6bb5001db22ec79c58fd4685,Post Bank,-1.2665274,36.8043226,bank,2.6805575133675914
 Embakasi South,Kwa Njenga,-1.3166386,36.884663,cf7aa66e8140e5fbe8f4a3412ee4e51d21d4ee5b,Good Testimony Junior School,-1.3105211,36.9079972,primary_school,2.6799879283491626
 Makadara,Harambee,-1.290941,36.89721585,727a9386fc295f524aaf9e71c5180c747f435047,wanandege sacco bank,-1.309681,36.912294900000006,bank,2.672664687027448
 Westlands,Kitisuru,-1.2395542,36.7839651,fb4fb6326a367c23d057f36c2e85d375ca4cae07,KA Burn Stage,-1.2204777,36.76931679999999,shopping_mall,2.672522403942517
 Embakasi North,Kariobangi North,-1.3151376000000001,36.86733961,65333d5a9011d86ea0b20f1a0c0a2ac5a4c7e1d2,Total petrol station-enterprise road,-1.3085875,36.844245,gas_station,2.6669685970032755
 Embakasi South,Imara Daima,-1.3285901000000002,36.8743999,c26bdf7108759b7785edb6f0258d896d91eff460,PesaPoint ATM Total Mombasa Road,-1.3260596000000002,36.8505344,atm,2.66621525532703
 Westlands,Karura,-1.2369881,36.83255910000001,f96749fe3b72c6320816f1a33d42e6eedd923715,Embassy of Brazil,-1.2316665,36.8092044,embassy,2.661228002874816
 Dagoretti South,Uthiru,-1.2631329,36.7188955,a67f3ee71ef0c21981811587765bf809d9cbd7ca,KCB Agent,-1.2841790000000002,36.73031870000001,bank,2.6608915990399873
 Westlands,Karura,-1.2369881,36.83255910000001,20d0b5a3200eac88e72e35429af414c34425414a,Yoga Fitviva Africa,-1.2519981000000002,36.81391479999999,gym,2.65945881497049
 Westlands,Karura,-1.2369881,36.83255910000001,2c909139a5268164fbce7a8577cc1e06771457c2,Embassy Of Brazil,-1.231837,36.809202,embassy,2.6573422564843376
 Embakasi Central,Spring Valley,-1.2477029,36.78923560000001,d9c26869932f1b1cfc714541e184de882b2ca5c5,Co-op Bank ATM - Kobil Gigiri Branch,-1.2323282,36.8075304,atm,2.6552260729837753
 Westlands,Karura,-1.2369881,36.83255910000001,128135ae54f40a1963142486d57ac32e98918559,Embassy Of The Bolivarian Republic Of Venezuela,-1.232605,36.80908400000001,embassy,2.6531594355001937
 Lang'ata,Nyayo Highrise,-1.31600475,36.80173345,4a15828b3f75d12684171d8987337626cb6410e4,fit and slim,-1.2923816,36.8051885,gym,2.6530394206872026
 Westlands,Kitisuru,-1.2395542,36.7839651,f764abac2e4b0ee7b3c80e39ba1c7d0f980966a6,Standard Chartered Bank Muthaiga,-1.228647,36.805205,bank,2.6528222678352282
 Westlands,Kitisuru,-1.2395542,36.7839651,6e7a6f5b03bf73b522586d40393c7a0a3244f352,Barclays ATM,-1.2285078,36.8051326,atm,2.652792226780234
 Kibra,Sarangombe,-1.31226715,36.77745932,9094dab07ac9fa4b3fbc3ab3626b3f578e8563b9,PesaPoint ATM KCB - KWS,-1.335965,36.78019000000001,atm,2.6508423016416067
 Westlands,Karura,-1.2369881,36.83255910000001,461ee97b0c15dcc724632f83483f7c5aefc04d1e,"Mustard Seed Shop, Bookshop and Mpesa",-1.215388,36.8224526,shopping_mall,2.649952765360273
 Westlands,Kitisuru,-1.2395542,36.7839651,f9e55967b506935f692c7e02c4bd8f8d19968cb7,CFC ATM,-1.2286687,36.8051863,atm,2.649872733975522
 Westlands,Kitisuru,-1.2395542,36.7839651,39aa94d0bad9a00119b9a6a132e232e5fa0ad910,Standard Chartered Bank ATM,-1.228657,36.80517800000001,bank,2.64964628765882
 Ruaraka,Babadogo,-1.2433103,36.8910881,d5408c1249a730f70b9e8c8c48c44cec20ff3b15,Co-op Bank ATM,-1.2601885,36.8742438,atm,2.649509529717936
 Westlands,Karura,-1.2369881,36.83255910000001,9edb43261071950f224540fc8b5a0637abc68d75,Angel's Nest,-1.2591187,36.823713,shopping_mall,2.6483700568066095
 Westlands,Karura,-1.2369881,36.83255910000001,1afcedf526d432d1e487359f7daa47704cf29691,Embassy Of Italy,-1.2326483999999998,36.8091271,embassy,2.647569847279403
 Westlands,Karura,-1.2369881,36.83255910000001,39f53523277c110c0aad9b832d4897707162e399,Fitviva Yoga and Fitness,-1.2510572,36.8133295,gym,2.647350990450052
 Westlands,Kitisuru,-1.2395542,36.7839651,8452124f73d855c59b14e6394f50a505d60c7a56,Commercial Bank of Africa ATM,-1.2285936000000002,36.8051219,atm,2.6473382147010676
 Westlands,Kitisuru,-1.2395542,36.7839651,bdd09b968d570aebf1b3a54103e87f7dfbf0dd09,Chase Bank ATM,-1.228658,36.8051219,atm,2.644053252887851
 Westlands,Karura,-1.2369881,36.83255910000001,c19a9c75ae78af97472f8d174172c9ee4ad705cf,Yoga Fitviva,-1.2519321,36.8140547,gym,2.642756234216514
 Roysambu,Kahawa,-1.1869631,36.912022,a136259ef2517a010120ac731401b28c95b304dc,Lecture Rooms,-1.180093,36.9347932,library,2.6425930594016767
 Mathare,Hospital,-1.2616553999999998,36.84871953,e2561607d6ec14f6b49bda5656b033d49f0b2aa5,PesaPoint POS Kamae Investments,-1.278508,36.831965,bank,2.6404470114930927
 Lang'ata,Karen,-1.3283746,36.7049676,832e1426d64391461a84619ed37b52a59ab4c0dc,K C B Management Centre,-1.3260021999999998,36.7285872,bank,2.637236821301081
 Embakasi North,Kariobangi North,-1.3151376000000001,36.86733961,d0c0459833dd790548f9a539afb1639f3f3fcc4c,SIA PREFAB HOUSING,-1.323299,36.845085,shopping_mall,2.633486075075046
 Roysambu,Kahawa,-1.1869631,36.912022,86fa7788119db8cf3b2c351f5771d92266d9d910,KCB Mtaani Wycliffe Kimutai Githere Kigerea,-1.1825,36.935278,bank,2.6309433025862012
 Westlands,Kitisuru,-1.2395542,36.7839651,72385e959ba7cade9e4e86be9f77722af5908f36,PesaPoint POS Abbany Enterprise,-1.228706,36.804918,bank,2.621478415121889
 Roysambu,Kahawa,-1.1869631,36.912022,fb49560f104c325a6a55985898cf08ff2c291937,Gas Tank,-1.1770976999999998,36.9334227,gas_station,2.6182198785748376
 Roysambu,Kahawa,-1.1869631,36.912022,0e8b7bd6adf368dc2a225462cd562b0104b4b81a,Kenyatta University Moi Library (Old Library),-1.1802427,36.9346055,library,2.6178412461414897
 Westlands,Kitisuru,-1.2395542,36.7839651,8da9ac78e9e1be3c3e4bd16f701a02f7685541bb,Ecobank,-1.2288403,36.8049502,atm,2.6178344900618455
 Kasarani,Ruai,-1.2677339,36.9911112,c0d7a39de2bee002c45db0ae205f7cdb28e2fa47,Kwa Horo,-1.258904,37.012907,shopping_mall,2.61272396952153
 Westlands,Karura,-1.2369881,36.83255910000001,864edba202e99edfd86a06ff2d3b8451477714db,Embassy Of Senegal,-1.2297788,36.81017519999999,embassy,2.612694969291144
 Mathare,Mlango Kubwa,-1.2658072,36.8456235,9522e726dd4a5ea7a6a1a10281173ded902b0bdc,PesaPoint POS Logical Links - Muthurwa Market,-1.285694,36.833091,bank,2.611961488334326
 Embakasi Central,Spring Valley,-1.2477029,36.78923560000001,2bd4b9755103380f322fc6bdd72b3a3938a8a8bc,KCB Mtaani - Amos Njuguna Ndungu,-1.266252,36.803669000000006,bank,2.611539222587034
 Embakasi North,Kariobangi North,-1.3151376000000001,36.86733961,8e237ca79837ac25c95eb5bd8a3aeff686572c0a,ARISE OUTREACH CHURCH MTONGWE WORSHIP CENTER,-1.3064257,36.8455669,gas_station,2.6054041496943037
 Roysambu,Githurai,-1.2062932,36.9206391,a5bb6e7d96c2385d6fb8d83a03a17fba0e5f232b,The Royal Pets,-1.1928849,36.9398564,shopping_mall,2.6035674177047583
 Westlands,Kitisuru,-1.2395542,36.7839651,9e23e53ec23be70374f18e89ddf1cdbd73ff4448,Chase Bank,-1.2290441,36.8048859,bank,2.6012273876824685
 Lang'ata,Mugumoini,-1.1991235,36.846741200000004,80a9f7a37c5b09dc55f64ee520e9da1886c3aa75,Man Fashion b hz,-1.190861,36.8686178,shopping_mall,2.5981573891451455
 Westlands,Kitisuru,-1.2395542,36.7839651,b84315b52c7586511f97737b8805fc0672d08563,PesaPoint ATM,-1.2290763,36.8048537,atm,2.596424729190811
 Lang'ata,Mugumoini,-1.1991235,36.846741200000004,c1e06d254f533f453a6d766c362e49ad0c09e7c2,Kencom Sacco Runda Ridge,-1.1976941,36.8234984,gym,2.587174569850789
 Westlands,Karura,-1.2369881,36.83255910000001,f5b2cec0dd0aafa6c78ebb9f1007bcffc4dc00f2,Total - Limuru road,-1.2594425,36.8264616,gas_station,2.585568679536251
 Lang'ata,Karen,-1.3283746,36.7049676,2724b5995d2c700f4e8d0ffb36638db01d618128,Rehoboth Building - Karen,-1.3127746,36.7222306,shopping_mall,2.585212699180367
 Embakasi Central,Spring Valley,-1.2477029,36.78923560000001,528a15560e171473e441deb9ffcadc46d96800a6,The Us Embassy,-1.2343935,36.808306,embassy,2.5838672240283134
 Mathare,Hospital,-1.2616553999999998,36.84871953,f90d9cf632268483a4aff77250f704d2a2b85bc8,PesaPoint POS Nat Mackinon Station,-1.284155,36.842957,bank,2.5809327689740416
 Westlands,Kitisuru,-1.2395542,36.7839651,b3891286c34364d92c66d16e28849d07c41aa4fb,Souk,-1.2295275,36.8048986,shopping_mall,2.578827524842155
 Westlands,Kitisuru,-1.2395542,36.7839651,3adaa305c48a029921e7dec35e6b4a16f3c21b04,The Village Market,-1.2294041,36.80480290000001,shopping_mall,2.5752196682823603
 Westlands,Karura,-1.2369881,36.83255910000001,7596ed202b0e248d40c97504b72860977907eaff,Royal Danish Embassy,-1.2204700000000002,36.816347,embassy,2.5716736764583406
 Westlands,Karura,-1.2369881,36.83255910000001,e23e92f9ac6d9e39ab55ebe475f213249c9f1ae0,Total Limuru Road Service Station,-1.2592865,36.826377,gas_station,2.5713373226460683
 Westlands,Kitisuru,-1.2395542,36.7839651,4b60e3f668f29388af168d3c9098d2fe0f602401,I&M Bank Atm at Village Market,-1.22876,36.80442999999999,atm,2.5706498201123082
 Westlands,Kitisuru,-1.2395542,36.7839651,c2c6002505ff2e41c8bed5993f1f3d5963d68f33,Consulate General Costa Rica,-1.22876,36.80442999999999,embassy,2.5706498201123082
 Westlands,Kitisuru,-1.2395542,36.7839651,9d5a850d2b8d81f51226fa89fd931c162e13aabc,Equity Atm Village Market,-1.2364104,36.8068486,atm,2.566229010530668
 Roysambu,Kahawa,-1.1869631,36.912022,3b4a55e73685bd330d3b1ad097af33027ea4766e,KASALANI GAMERS,-1.174758,36.931501,gym,2.554028297291658
 Dagoretti South,Uthiru,-1.2631329,36.7188955,ab1c42127bd173048c773ade56a6f0bef225062f,Total -uthiru,-1.240177,36.718586,gas_station,2.551208722376038
 Westlands,Kitisuru,-1.2395542,36.7839651,44307e685fd7266a53601f70481bd67498da6c44,Kwa Kamau Shop,-1.2188007,36.7741994,shopping_mall,2.5486994090311432
 Westlands,Kitisuru,-1.2395542,36.7839651,7119b11766f9fff01363ddfe13b0b8b5e7888716,NAIROBI ORGANIC SPA,-1.2308192,36.8051158,gym,2.5424213166371143
 Embakasi Central,Spring Valley,-1.2477029,36.78923560000001,b47c710ddee6e5f4765586593c5999fa410cf8d9,National Bank-Westlands,-1.26284,36.80637700000001,bank,2.5409003905946674
 Embakasi Central,Spring Valley,-1.2477029,36.78923560000001,e06a81f2582efa2ebd3a2f2eb0bc9f0e8589e241,Chase Bank - Lion Bureau De Change Ltd,-1.264522,36.804702,bank,2.5388542851441525
 Embakasi Central,Spring Valley,-1.2477029,36.78923560000001,018f8d58072b3b16715c5e4e0af6641ec9e6a21c,Chase Bank - Pharmart Chemists Ltd - Woodvale,-1.264522,36.804702,bank,2.5388542851441525
 Dagoretti South,Uthiru,-1.2631329,36.7188955,edd9843778ee9fd497769066f2e43a3084e435ae,New Way Of Life Gym,-1.2576671,36.6967326,gym,2.5360675459820485
 Roysambu,Kahawa,-1.1869631,36.912022,525fe9cac732ebb6f8faf9acb1bd2f5179e68a7c,PesaPoint POS Caltex - Thika Road,-1.184346,36.93464000000001,bank,2.5296628307609805
 Westlands,Karura,-1.2369881,36.83255910000001,3575689291e8c47d9a00a4b5075b0643314a1303,Pency unique Investment and Services,-1.2370674,36.809805,gas_station,2.527978000737036
 Kasarani,Njiru,-1.2539022,36.9343299,370644509c29d13803b3b8cd19dc865db1c26fbf,Finmark Educational Centre Secondary School,-1.2528116000000002,36.9116097,primary_school,2.527088476964222
 Dagoretti South,Uthiru,-1.2631329,36.7188955,fcfb6cec385180b353c94165301513a43fffd4fa,"Bike sales, services and repairs- Bens",-1.2560764,36.6972847,shopping_mall,2.5257327490275014
 Westlands,Karura,-1.2369881,36.83255910000001,a6f78a4cfd8e1104d3b9b2d6b959ad1e0ca83c36,Mozambique High Commission Residence,-1.217971,36.82013399999999,embassy,2.52418525530494
 Roysambu,Roysambu,-1.2188396000000001,36.88673920000001,961d68096696e64669db41e9b3f1a2141c1803d6,Babadogo catholic primary school,-1.241308,36.883515,primary_school,2.5223679323457007
 Westlands,Kitisuru,-1.2395542,36.7839651,94b8b1909124e8f93014ec686fc1aeb24e4fb619,Children's Play area,-1.2297732,36.80444200000001,gym,2.52128340580491
 Mathare,Hospital,-1.2616553999999998,36.84871953,15942d36a6eb1c6ddaf951c697ee7bfea5229725,PesaPoint POS Total Parklands Jaira,-1.2590704,36.8261809,bank,2.5204251098898744
 Kibra,Sarangombe,-1.31226715,36.77745932,e90887ea9a7c45c7e727da1c1c1f1df432a3d11d,Gas Station,-1.3347368999999998,36.7803906,gas_station,2.5180996895060836
 Dagoretti South,Uthiru,-1.2631329,36.7188955,b6b9246777ad4a009468076e23900093f47c388f,PesaPoint POS Oil Libya Ghaken Fuel,-1.2565198999999998,36.6972364,bank,2.516000208951243
 Lang'ata,Nyayo Highrise,-1.31600475,36.80173345,d5c3f92d83e6d79bb78820c5d35d297a11427581,Co-op Bank ATM - Upper Hill Branch,-1.2987109,36.81623190000001,atm,2.5075225494695794
 Mathare,Hospital,-1.2616553999999998,36.84871953,026454851f2546d9d7a1994a0586ad7bb5dc9003,Chase Bank Xpress Parklands Branch,-1.2591408000000002,36.82629759999999,bank,2.506660669951319
 Westlands,Karura,-1.2369881,36.83255910000001,005d3c163069add1e975e29c3fa2bf5b0259de93,Gigiri Service Station,-1.2376524,36.8100122,gas_station,2.5060301121509343
 Roysambu,Roysambu,-1.2188396000000001,36.88673920000001,831c42b49bdedc09b4c5de56428280d1e6cbd890,Agape Glad Kids Education Center Primary School,-1.2412319,36.8841277,primary_school,2.505204441711763
 Westlands,Karura,-1.2369881,36.83255910000001,38416f2a51ec287f1bd9200d04cc263e566f5e5b,Embassy of Italy,-1.2361919,36.8101266,embassy,2.4938035943869545
