constituency,ward,clat,clon,place_id,place_name,place_lat,place_long,place_type,distance_km
 Dagoretti South,Mutuini,-1.3,36.7,ecef080b05c34b61be1f5373f34e1926173acbec,Absa | Branch | Kikuyu,-1.268358,36.670972,atm,4.771161251039492
 Embakasi Central,Spring Valley,-1.2477029,36.78923560000001,36f9fec138c405a27b94b2f01e4290fffa4c6715,KCB ATM,-1.2802794,36.816261499999996,atm,4.703195257594986
 Embakasi Central,Spring Valley,-1.2477029,36.78923560000001,99335db50d366bb72ca3f1ba857db9e44d52755b,Co-op Bank ATM - Catholic University Branch,-1.2815459999999999,36.814407,atm,4.686590380901278
 Embakasi South,Imara Daima,-1.3285901000000002,36.8743999,294a4faab01af3d49ad53f2c9f16efb379469487,Kenya Commercial Bank,-1.3165591,36.83421849999999,atm,4.659879919652614
 Embakasi East,Lower Savanna,-1.324728,36.887724,ddce0bf7dc174e2a34b36ec54c9c62ba45f4af51,Standard Chartered Bank ATM,-1.329569,36.925321999999994,atm,4.211460853755811
 Embakasi Central,Kayole North,-1.2659842,36.9169455,86d9e2a09df04aac00c3545ba0edb78cd7b047c9,Ecobank ATM Mutindwa,-1.2846918999999999,36.8845689,atm,4.1545086127208775
 Kibra,Sarangombe,-1.31226715,36.77745932,8df60f319f046f68280cae87e1d02cbedead0f57,PesaPoint ATM Langata Kenol,-1.341126,36.753762,atm,4.149143216312784
 Kibra,Sarangombe,-1.31226715,36.77745932,d7a893d1fb2ea423879d7149056a752c6e244888,PesaPoint ATM CFC - Langata Road,-1.341142,36.753834999999995,atm,4.145378229819538
 Embakasi Central,Kayole Central,-1.2659842,36.9169455,bacea222408c2d75349c5ebbcf2c0f75f10ed5a3,Eco Bank ATM,-1.2846839,36.88473249999999,atm,4.138335786173845
 Embakasi Central,Kayole Central,-1.2659842,36.9169455,5d7fc50ad3582421e8e78006e1892395316a89a9,Pesa Point,-1.2697155,36.87995970000001,atm,4.129912608192631
 Embakasi Central,Kayole Central,-1.2659842,36.9169455,508cd59c50834421d14467fd4a45ce4a09c48594,BBK ATM,-1.2846356,36.884931,atm,4.116574629079021
 Embakasi Central,Kayole South,-1.2659842,36.9169455,fb88d784ab3fc236331e84399a1a799617e6a05e,KCB ATM,-1.284146,36.884877,atm,4.0946708375851735
 Embakasi East,Upper Savanna,-1.324728,36.887724,7ecce8a02f1cd5fb521937bb75e7f25dcb1522e8,KCB ATM - JKIA,-1.330631,36.92384699999999,atm,4.066353221085674
 Embakasi Central,Spring Valley,-1.2477029,36.78923560000001,334041d1ba37d70f2fb6020fb7b9c16dbb16f1c6,Co-op Bank ATM - Kahawa Wendani Branch,-1.275042,36.813424,atm,4.056023334842501
 Embakasi Central,Spring Valley,-1.2477029,36.78923560000001,363741328fe4202c0fca99df380d01dbe218a7b4,Coop Bank ATM Chiromo Branch,-1.2750002,36.81344349999999,atm,4.053982174650492
 Embakasi Central,Kayole North,-1.2659842,36.9169455,1e5666ed6ca74ca658c8dd71be432ddc76a1d2a0,Consolidated Bank ATM,-1.2785893,36.883204,atm,4.001763428802145
 Embakasi Central,Kayole South,-1.2659842,36.9169455,ce351d45f6c2c0168b14b5ffaf5f1e4aff33227d,Pesa Point,-1.2779767,36.883206799999996,atm,3.9781533613433058
 Embakasi Central,Kayole South,-1.2659842,36.9169455,7af6602be81aa740f7a7a2d75b3dccaad009ddd5,Equity ATM,-1.2779411,36.8832627,atm,3.970976938360869
 Kibra,Sarangombe,-1.31226715,36.77745932,3f55cbb92b49d3b8efa6b9f6e4c17e6591d94033,Galleria Co-op Bank ATM,-1.343508,36.764178,atm,3.7721852080306912
 Kibra,Sarangombe,-1.31226715,36.77745932,5110f64ee1a4613d8d109aa77769ce120b28d77b,KCB ATM - Maasai Market,-1.3434270000000001,36.765189,atm,3.721308034819028
 Kibra,Sarangombe,-1.31226715,36.77745932,fff9683affe117dae96426f5aa322f593f885630,Standard Chartered Bank ATM,-1.342781,36.764294,atm,3.6928459585452607
 Kibra,Sarangombe,-1.31226715,36.77745932,2a94a8705c48805964a077f09ef478903990658f,PesaPoint ATM KCB - Bomas,-1.342674,36.764528999999996,atm,3.6716382689725697
 Kibra,Sarangombe,-1.31226715,36.77745932,f23f778dc4205a0c11d76bcb904d538ba715cdf2,PesaPoint ATM Oilibya Langata,-1.3425850000000001,36.76453400000001,atm,3.662320720654548
 Westlands,Kangemi,-1.2654259,36.7525183,afd98276cfdd64ddbddd163a27c5e663d890fbd1,I&M Bank ATM,-1.2904411,36.7707829,atm,3.441632692569763
 Westlands,Kangemi,-1.2654259,36.7525183,52a0bd3860d414d52361bac6b873a37df84ea360,Co-operative Bank ATM,-1.2904076,36.770757399999994,atm,3.4369555739746382
 Westlands,Kangemi,-1.2654259,36.7525183,cee1d49935bce645b1abbc4d7ab48b933d151c1d,Equity Bank Atm,-1.2903753999999998,36.7707641,atm,3.434505294642068
 Dagoretti North,Gatina,-1.1655719999999998,36.85526373,629a0104d9a5f55b4bdfc25f726fa367340b968d,PesaPoint ATM Kiambu,-1.167457,36.82513600000001,atm,3.353801488876733
 Lang'ata,South C,-1.3204427,36.83053678,15352dcd83922ea56d031fab82a4561b2e7d061f,Co-op Bank ATM - DOD Hurlingham Branch,-1.2920658999999999,36.82194619999999,atm,3.294634714687748
 Lang'ata,South C,-1.3204427,36.83053678,e0a49fdbe86799617d7148ae7b940fbde988c710,Co-op Bank ATM - Runyenjes Branch,-1.2920658999999999,36.82194619999999,atm,3.294634714687748
 Lang'ata,South C,-1.3204427,36.83053678,b27721d5dac6ac90c01e25a4c1a11019c87bb127,Co-op Bank ATM - Ruaka Branch,-1.2920658999999999,36.82194619999999,atm,3.294634714687748
 Lang'ata,South C,-1.3204427,36.83053678,c1bae144f4271acbd086510417bdebdf258c95c2,Co-op Bank ATM - Nakumatt Embakasi Branch,-1.2920658999999999,36.82194619999999,atm,3.294634714687748
 Lang'ata,South C,-1.3204427,36.83053678,3b9df85a1443a55653f49a4a241fba17592d73f3,Co-op Bank ATM - Parliament Road Branch,-1.2920658999999999,36.82194619999999,atm,3.294634714687748
 Dagoretti North,Gatina,-1.1655719999999998,36.85526373,fe259b3533b2117730dfbb1d7fba43c59c3e8aff,Barclays ATM,-1.1698741000000001,36.8270932,atm,3.166104925043791
 Dagoretti North,Gatina,-1.1655719999999998,36.85526373,d130487816123a65f3e63bd0e9f1c1f0920c39d7,Equity ATM,-1.1703233,36.8273708,atm,3.143617610059997
 Embakasi Central,Kayole South,-1.2659842,36.9169455,7e692c26533565a2641e70abe951c7cd9d99dba2,Ecobank ATM Greenspan Mall,-1.2891111000000002,36.901145,atm,3.1122674624880786
 Embakasi Central,Kayole South,-1.2659842,36.9169455,123a7d66020d079addc8a6a1c506eec9c8f5a370,Standard Chattered ATM,-1.2891433,36.90123079999999,atm,3.109861554533692
 Dagoretti North,Gatina,-1.1655719999999998,36.85526373,f1f96d08e3e1fb4d4a7349b69d420a7ecc68d358,Coop ATM,-1.1708127000000002,36.8278013,atm,3.1062133395028346
 Embakasi Central,Kayole South,-1.2659842,36.9169455,73887b83084a389175dfd5e9db16a110bdfeb689,Family Bank ATM,-1.2889144,36.9011986,atm,3.090868045590944
 Dagoretti South,Uthiru,-1.2631329,36.7188955,2a838c8a920384fa36f943e1f6c611438284d214,Absa | Branch | Premier Flagship,-1.264419,36.746564,atm,3.0772379043934035
 Lang'ata,Mugumoini,-1.1991235,36.8467412,80fde3c3dcbcf1edde21e8a1757b3a14c20b70a3,BARCLAYS,-1.2256824,36.83988770000001,atm,3.0479992058130496
 Dagoretti North,Gatina,-1.1655719999999998,36.85526373,a5c7a790bfc3d898002d2974a4b7712ba939c02b,National Bank ATM,-1.1714912,36.8285188,atm,3.043348910455978
 Lang'ata,Mugumoini,-1.1991235,36.8467412,3d292d0f746cc56cfd5edceb917f7f40cbf284d5,Ecobank ATM,-1.2252577,36.840087200000006,atm,2.996779381952277
 Roysambu,Zimmerman,-1.2103969,36.89522120000001,6b9d32e7fee82a324fe85997b0df99722b621a7c,Absa | Branch | Garden City,-1.2319673999999998,36.8790694,atm,2.994298335621945
 Dagoretti North,Gatina,-1.1655719999999998,36.85526373,4629f036a258872f467c163cd0ca55590f3bdd07,Stanchart ATM,-1.1720462999999999,36.829403899999996,atm,2.9617899436499
 Dagoretti North,Gatina,-1.1655719999999998,36.85526373,28d735c5f9ef214b84534e90f3faad05390f5267,Co-op Bank ATM - Banana Branch,-1.1748105,36.8304102,atm,2.9459479511739355
 Dagoretti North,Gatina,-1.1655719999999998,36.85526373,d3addc03a3ac3cb1bfe7da4fe1ac69d93277e581,Co-op Bank ATM - Simba Chai Sacco Branch,-1.1748105,36.8304102,atm,2.9459479511739355
 Dagoretti North,Gatina,-1.1655719999999998,36.85526373,501923ddd99ae36d4eed9803fb25663b054ff247,Co-op Bank ATM - Githunguri Kiambu Unity Branch,-1.1748105,36.8304102,atm,2.9459479511739355
 Lang'ata,Mugumoini,-1.1991235,36.8467412,663bbc44f46c5597f8bc85bc6193a2723ffd2f5c,KCB,-1.2254138,36.8476423,atm,2.9232273601477496
 Dagoretti South,Uthiru,-1.2631329,36.7188955,474d6ef6f0a45a5af6b7042f95360df662c202c8,Pesa Point,-1.2543837,36.69411470000001,atm,2.9197374466984654
 Dagoretti North,Gatina,-1.1655719999999998,36.85526373,04e80d5d363a0cbfde900e6aecfa71481cc3e2f9,Quick servises/ATM,-1.1723976,36.829980600000006,atm,2.909609921924727
 Dagoretti North,Gatina,-1.1655719999999998,36.85526373,ff845bbaf8c047597be598d2bfe2f9fa6d2198f6,KCB Quick Serve,-1.1724244,36.8300048,atm,2.907792768347719
 Makadara,Harambee,-1.290941,36.89721585,dd51bc9ae3adb42f031f6d0309b4dcde40cda994,PesaPoint ATM KCB - Embakasi,-1.3114693000000002,36.913428100000004,atm,2.906538069229327
 Dagoretti South,Uthiru,-1.2631329,36.7188955,7654bf09bda5de4393de9765ac9d16b73bc0c2f4,Equity Bank ATM,-1.254983,36.69406499999999,atm,2.9034866128024883
 Makadara,Harambee,-1.290941,36.89721585,f21e2ac1b1964e19d44f9289479bc5a64758c5b4,KCB Embakasi,-1.3113583,36.913463,atm,2.8992793615019057
 Dagoretti North,Gatina,-1.1655719999999998,36.85526373,ce7dce32b4f08f94e79846058195dd0b32d5c72a,Co-op Bank ATM - Kiambu Branch,-1.1724918,36.8304521,atm,2.8618640745236963
 Dagoretti North,Gatina,-1.1655719999999998,36.85526373,b5d5f448326b861e9ba90615de4322db2c1ddf16,PesaPoint ATM KCB - Kiambu,-1.172976,36.830849,atm,2.8345619151740533
 Westlands,Karura,-1.2369881,36.83255910000001,cb46bade06fc3a849e7ad41db8c1cf1c0dd42a3b,KCB ATM - Highridge,-1.258251,36.8185,atm,2.8324383282399017
 Roysambu,Kahawa,-1.1869631,36.912022,4522411f7ee2f8803a818f566a48707fc83c8a5d,National Bank ATM,-1.1787745,36.93493270000001,atm,2.7031732744427077
 Roysambu,Kahawa,-1.1869631,36.912022,26994550df84575389f178b37d00880cb9cb615a,Equity Bank ATM,-1.1788128999999998,36.9348579,atm,2.693911702278254
 Embakasi South,Imara Daima,-1.3285901000000002,36.8743999,c26bdf7108759b7785edb6f0258d896d91eff460,PesaPoint ATM Total Mombasa Road,-1.3260596000000002,36.8505344,atm,2.66621525532703
 Embakasi Central,Spring Valley,-1.2477029,36.78923560000001,d9c26869932f1b1cfc714541e184de882b2ca5c5,Co-op Bank ATM - Kobil Gigiri Branch,-1.2323282,36.8075304,atm,2.6552260729837758
 Westlands,Kitisuru,-1.2395542,36.7839651,6e7a6f5b03bf73b522586d40393c7a0a3244f352,Barclays ATM,-1.2285078,36.8051326,atm,2.652792226780234
 Kibra,Sarangombe,-1.31226715,36.77745932,9094dab07ac9fa4b3fbc3ab3626b3f578e8563b9,PesaPoint ATM KCB - KWS,-1.335965,36.78019000000001,atm,2.6508423016416067
 Westlands,Kitisuru,-1.2395542,36.7839651,f9e55967b506935f692c7e02c4bd8f8d19968cb7,CFC ATM,-1.2286687,36.805186299999995,atm,2.649872733975522
 Ruaraka,Babadogo,-1.2433103,36.8910881,d5408c1249a730f70b9e8c8c48c44cec20ff3b15,Co-op Bank ATM,-1.2601885,36.874243799999995,atm,2.649509529717936
 Westlands,Kitisuru,-1.2395542,36.7839651,8452124f73d855c59b14e6394f50a505d60c7a56,Commercial Bank of Africa ATM,-1.2285936000000002,36.805121899999996,atm,2.647338214701068
 Westlands,Kitisuru,-1.2395542,36.7839651,bdd09b968d570aebf1b3a54103e87f7dfbf0dd09,Chase Bank ATM,-1.228658,36.805121899999996,atm,2.644053252887851
 Westlands,Kitisuru,-1.2395542,36.7839651,8da9ac78e9e1be3c3e4bd16f701a02f7685541bb,Ecobank,-1.2288403,36.8049502,atm,2.617834490061845
 Westlands,Kitisuru,-1.2395542,36.7839651,b84315b52c7586511f97737b8805fc0672d08563,PesaPoint ATM,-1.2290763,36.8048537,atm,2.596424729190811
 Westlands,Kitisuru,-1.2395542,36.7839651,4b60e3f668f29388af168d3c9098d2fe0f602401,I&M Bank Atm at Village Market,-1.22876,36.80442999999999,atm,2.570649820112308
 Westlands,Kitisuru,-1.2395542,36.7839651,9d5a850d2b8d81f51226fa89fd931c162e13aabc,Equity Atm Village Market,-1.2364104,36.8068486,atm,2.5662290105306678
 Lang'ata,Nyayo Highrise,-1.31600475,36.80173345,d5c3f92d83e6d79bb78820c5d35d297a11427581,Co-op Bank ATM - Upper Hill Branch,-1.2987109,36.81623190000001,atm,2.5075225494695794
 Dagoretti North,Kawangware,-1.2784631000000002,36.751643,cb63e9025eccfab2bc22b29b33983fa9de1a352c,Barclays Bank ATM,-1.2902105,36.7707507,atm,2.49208362997496
 Dagoretti North,Kawangware,-1.2784631000000002,36.751643,62ae0c6dc188f7b605b5a681183aa1548b3b937e,PesaPoint Atm,-1.2904665000000002,36.77045560000001,atm,2.479404474449676
 Lang'ata,South C,-1.3204427,36.83053678,1ab61a1e407b0e9bd0fb55dc55323a33d4ca0318,Co-op Bank ATM - Enterprise Road Branch,-1.2998748,36.839071399999995,atm,2.4744750010805516
 Westlands,Karura,-1.2369881,36.83255910000001,e495c2ab9671da56a1a20afae443376e68878724,PesaPoint ATM KCB - U N Gigiri,-1.2378193000000002,36.810593299999994,atm,2.4421301837864178
 Embakasi Central,Komarok,-1.26725495,36.90524096,3120a35c8e9bb06474112c17b95c4c0b1135b7a0,Standard Chartered,-1.288859,36.9012791,atm,2.4407676920097154
 Kamukunji,Eastleigh South,-1.2778285,36.8486835,733918ccf6b0d487ba9abe94470ec807a0605905,Co-op Bank ATM - River Road Branch,-1.2824524,36.827275799999995,atm,2.4332120207830594
 Embakasi Central,Komarok,-1.26725495,36.90524096,278e7191381e5e8e627b3fb2eea8c7e4ceb22401,Bank of Africa ATM,-1.2887196,36.901064500000004,atm,2.4299719718302204
 Westlands,Kitisuru,-1.2395542,36.7839651,86d606016b3386e12d2c1a8e59ce6d5ca24c9e86,Equity Bank Atm,-1.2311572,36.80394709999999,atm,2.4081208088352506
 Roysambu,Kahawa,-1.1869631,36.912022,711fd2969e7e0d402a51412ad871f86bde135fb0,Dama's Mpesa Services,-1.17354,36.92894879999999,atm,2.4003400329533653
 Embakasi Central,Spring Valley,-1.2477029,36.78923560000001,6c2946a3cb08868134104779b633b442ae81f9bb,KCB ATM - Oil Libya Westlands,-1.263824,36.803359,atm,2.3814619689456213
 Westlands,Kitisuru,-1.2395542,36.7839651,169f02ae9e9f6cc3ce0c49e0f0faaf7d3ab4efbc,PesaPoint ATM Village Market,-1.2315209999999999,36.803812,atm,2.378826627416912
 Westlands,Kitisuru,-1.2395542,36.7839651,9fe5e6000d86fc8ac6352016abf68ca311b2d986,PesaPoint ATM KCB - Village Market,-1.2316610000000001,36.80385500000001,atm,2.377471801699865
 Westlands,Kitisuru,-1.2395542,36.7839651,2a75147a03b11a2d2c3cca441adb3c77241bdc8f,PesaPoint ATM CFC - Village Market,-1.231607,36.803748,atm,2.368657653838404
 Westlands,Kitisuru,-1.2395542,36.7839651,807da8f0ff6ccf5305ebdae8ffe119ced7397f58,PesaPoint ATM DTK - Village Market,-1.231583,36.803719,atm,2.366665320930959
 Embakasi Central,Spring Valley,-1.2477029,36.78923560000001,e23b7ebdc1a23af2f250e895a296dbdf4da9424f,Co-op Bank ATM - Westlands Branch,-1.2631959,36.803844,atm,2.366041181896368
 Dagoretti South,Waithaka,-1.2833,36.7166,3fabc0d8025ef6c04e3590647eb1807af10a5639,Equity Bank Parking Lot,-1.2848403999999998,36.737795899999995,atm,2.3610187666232805
 Westlands,Kitisuru,-1.2395542,36.7839651,2df8126549ae088c95e5a63e98d21f37174f177b,Equity Bank ATM,-1.2594961,36.7769104,atm,2.350564097959293
 Ruaraka,Babadogo,-1.2433103,36.8910881,67c9657f19eddb074c804ec1abc69c5558abab28,Co-op Bank ATM,-1.2608691,36.8793762,atm,2.3452785062090666
 Westlands,Kitisuru,-1.2395542,36.7839651,ff95fcb4206bbaa71b416e1dfacac8632c4074c9,Co-op Bank ATM - Village Market Branch,-1.2313637,36.803413299999995,atm,2.344558028720085
 Westlands,Kitisuru,-1.2395542,36.7839651,23f02fd4ffee192de6d5f29bffe67de3caac0e8d,Stanbic Bank ATM,-1.2599238000000001,36.7855646,atm,2.270538675870532
 Westlands,Kitisuru,-1.2395542,36.7839651,6944b1aa33d4dd906b5dea11fdb1b43256a66cee,I & M bank ATM,-1.2599221,36.7855331,atm,2.2700791062529584
 Westlands,Kitisuru,-1.2395542,36.7839651,75c2f817c2eb71be0ecae0c5d794b9c2c0fbcb12,Standard Bank,-1.2594328000000001,36.7798542,atm,2.2557308677071815
 Ruaraka,Babadogo,-1.2433103,36.8910881,17df4ee9604763b418e75cceeef5f8b7c67f9011,Family Bank ATM,-1.2598715,36.8793547,atm,2.2552658657923046
 Westlands,Kitisuru,-1.2395542,36.7839651,7bbc4009bffa6b487396f149f306c97289126ff5,KCB,-1.2594006000000002,36.7798381,atm,2.252590264498894
 Ruaraka,Babadogo,-1.2433103,36.8910881,6c44e2072f12cde1b23f9d32c3aa6540a2e7618c,FAULU ATM,-1.2593758,36.8787676,atm,2.249625252710696
 Embakasi Central,Spring Valley,-1.2477029,36.78923560000001,16e48a2a620554fcfbf31259f2e0813c1e34215b,Co-op Bank ATM - Sarit Branch,-1.2622013,36.80334439999999,atm,2.2478233398780345
 Dagoretti North,Kileleshwa,-1.2723271,36.7996878,5f8e7eb650ab6d47f346ed08c75892ef44dc1954,PesaPoint ATM KCB - Kanu Street,-1.291513,36.806076000000004,atm,2.2470570499170917
 Westlands,Karura,-1.2369881,36.83255910000001,a8dcd983ebd63ad24b9098f1dc34ffc546748788,KCB ATM (UN),-1.2309038,36.81339420000001,atm,2.233978996692101
 Lang'ata,South C,-1.3204427,36.83053678,a03aa43b7891961968b7a3497bb0c36b88163a1e,KCB ATM,-1.325636,36.849608,atm,2.1959174288597563
 Ruaraka,Babadogo,-1.2433103,36.8910881,5ee8cc3f7ff88b89757335158987743407963029,KCB ATM,-1.259105,36.879393,atm,2.183778682607742
 Westlands,Kitisuru,-1.2395542,36.7839651,d35c1555709cfb4e83ca8babe683f882f8d7a676,Barclays Atm,-1.2591689,36.784849799999996,atm,2.1819007212023784
 Roysambu,Kahawa,-1.1869631,36.912022,2647becdee6c803770c4304ee0f6f380aba4bec7,PesaPoint ATM Kahawa Sukari,-1.189447,36.93138899999999,atm,2.1693294681649373
 Dagoretti South,Mutuini,-1.3,36.7,fe35fae15c25e71208c83375bc884d2e479edeb4,Family bank ATM,-1.2853589,36.68719619999999,atm,2.1611353945929763
 Dagoretti South,Mutuini,-1.3,36.7,53723283cd7fe68fcb7d000241f81d1cdb2011c0,Cooperative bank ATM,-1.2853911,36.6871738,atm,2.160083665099588
 Embakasi South,Imara Daima,-1.3285901000000002,36.8743999,4c51882fbf8e4f3e7be21d2036aef7e36f9f13c5,Anpemu Limited,-1.3135473999999998,36.8622965,atm,2.145311253399876
 Embakasi Central,Spring Valley,-1.2477029,36.78923560000001,e465774a1aac974376ad5a7bcd169a646f318dfe,KCB ATM,-1.2616969999999998,36.80225799999999,atm,2.124020504113886
 Embakasi East,Upper Savanna,-1.324728,36.887724,5154d95bd3942829054837b1a144491349a3c84b,Co-op Bank ATM - Kobil Embakasi Branch,-1.3200353,36.90621929999999,atm,2.1198855592708963
 Embakasi West,Mowlem,-1.324728,36.887724,2b5434fa013096d3cecf19d339c4a0d6539210cc,Co-op Bank ATM - Embakasi Branch,-1.3200353,36.90621929999999,atm,2.1198855592708963
 Dagoretti North,Kabiro,-1.2878118,36.7515014,11ee923547018180d5c075c7153f35c08d9ff4c6,Ecobank ATM,-1.2906073999999998,36.770165999999996,atm,2.096723077424038
 Dagoretti North,Kabiro,-1.2878118,36.7515014,0654965ab2de00d8fe7002d5535e8654122e716c,PesaPoint ATM Valley Arcade,-1.290666,36.77015600000001,atm,2.0965995907252006
 Makadara,Harambee,-1.290941,36.89721585,9aec456dda3a0a0e1ab267f6bc3e3450038204d0,Barclays Bank Buru Buru,-1.2835408000000001,36.8799142,atm,2.0906854016261653
 Dagoretti North,Kabiro,-1.2878118,36.7515014,2f0c788978c0a2d332e66622beb84e38545ec005,Ecobank ATM Valley Arcade,-1.2902695,36.77015129999999,atm,2.0898702946613983
 Starehe,Pangani,-1.2648989,36.8372708,a8cbb54ccb472ddb9099347e5a08fa07dd0e0f3c,Co-op Bank ATM - Kirinyaga Tea Branch,-1.279954,36.826016499999994,atm,2.0885989351603347
 Dagoretti North,Kawangware,-1.2784631000000002,36.751643,d4a3d1d718e24dbad429d61aaeb17a51f0441bb4,Standard Chartered Bank Lavington Mall Branch,-1.2799978,36.77027460000001,atm,2.0769364241081347
 Embakasi Central,Spring Valley,-1.2477029,36.78923560000001,33d1855842a2b365d81e2206ffaa408590f61308,KCB ATM - Sarit,-1.261458,36.80188100000001,atm,2.076084386246092
 Dagoretti North,Kabiro,-1.2878118,36.7515014,836fc70e0c7149c3ebf6db58bd5e97d5c77fb3c2,KCB Bank Atm,-1.2904893999999998,36.7699394,atm,2.0699041689622537
 Dagoretti North,Kawangware,-1.2784631000000002,36.751643,4ff1ebb67cc8364318393f376fe297d604fae2f2,KCB ATM,-1.2800340000000001,36.770204,atm,2.0694549694248145
 Roysambu,Kahawa,-1.1869631,36.912022,f38d1cb958cfbc153f1b82a71c7276a6e4da6b20,Equity Bank ATM,-1.179846,36.9291465,atm,2.060394250681788
 Roysambu,Kahawa,-1.1869631,36.912022,95e166e4267f6ae0db3563f8862da26bad806d78,National Bank ATM,-1.1797924,36.929044399999995,atm,2.052229792544596
 Lang'ata,South C,-1.3204427,36.83053678,6b6d2936e6b05a92a6b67fd367a2c3bfb7777d5a,Equity Bank Enterprise,-1.3093424999999999,36.84522920000001,atm,2.045933680389883
 Kamukunji,Pumwani,-1.2797575,36.8442693,b80386145dbc814a7e8106df1b25e13dddce0969,PesaPoint ATM Oilibya Lusaka,-1.297139,36.83834300000001,atm,2.0406511162153684
 Kamukunji,Pumwani,-1.2797575,36.8442693,aa6dd1136922e997162dc3a13bd001567029d802,PesaPoint ATM Afya,-1.28796,36.82796299999999,atm,2.027973775373935
 Westlands,Parklands,-1.2630616,36.8106288,9e3a307c24a7f8553e7f1feebffa801133bcb260,Coop Cash ATM,-1.2803049,36.81621020000001,atm,2.0139969170950853
 Starehe,Pangani,-1.2648989,36.8372708,fc28145394b77cb237ee331b40d974f84a4c1c2d,Co-op Bank ATM - Stima Plaza Branch,-1.271584,36.8206883,atm,1.986422130235252
 Kibra,Laini Saba,-1.31234835,36.79611435,85ba3d74b7007503bb5c1d4bc040eb3b3be1c5c0,NIC Bank ATM,-1.2954207,36.8016055,atm,1.9775351666608247
 Lang'ata,Nyayo Highrise,-1.31600475,36.80173345,f72864f5a773d555857b761544b3198c22ea033f,Airtel Money Agent-Gospel Church Of God,-1.3011815,36.81156860000001,atm,1.9766795334273743
 Kibra,Laini Saba,-1.31234835,36.79611435,d5465eb65d3156ac42ab6105c57461f64c88d869,Co-op Bank ATM - Total Hurlingham Branch,-1.2954709999999998,36.8016122,atm,1.9724493083347017
 Embakasi Central,Spring Valley,-1.2477029,36.78923560000001,e2306df53e8852b18ef6d0380df448cf247ef596,PesaPoint ATM ABC,-1.2598790000000002,36.776355,atm,1.9694174145362904
 Embakasi Central,Spring Valley,-1.2477029,36.78923560000001,f8693412c9d03a6b41914cc8eb2a7b9ae9071a42,Barclays ATM,-1.2597964,36.776315000000004,atm,1.9663642142584243
 Lang'ata,Nairobi West,-1.3087022,36.8230975,63df536c6c81bca397a7bb94a3a22070edf7877d,DAIMOND TRUST BANK,-1.305395,36.84039,atm,1.955967854348804
 Starehe,Pangani,-1.2648989,36.8372708,077c76a9d0d480c13b8eebc777a96d076a5eb90c,Co-op Bank ATM - Stima Sacco Branch,-1.2714934,36.82095229999999,atm,1.9554560590096817
 Westlands,Parklands,-1.2630616,36.8106288,275796b1edc850b9fe103693f145731410fe98dc,PesaPoint ATM KCB - Gateway,-1.279693,36.816183,atm,1.9484558889771584
 Dagoretti North,Kilimani,-1.2874422,36.7845225,39316572796fcf54e0f6bd03bc82cc6a9869427a,KCB ATM - Kenol Hurlingham,-1.2950064,36.8002128,atm,1.9352291738452427
 Dagoretti North,Kilimani,-1.2874422,36.7845225,c28b04cb5497c01d09ba0781d4545170e45d3ba0,Equity Bank,-1.2950426000000002,36.8001866,atm,1.9343607955591675
 Dagoretti North,Kilimani,-1.2874422,36.7845225,03aef625207001016141015a3f92f30c4c234777,PesaPoint ATM NIC - Hurlingham,-1.2949241000000002,36.800197999999995,atm,1.929790416314512
 Roysambu,Roysambu,-1.2188396,36.88673920000001,60c96536a445556cc896e8f6dc482feb1f2ed6da,PesaPoint ATM Uchumi Jipange,-1.2320149999999999,36.875674,atm,1.911784180929788
 Embakasi East,Mihango,-1.2692818,36.95299050000001,319098ee5150d27f17a6b3d1f1fa508a8c3a55a3,Co-op Bank ATM - Utawala Branch,-1.2787389999999998,36.9673404,atm,1.9094659849571949
 Lang'ata,Nairobi West,-1.3087022,36.8230975,14def270fcaec222b0e7eda5898f052bf7492e49,Standard Chartered Bank ATM,-1.29892,36.837092999999996,atm,1.897163286453312
 Kibra,Laini Saba,-1.31234835,36.79611435,166f67a612c784cae9ad963f2c7e9095a307d743,Co-op Bank ATM - KNH Branch,-1.3001838,36.8079821,atm,1.8882984454702456
 Kibra,Laini Saba,-1.31234835,36.79611435,2fd267d99e6eedac7c345b5a3355200af937b009,National Bank Atm,-1.3002072,36.80795429999999,atm,1.8842805121527613
 Embakasi East,Mihango,-1.2692818,36.95299050000001,5b95db5707a6bb99680c87d932a080bcee6dcac0,KCB ATM - Utawala,-1.278974,36.966687,atm,1.8642545224940303
 Dagoretti North,Kilimani,-1.2874422,36.7845225,4275f120698e4007c711ec71446be15a86cdd5a0,PesaPoint ATM Lavington,-1.279425,36.770006,atm,1.8424615824715715
 Lang'ata,Nyayo Highrise,-1.31600475,36.80173345,724170c235d78f12e9f5d22b3702470b1f5ea0c6,PesaPoint ATM KCB - Kenyatta National Hospital,-1.300941,36.807771,atm,1.8033437584587124
 Roysambu,Roysambu,-1.2188396,36.88673920000001,2ed90f1cb4b59d6e131060d8e8439d031c1b12d0,KCB ATM,-1.232669,36.878848,atm,1.7692808791331016
 Embakasi East,Mihango,-1.2692818,36.95299050000001,33174cfa49d65cb1d1296fe409dbe808dafec994,KCB ATM,-1.2819023999999999,36.9622864,atm,1.7416906603581948
 Embakasi East,Mihango,-1.2692818,36.95299050000001,048b280d224293d7c51d051b62cea664def8c07c,Co-op Bank ATM - Eastleigh Branch,-1.254933,36.95928279999999,atm,1.7410219882489397
 Starehe,Pangani,-1.2648989,36.8372708,5eaa94399aa3233b4ef5a1b611f5d01ad4a388f7,Co-op Bank ATM - Ngara Branch,-1.2763955,36.8268934,atm,1.720858716390714
 Embakasi East,Mihango,-1.2692818,36.95299050000001,e43bca0e1af5504ecc6414b97ebe46de663ffe14,Family Bank ATM,-1.2809435,36.963074799999994,atm,1.7130504641725857
 Dagoretti North,Kabiro,-1.2878118,36.7515014,d6235f21114bdc571c948e2fc985e8bfa95c21cd,Ecobank ATM,-1.2983168,36.7627645,atm,1.7112828942659584
 Dagoretti North,Kabiro,-1.2878118,36.7515014,e944cace76d82c1fb3ee1ec665e66fc6cab50377,CFC Bank ATM,-1.2981961000000002,36.7628503,atm,1.7091809574314478
 Starehe,Pangani,-1.2648989,36.8372708,83241755dcd5663c9e45ee5406b9ecb7113d005b,National Bank ATM,-1.2772607,36.82819489999999,atm,1.7040431121067463
 Embakasi Central,Kayole South,-1.2659842,36.9169455,e326490cb9194b4434b84bc413e7654e1b63cd77,Kwa Rasta Beauty Shop Soweto Staze,-1.2811451999999999,36.9147827,atm,1.7018161309519868
 Dagoretti North,Kabiro,-1.2878118,36.7515014,ecf23f454ab2df51db8395bb5ee68d4e75a2ff36,KCB ATM,-1.298329,36.762617,atm,1.7002692113266842
 Dagoretti North,Kabiro,-1.2878118,36.7515014,ab1b85fbfbcbd35ce08ca759bf30c1016a34a5f7,NIC Bank,-1.2982068000000002,36.76265720000001,atm,1.694228101314762
 Kibra,Woodley,-1.3056567,36.77600465,66a9ba8943064fdf6478f0b744bf0a4462735210,KCB ATM,-1.2982159,36.7626999,atm,1.6936666453567533
 Dagoretti North,Kabiro,-1.2878118,36.7515014,30ff0967065bf53dc2f6e709472432525409a5b4,NIC Bank ATM,-1.2982041000000002,36.762590100000004,atm,1.688577295544881
 Dagoretti North,Kabiro,-1.2878118,36.7515014,f231aac3dc330e623f0dcc502010de63b11a0d43,Barclays Bank ATM,-1.2980352,36.762743,atm,1.6883234412729398
 Dagoretti North,Kabiro,-1.2878118,36.7515014,72804c9283e47a5dd981b898be074ec99318348e,PesaPoint ATM NIC - Junction,-1.298324,36.762446999999995,atm,1.686216945029804
 Dagoretti North,Kabiro,-1.2878118,36.7515014,2191b9d85c290d37b3c914ca2a7da34020cfc2dd,Ecobank ATM Nakumatt Junction,-1.2982363000000001,36.7625231,atm,1.6856116178037344
 Embakasi East,Mihango,-1.2692818,36.95299050000001,59404c8074c2a796f6545b76c9f17c47099575b4,Ecobank ATM,-1.2828856000000002,36.9594767,atm,1.6746864284788596
 Embakasi Central,Spring Valley,-1.2477029,36.78923560000001,3985dc0d44143879a8870bb3da2715f3524e52c4,Standard Chartered Bank ATM,-1.25945,36.779804,atm,1.67392513930671
 Dagoretti North,Kabiro,-1.2878118,36.7515014,1d3d07b9f15e9921cc7cfacb71cae9bd946bdb83,PesaPoint ATM Junction,-1.298174,36.76239400000001,atm,1.6704418926249394
 Dagoretti North,Kabiro,-1.2878118,36.7515014,430dddbb91483d88f41f92078bacbb7b7e5df505,National Bank ATM,-1.29818,36.7623782,atm,1.6696307379272175
 Kamukunji,Eastleigh North,-1.2778285,36.8486835,4de8775c12ad342e3090217b22fff50cfa278011,Co-op Bank ATM - Nacico Branch,-1.2874527,36.83715139999999,atm,1.6689050560876353
 Dagoretti North,Kabiro,-1.2878118,36.7515014,0a8d9e88f9bc91cf9aa0fb04875d6d57c18e94ed,PesaPoint ATM KCB - Junction,-1.2981040000000001,36.762388,atm,1.6646048532247408
 Kibra,Woodley,-1.3056567,36.77600465,7cb2fbd0f35f2a1ce9958e5b7f79ce88e429c69f,KCB ATM - The Junction ATM,-1.2981241000000001,36.7630696,atm,1.6630540993257223
 Dagoretti North,Kabiro,-1.2878118,36.7515014,bee8315534338cb58e8121fb8e88fe2337ad55f2,PesaPoint ATM,-1.2981763000000002,36.762297,atm,1.6628286719351664
 Embakasi Central,Spring Valley,-1.2477029,36.78923560000001,d8ab310bea81e152db24a8e0f44f7f9d38d8bd3e,PesaPoint ATM KCB - Waiyaki Way,-1.259313,36.779919,atm,1.6540551084465591
 Kibra,Woodley,-1.3056567,36.77600465,97948db74574b569c4941344f26ddf378e86d531,Co-op Bank ATM - Nakumatt Junction Branch,-1.2991293,36.7626974,atm,1.6467465930930898
 Starehe,Pangani,-1.2648989,36.8372708,b0aafa46034889a6a068295c2e7457aa48e268e7,KCB ATM - Ngara,-1.277687,36.82983,atm,1.6440274321564303
 Kamukunji,Eastleigh South,-1.2778285,36.8486835,8788527d9926d9100440c5c3f229ac09c3fcb9af,Co-op Bank ATM - Gikomba Branch,-1.2834541000000002,36.8350117,atm,1.6425183621709685
 Dagoretti North,Kabiro,-1.2878118,36.7515014,2f228d86a16601105589c3bb390601e98bfcfd4b,PesaPoint ATM CFC - Junction,-1.297981,36.762163,atm,1.6370674465142492
 Embakasi East,Mihango,-1.2692818,36.95299050000001,c29d1293316b6f0e30133d498c6b0f2059fc274f,M Pesa,-1.2823875,36.95942700000001,atm,1.6224546887004567
 Starehe,Nairobi South,-1.314183,36.8235852,4a5b0371f5e89a41a39e30baec32c6d64a6d48b1,Co-op Bank ATM - Co-op Trust Branch,-1.2999117,36.8215518,atm,1.6019083768853184
 Starehe,Ngara,-1.277803,36.8300722,8cc3155996360b3fda858e0ef9bd4a57c1a2b23b,PesaPoint ATM KCB - Kijabe,-1.277441,36.815829,atm,1.5828949740560805
 Embakasi East,Utawala,-1.285877,36.98408679999999,eea899acec07b53d177cb35c53785cd34ef62ecc,Brixton apartments utawala,-1.2802448999999998,36.9711818,atm,1.5643640526260556
 Dagoretti North,Kilimani,-1.2874422,36.7845225,abab2618e6a476eb7950fc6459ec95771c3dd048,Standard Chartered Bank ATM,-1.2903069999999999,36.770753000000006,atm,1.5625245367747802
 Dagoretti North,Kabiro,-1.2878118,36.7515014,ab8e5567b4a96a2894905f4529d48822b58ceae0,Equity ATM,-1.2991588,36.7596625,atm,1.5530664842989834
 Dagoretti North,Kabiro,-1.2878118,36.7515014,8e0d39618f8276d704977ac7375518c89cb26604,PesaPoint ATM Dagoretti Corner,-1.299118,36.759524,atm,1.5404340755513262
 Embakasi East,Utawala,-1.285877,36.98408679999999,91f29a551a2e2b9b0b91652f4a29492e1fdfe351,Co-operative Bank ATM,-1.2802478000000002,36.97142279999999,atm,1.5397320916655228
 Embakasi East,Utawala,-1.285877,36.98408679999999,a8524717c485a5eff62b89acd57c7564920c2412,Equity ATM,-1.2802486000000002,36.9714296,atm,1.5390056852406928
 Embakasi South,Kware,-1.3112904,36.87875837,29ba8f5252a380a99408723e857664ecde7d4ae0,PesaPoint ATM NIC - Donholm,-1.301518,36.888326,atm,1.5195796045149226
 Embakasi South,Kware,-1.3112904,36.87875837,73f510a073e8630002e49ddef5b688ac00082e0e,PesaPoint ATM Donholm,-1.301547,36.888318,atm,1.516655747346574
 Lang'ata,Nairobi West,-1.3087022,36.8230975,adef063b8af3b86fa68e06f65048bbab2a3ae7a4,M-Pesa National Bank of Kenya,-1.2998678999999995,36.8127653,atm,1.5104184217973056
 Makadara,Harambee,-1.290941,36.89721585,799f02b3f6d6fbd1806c007d54988cf56fc9510b,Co-op Bank ATM - Donholm Branch,-1.3011149,36.88825129999999,atm,1.5066790473228169
 Makadara,Harambee,-1.290941,36.89721585,c7193024d4e380e92c9cbec5db2381ac4d4d5e47,KCB ATM Donholm,-1.3010081,36.88821749999999,atm,1.5002935103467718
 Embakasi South,Kware,-1.3112904,36.87875837,e9388758d66b3af94bfc36a09c410f8ddb2689ce,NIC Bank ATM,-1.3016073000000001,36.888120799999996,atm,1.4965708588363669
 Embakasi South,Kware,-1.3112904,36.87875837,4ff5f42498d5cd38a11c3d63579074322ac66b8c,Eco Bank ATM,-1.3016073000000001,36.888120799999996,atm,1.4965708588363669
 Dagoretti North,Kabiro,-1.2878118,36.7515014,61113a10d76b3cb53bd096290a376d8f52b59ec1,Equity Bank ATM,-1.30053,36.7558759,atm,1.4945361058735973
 Dagoretti North,Kabiro,-1.2878118,36.7515014,09542e8fb092d955a346cd686f1a0aac4084f975,Co-operative Bank of Kenya ATM,-1.300440499999999,36.75607760000001,atm,1.4926174845540712
 Kibra,Laini Saba,-1.31234835,36.79611435,bf9b7f91d5ce4f0d45aa8d8d42280af0bebd4e5d,Standard Chartered Bank ATM,-1.300419,36.80227299999999,atm,1.4918050709713973
 Embakasi South,Kware,-1.3112904,36.87875837,50d6b2e3e7d47c7ae4c31bdb48afb5536c5947f2,Standard Chartered Bank ATM,-1.3016874,36.8880907,atm,1.4878516324278583
 Embakasi South,Kware,-1.3112904,36.87875837,f83e409a7920c5de546d379660f9ef734c229891,Standard Chartered Bank ATM,-1.301806,36.88814099999999,atm,1.4823516133654084
 Kamukunji,Pumwani,-1.2797575,36.8442693,3cf6cc6e0fbd1702fd6001dc8722b491368fea3d,Standard Chartered Bank ATM,-1.292792,36.847074,atm,1.4815964631947245
 Makadara,Makongeni,-1.2873101,36.87210716,755f251960ec47274c41890310657d4acd276892,Airtel Money Agent-Mirchar Connections,-1.2951155,36.8828724,atm,1.4774033236301398
 Lang'ata,Nairobi West,-1.3087022,36.8230975,90a0e22aab4c455548668867b84bd749a24facd1,Equity Bank Equity Centre,-1.3010431999999998,36.8123084,atm,1.4700663706162187
 Dagoretti North,Kilimani,-1.2874422,36.7845225,c1280e5a98b17b03069f1442e649dd92d2c97925,Airtel Money Agent-Tumaini Smep Dtm,-1.2747601,36.78116719999999,atm,1.4577652745403946
 Mathare,Mabatini,-1.2602912,36.86361626,859302edf5fa9f5e4be9e3bc39cc14bc0c02cb73,PesaPoint ATM KCB - Moi Airbase,-1.27315,36.861298,atm,1.4519610915232797
 Kibra,Laini Saba,-1.31234835,36.79611435,bcb24a3094b4dd99687df3b69fd61551523de910,Co-op Bank ATM - Nairobi Business Centre Branch,-1.2993774,36.79691879999999,atm,1.4441662908999973
 Westlands,Parklands,-1.2630616,36.8106288,f173f43724850af72e7761113215f78a509aa004,PesaPoint ATM Stima,-1.27145,36.820512,atm,1.4403251752380417
 Starehe,Pangani,-1.2648989,36.8372708,d9c2329ffd191e8fa63380ae8ba5a839b2155304,KCB ATM - Oil Libya Limuru Road,-1.2636213,36.824403499999995,atm,1.436564812849601
 Embakasi North,Kariobangi North,-1.3151376,36.86733961,6c511a001d5997b7fd5750d849e309ecde445a03,PesaPoint ATM KCB - Industrial Area,-1.307616,36.856826,atm,1.4362789461283703
 Ruaraka,Korogocho,-1.2514893,36.8903648,8c1528ce214a9ab462bd9376018cedbb7143668c,Equity Bank ATM,-1.2580856000000002,36.879311799999996,atm,1.4301132817287951
 Starehe,Pangani,-1.2648989,36.8372708,08f81ccd335a6952b9ef5d1a353896391434244b,PesaPoint ATM DTK - Aga Khan,-1.2624163,36.8246916,atm,1.4244948729462157
 Starehe,Nairobi South,-1.314183,36.8235852,85dc35e2332ff0f9e050824b9941edc27cb1e489,KCB ATM - Nakumatt Mega,-1.301574,36.825463000000006,atm,1.416621520506086
 Starehe,Ziwani,-1.2788772,36.8360883,796d6f4e224f08d0825b02ebff3fb8039ddfbba3,Pesa point ATM,-1.2850652,36.824958,atm,1.4148846099038062
 Ruaraka,Korogocho,-1.2514893,36.8903648,dbac34e82d99be1d1e4246464cbd4667d43e6c7b,Barclays Bank ATM,-1.2577263,36.879279600000004,atm,1.4131816901201202
 Starehe,Landimawe,-1.2694542,36.83557186,9923c844210e871a30f45fd8fb3fab9010cd9bf9,Standard Chartered Bank ATM,-1.26377,36.82435,atm,1.3976108789757922
 Embakasi East,Embakasi,-1.324728,36.887724,403026a2e27674845845a4e92d1e492fdd1796d4,PesaPoint ATM CFC - Nairobi West,-1.321417,36.899814,atm,1.3926282052559578
 Dagoretti North,Kileleshwa,-1.2723271,36.7996878,0a96e3065c5bf27b6de06a19d9ccf3dbf32e89b0,PesaPoint ATM CFC - Lions Place,-1.260504,36.79553500000001,atm,1.3924957448773119
 Embakasi South,Imara Daima,-1.3285901000000002,36.8743999,98db799fc4c858e1fde82e5343a708508a2a32c0,Ecobank ATM,-1.3317363000000002,36.862279799999996,atm,1.3911348121090907
 Dagoretti North,Kileleshwa,-1.2723271,36.7996878,7c3877091bca57e6adf1cdbcf262d4c9cfb9f57b,Stanbic Bank,-1.2605821000000001,36.795557099999996,atm,1.3834937043677795
 Starehe,Ngara,-1.277803,36.8300722,4e4cbebf3a7f0edd86356687e79c5b6efcc0c5ce,PesaPoint ATM KCB - Treasury Square,-1.289089,36.824959,atm,1.3768105290273456
 Embakasi West,Mowlem,-1.324728,36.887724,16a69afecfd50207f5755f22cad2ed05126f2b87,PesaPoint ATM CFC - Outer Ring Road,-1.321085,36.899482,atm,1.36755390243092
 Lang'ata,Nairobi West,-1.3087022,36.8230975,a4d6e0c86856fdc8bf530a66b9e0edb87f803208,PesaPoint ATM CFC - Kenply House,-1.305548,36.83499000000001,atm,1.3669154021975596
 Starehe,Landimawe,-1.2694542,36.83557186,727e8f59a57aeb83149ce0bc7a0aea2284b5904e,Coop Bank ATM,-1.276119,36.8252324,atm,1.366754175703759
 Starehe,Nairobi Central,-1.2832533000000002,36.8172449,997d02fa8d81f186688f2b485ea000ecd908dccf,M-Pesa Equity Bank,-1.2946293,36.81268170000001,atm,1.36202236861329
 Embakasi North,Kariobangi North,-1.3151376,36.86733961,d8d1ef64cf00d7a0da89cb88bd290bb249a95791,National Bank ATM-Lungalunga,-1.3095272,36.85649859999999,atm,1.3561928462307922
 Embakasi East,Utawala,-1.285877,36.98408679999999,1acb53087fce1b545169d78bccccd644c49e3b3f,Co-operative Bank ATM,-1.2901596000000002,36.972734499999994,atm,1.3480088269730257
 Kibra,Woodley,-1.3056567,36.77600465,cc239ac7e77c4e1ed6f94c07e434556e837fca1b,Barclays ATM,-1.300533,36.7868507,atm,1.3327059510696626
 Embakasi East,Embakasi,-1.324728,36.887724,0cb4420d2243902f666dce941fc533e51dc53175,Pesa Point,-1.3219408000000001,36.8993157,atm,1.3245084603013546
 Embakasi West,Kariobangi South,-1.324728,36.887724,8160e068d6df3217c0dcf87728aa9cf273972c9e,PesaPoint ATM KCB - Embakasi,-1.321627,36.89905199999999,atm,1.3048159169733482
 Starehe,Pangani,-1.2648989,36.8372708,4446005b584fa9ce1d8372e0b2cf14dbd650220a,PesaPoint ATM KCB - Limuru Road,-1.258509,36.827593,atm,1.2885014392451162
 Embakasi South,Kwa Njenga,-1.3166386,36.884663,6ab6e36c4ea4315a1be2ffacfe00f1ac9ffc02df,KCB ATM,-1.316875,36.896183,atm,1.2800928405299408
 Makadara,Harambee,-1.290941,36.89721585,9cd03a9fd9a9b03c4a5616fea61bfb1e6dfb079f,Pesa Point,-1.296201,36.8869782,atm,1.2787775851489844
 Embakasi West,Umoja 1,-1.2778669,36.8881172,df895175e9cfd0f1a63c5482db424a6094cf08ed,PesaPoint ATM Umoja,-1.2698200000000002,36.87995499999999,atm,1.2735402618879172
 Starehe,Ngara,-1.277803,36.8300722,132cc8328a989c10175533361cbf1e961942d39a,PesaPoint ATM NIC - Harambee Avenue,-1.288491,36.82594900000001,atm,1.2729797527488933
 Lang'ata,South C,-1.3204427,36.83053678,db3b58acd6447b6319dd87315c279ba1e99797ab,Co-op Bank ATM - South B Branch,-1.3116271000000002,36.8376967,atm,1.2619048883965398
 Embakasi West,Umoja 1,-1.2778669,36.8881172,5e85970bd944ed56933a138a802ca52389c110ed,Co-op Bank ATM - Muranga Teachers Sacco Branch,-1.273858,36.877493,atm,1.26159526510554
 Embakasi East,Upper Savanna,-1.324728,36.887724,fd481dd7e3c4a25125d650c0e775dc94bde68926,PesaPoint ATM KCB - Tassia,-1.3170556,36.8958538,atm,1.2420400209001643
 Lang'ata,Nairobi West,-1.3087022,36.8230975,e255b968e3aacbdb23768511991784b1f8c4e4f0,PesaPoint ATM Mater,-1.307034,36.834146000000004,atm,1.241365754484186
 Embakasi East,Lower Savanna,-1.324728,36.887724,3bdbe1aaab5ac7a5439010c5da580277746a7007,Coop Bank ATM,-1.3250647,36.8988926,atm,1.2413441499105766
 Starehe,Ngara,-1.277803,36.8300722,c5abc580b38d17d106a0a1ef5df494ee977d7f60,National Bank ATM,-1.284295,36.82120979999999,atm,1.2206017100896789
 Roysambu,Githurai,-1.2062932,36.9206391,e6c4c03e28728af0098b85dbdcdc2b485e315017,Co - Operative Bank ATM,-1.1970473999999998,36.92638549999999,atm,1.2096386277172626
 Roysambu,Githurai,-1.2062932,36.9206391,339c527bed05dfabe31b5262123730614c94b86f,National Bank ATM-Kahawa,-1.1970068,36.92630029999999,atm,1.2085197909606058
 Roysambu,Githurai,-1.2062932,36.9206391,6e481ed9c4df8bb3f61fc89d9ee280e5575159d7,KCB ATM,-1.197708,36.92708500000001,atm,1.1929114109517152
 Embakasi Central,Kayole North,-1.2659842,36.9169455,a6f15d9cfb027ef2c59ece04e1485ee1360c701e,PesaPoint ATM KCB - Kayole,-1.2763440000000001,36.914295,atm,1.1882966909877728
 Starehe,Ngara,-1.277803,36.8300722,13234b1d09289219a88264a0987cffbdd9946946,PesaPoint ATM NIC - 20th Century,-1.285517,36.822685,atm,1.1867476317073264
 Roysambu,Githurai,-1.2062932,36.9206391,78bfb7a30276f71a756cff9f616922f5cc6f225a,KCB ATM NAKUMATT XPRESS,-1.1977839,36.9270303,atm,1.1825176655457033
 Embakasi South,Kwa Njenga,-1.3166386,36.884663,45fe2ba377b63a7695eef7b91128aed26e60262f,Equity ATM,-1.3089221000000002,36.8917036,atm,1.1606506194130353
 Roysambu,Githurai,-1.2062932,36.9206391,2b53aee1f8a5fcb4fec38754207c0c6e159cd92a,Equity Bank ATM,-1.1965537,36.9242924,atm,1.1559073500978017
 Starehe,Nairobi Central,-1.2832533000000002,36.8172449,ec0599ac95f8379d4c26a6ac8ce1336059167253,Equity Bank Community,-1.2926925,36.8129556,atm,1.1521016157324606
 Kasarani,Mwiki,-1.2322833999999998,36.9275102,ea3bbee56e03734ebcb301bbeb229d299c82e068,Cooperative ATM Hunters,-1.2275585,36.9183349,atm,1.1466476124059328
 Starehe,Ngara,-1.277803,36.8300722,90b5b0bdda238f7589475a82eb2fa5d88b099cbc,PesaPoint ATM KCB - Afya Centre,-1.2875450000000002,36.82794200000001,atm,1.108146642122257
 Starehe,Nairobi Central,-1.2832533000000002,36.8172449,205bc24c70d5cabb370b248bf701208ddfb7f907,Standard Chartered Bank ATM 1,-1.2880194,36.8259566,atm,1.1032839109020658
 Starehe,Nairobi Central,-1.2832533000000002,36.8172449,2f4591f1bbc6e7b4d3170620672f720395bf2ccc,PesaPoint ATM KCB - Haile Sellasie,-1.29132,36.822829,atm,1.0901486005047762
 Embakasi Central,Kayole North,-1.2659842,36.9169455,f218d5955f6e1a42b6d1d7bdca12c4c05549c0df,Co - operative Bank ATM,-1.2578948,36.9224601,atm,1.08786012304899
 Embakasi Central,Komarok,-1.26725495,36.90524096,726c415d8a21eb60c9b8caeef93038394a52ddd0,KCB ATM - Kayole Naivas,-1.275767,36.910028000000004,atm,1.0851608483798325
 Westlands,Parklands,-1.2630616,36.8106288,b5f00f47fc50599d8049f5f4ee22064fb1264e80,Stanbic Bank,-1.2567502000000002,36.8032336,atm,1.080238494332525
 Westlands,Parklands,-1.2630616,36.8106288,1ccfcaca6f18bef2230683c9e714fba1ed31d287,Standard Chartered Bank ATM,-1.2568620000000001,36.80334000000001,atm,1.063183148952771
 Kibra,Makina,-1.30854575,36.78652379,f63862eed820c3679edd3731fdd92d10722e8f96,KCB ATM - Uchumi Ngong Rd,-1.300019,36.790852,atm,1.0625627466564482
 Starehe,Nairobi Central,-1.2832533000000002,36.8172449,9777491455f907d888d8fc147c79136187ebb132,Barclays,-1.2888861999999999,36.824932399999994,atm,1.058885593550719
 Westlands,Parklands,-1.2630616,36.8106288,1fb5ba96f10dec37d0905bc6a240a84fb78b701a,PesaPoint ATM CFC - Westgate,-1.257039,36.803416,atm,1.0440500819609952
 Westlands,Parklands,-1.2630616,36.8106288,70143b5bb6126851592f4f7f7cc7cdd1c02db2be,PesaPoint ATM DTK - Westlands,-1.257039,36.803416,atm,1.0440500819609952
 Ruaraka,Mathare North,-1.251788,36.87077217,2cdfd023a244a2a8c4a23af23a7165699e88e7ee,Co-op Bank ATM - Total Thika Road Branch,-1.2426719,36.8685615,atm,1.0423750407159529
 Starehe,Nairobi Central,-1.2832533000000002,36.8172449,42afbe134f949ee3cb98c787b26e8e74cb76bfd0,PesaPoint ATM Commerce,-1.286853,36.825905999999996,atm,1.0420595076490902
 Westlands,Parklands,-1.2630616,36.8106288,b32313c5c89cbf68a6fecbfd2e3613754e57d7ae,PesaPoint ATM KCB - Sarit,-1.261534,36.801388,atm,1.0405756199989522
 Westlands,Parklands,-1.2630616,36.8106288,936bce2987e8c8bde3531e515c7538319c9e8643,PesaPoint ATM DTK - Westgate,-1.257093,36.803416,atm,1.040213637682025
 Westlands,Parklands,-1.2630616,36.8106288,f28f53631bafb63a035ec06366c0f6d134f8702e,Standard Chartered Bank ATM 2,-1.261601,36.80145200000001,atm,1.032364503599449
 Westlands,Parklands,-1.2630616,36.8106288,2245c0496b623411c5f93acd0012cb0fc84bb88a,PesaPoint KCB,-1.2572358000000001,36.803463799999996,atm,1.02604255971923
 Westlands,Parklands,-1.2630616,36.8106288,3830fa44a788268a95ed712b7daa2fb2606fb8f0,PesaPoint ATM Ukay,-1.257147,36.803554999999996,atm,1.0245044838092188
 Starehe,Ngara,-1.277803,36.8300722,3a74b4696489338f2f26071d2ed868f3a235e4c3,PesaPoint ATM KCB - KICC,-1.286255,36.826389,atm,1.0244956550328477
 Starehe,Nairobi Central,-1.2832533000000002,36.8172449,73da5d0cbcc255f7be7427359389b3f86b81217e,PesaPoint ATM KCB - NSSF Building,-1.291752,36.813812,atm,1.0185194345191797
 Lang'ata,Nairobi West,-1.3087022,36.8230975,94df6b55e0f17fcd5fb8825fd2a59324a156ab23,Co-operative Bank of Kenya,-1.2997621000000001,36.821188299999996,atm,1.0158594755848998
 Makadara,Makongeni,-1.2873101,36.87210716,bd8696d292afcbdd7e0861230485f04b6ab87574,Co-op Bank ATM - Buru Buru Branch,-1.2879181,36.88115639999999,atm,1.0076116603884584
 Kibra,Makina,-1.30854575,36.78652379,20f516d0adda2be627e3c4cf93d5c254bfce1084,Equity Bank ATM,-1.2994983,36.78703170000001,atm,1.0069811137428513
 Makadara,Makongeni,-1.2873101,36.87210716,149f017cd888bed19f4edd3e8df3b199bdbe1384,PesaPoint ATM KCB - Buruburu,-1.288019,36.88114300000001,atm,1.0069413938806646
 Starehe,Nairobi Central,-1.2832533000000002,36.8172449,f578664ca4c69d2c7ae957bb04f40410f97fb3be,PesaPoint ATM CFC - Marshalls House,-1.290076,36.823049,atm,0.9952978739577012
 Starehe,Nairobi South,-1.314183,36.8235852,54d1062820fc9d313c08a192a43cac704c30fc73,Chase Bank ATM-Total Madaraka,-1.3061431000000001,36.8200595,atm,0.9755244142959528
 Westlands,Parklands,-1.2630616,36.8106288,bc41e590e91d041df127d52d3473e4820d611d4a,PesaPoint ATM Sarit,-1.260767,36.802186999999996,atm,0.971913565412834
 Makadara,Makongeni,-1.2873101,36.87210716,778898b9fd82f7bf4b39907b545c177f753dbdfd,PesaPoint ATM Buruburu,-1.283131,36.87973999999999,atm,0.9668256155471564
 Makadara,Makongeni,-1.2873101,36.87210716,66e10cbdf0b9a41cc5bcb7ec88e32f9aae3f3ed8,Co-op Bank ATM - Buru Buru Branch,-1.2833278000000001,36.8798234,atm,0.964736977282493
 Starehe,Nairobi Central,-1.2832533000000002,36.8172449,a8ac58b7394df9bb1b85c1b8816c938fc60545a1,ATM KCB - Kencom,-1.286142,36.825308,atm,0.9515677197866946
 Makadara,Makongeni,-1.2873101,36.87210716,954641a4d493043d7ce04bcceef8b1c47e84f1fa,PesaPoint ATM CFC - KNLS Building,-1.282825,36.879301,atm,0.9418889301266204
 Ruaraka,Babadogo,-1.2433103,36.8910881,9d3d50c36dbbbd74598967724caf96bd983819e0,PesaPoint ATM KCB - Kariobangi,-1.245959,36.88304,atm,0.941335090651188
 Starehe,Nairobi Central,-1.2832533000000002,36.8172449,33336b076286c668f4053505c77fb0743528df43,KCB ATM Kencom House,-1.2860209999999999,36.825206,atm,0.9364057806264641
 Kibra,Makina,-1.30854575,36.78652379,5af076ef442e5b0777ce0f2d3001058fd39b4177,PesaPoint ATM Prestige,-1.30014,36.78702699999999,atm,0.9357613626252604
 Lang'ata,Nyayo Highrise,-1.31600475,36.80173345,0afc478d70e44afa6ac96bd476e6b5cb32707ece,PesaPoint ATM NIC - Uchumi Langata,-1.324271,36.803104,atm,0.9311216913310916
 Lang'ata,Nyayo Highrise,-1.31600475,36.80173345,5bc554694dc70fbc1a23fd3c6a2c1051ee8df997,PesaPoint ATM KCB - Langata Uchumi,-1.32426,36.803126,atm,0.9303191067988033
 Kibra,Makina,-1.30854575,36.78652379,f724af662723138ae1e582ff7613489337374503,Standard Chartered Bank ATM,-1.3002280000000002,36.787298,atm,0.9283042101841272
 Dagoretti North,Kabiro,-1.2878118,36.7515014,3e37eaa3646deae9788630932770e160751abd00,Cooperative bank ATM,-1.2884327,36.74322190000001,atm,0.9224120424190094
 Kasarani,Clay City,-1.2208721000000002,36.9012224,772a5b79293ab59bff05bae7cffc9bd692c2ee58,Airtel Money Agent-Esther Wanjiru Wanyoike,-1.2278411,36.90572879999999,atm,0.9221732799820348
 Kasarani,Clay City,-1.2208721000000002,36.9012224,e441ac168d59fe1842215acbfef8be9b6d1e5bb5,Airtel Money Agent-Euphresia K Musebe,-1.2278411,36.90572879999999,atm,0.9221732799820348
 Lang'ata,Nyayo Highrise,-1.31600475,36.80173345,3cbb1c25a9eedaac7bbea8ebfa7342f7e9006d01,KCB ATM - Uchumi Langata Rd,-1.32419,36.80306100000001,atm,0.9214662407075402
 Lang'ata,Nairobi West,-1.3087022,36.8230975,01ad4027577a16492dff8cb3f5096e70ea1ca630,PesaPoint ATM NIC - Masaba Road,-1.300448,36.822701,atm,0.918306016964886
 Lang'ata,Nairobi West,-1.3087022,36.8230975,2bb5ac5303a6d3d5f9717d8231aea3b57deb8fa7,NIC Bank Limited,-1.3004639999999998,36.822577,atm,0.9172953668660684
 Embakasi East,Upper Savanna,-1.324728,36.887724,0f0c9f0eb4db89605b541875dc0dd2954548359f,Co-op Bank ATM - Kenol Kwa Jomvu Branch,-1.3328341000000001,36.88926890000001,atm,0.9169962605372468
 Kibra,Makina,-1.30854575,36.78652379,4aa9664c7db6b7c72ef91419df77da4b67deea03,NIC Bank ATM,-1.3003091,36.78696869999999,atm,0.9166322934087284
 Kibra,Laini Saba,-1.31234835,36.79611435,112ee32807813e8dd7542d60d92b405688ef8a6a,Co-op Bank ATM - Kenyatta Market Branch,-1.3070438,36.8024075,atm,0.914481351484369
 Westlands,Parklands,-1.2630616,36.8106288,e91098fbd4c04c606812b19d90fe87283de259b7,PesaPoint ATM Mall,-1.264515,36.80254899999999,atm,0.91206428861413
 Roysambu,Roysambu,-1.2188396,36.88673920000001,3825000277dea6106a5e4fbc243e75aff5a30bbd,PesaPoint ATM KCB - Usiu,-1.216429,36.878914,atm,0.9097142979398928
 Kibra,Makina,-1.30854575,36.78652379,fd373af65d33fb304b935e2caecb3923e675fe2c,PesaPoint ATM KCB - Prestige,-1.300394,36.786829,atm,0.9064985270157436
 Kibra,Makina,-1.30854575,36.78652379,0bb3471f2f968714381c018bb445a7b8e8cc2fac,Barclays Bank ATM,-1.3004378,36.7868507,atm,0.9017285521118256
 Mathare,Huruma,-1.25764595,36.87259835,8ef156ed80ff71c3f7cab5ff32036ac807f1b38e,Co-op Bank ATM - Mathare North Branch,-1.2625106000000001,36.8790671,atm,0.8992851584065691
 Kibra,Makina,-1.30854575,36.78652379,9b09dc940df82dbbc2de7ed5f7806c1f428ce434,PesaPoint ATM NIC - Prestige,-1.30047,36.78702200000001,atm,0.8991238796783955
 Starehe,Pangani,-1.2648989,36.8372708,fb87415800dc437ed390269af5168439a73b8dfd,Airtel Money Agent-Supa Shop,-1.272545,36.8398293,atm,0.8959576125148787
 Westlands,Parklands,-1.2630616,36.8106288,d87a754ef0ee5ac3bc54e08681925f80fdfd6a83,NIC Bank ATM,-1.264406,36.802707899999994,atm,0.8925882269004219
 Starehe,Ziwani,-1.2788772,36.8360883,188739a1c9b9c38f25df73f163f9ea635d17308c,PesaPoint ATM KCB - Kyuso,-1.2841120000000001,36.830044,atm,0.8884341320270386
 Embakasi Central,Kayole South,-1.2659842,36.9169455,7deb966fd6197740c60862492a6361192cc430cb,Olmec Technical Services Ltd,-1.2599242,36.9118532,atm,0.8795222556180402
 Westlands,Parklands,-1.2630616,36.8106288,7464f6c8677ba9dfd1f48634b84895a83fd10a01,PesaPoint ATM CFC - T - Mall,-1.264355,36.802825,atm,0.8788202109804298
 Embakasi West,Umoja 1,-1.2778669,36.8881172,ec8b8d5597a37b7646022678a96f19a9a220f886,PesaPoint ATM KCB - Mutindwa,-1.2850190000000001,36.88478600000001,atm,0.8767192426555809
 Westlands,Parklands,-1.2630616,36.8106288,d0c7a043cc667e632af6529146d3da17a9380d52,PesaPoint ATM DTK - T Mall,-1.264312,36.80288999999999,atm,0.8709217473906216
 Dagoretti North,Kilimani,-1.2874422,36.7845225,73b9989668da752ce58a52c08bbf679189ff2943,Prime Bank ATM,-1.2947859,36.7872332,atm,0.8698626134402707
 Lang'ata,Nyayo Highrise,-1.31600475,36.80173345,3f54dd3e2201e2b07d668065813180c1205a105d,PesaPoint ATM KCB - Uchumi,-1.323724,36.802842,atm,0.8665981497832883
 Westlands,Parklands,-1.2630616,36.8106288,5917f57e81948b15fa783197ce99c0e85d412443,I&M Bank ATM,-1.2672082,36.81713010000001,atm,0.8567493216715735
 Mathare,Mabatini,-1.2602912,36.86361626,7c03ba5afa153f0e5cc905563599042e2a6f6b1d,KCB ATM - Moi Airbase Eastleigh,-1.266543,36.859173,atm,0.8522503993542856
 Kibra,Laini Saba,-1.31234835,36.79611435,cec532e63ba465154dda3bd971ab8be4a8decd90,Equity Bank ATM,-1.3076082,36.8021343,atm,0.8513219401911675
 Embakasi East,Upper Savanna,-1.324728,36.887724,8dea6d4ed1f697f011e9d24ed3ee265208734207,Coop Atm,-1.3266133,36.8949893,atm,0.8338878254520684
 Embakasi West,Umoja 1,-1.2778669,36.8881172,5e929acc7dac3dac8e79d9b66a313802f85d2898,KCB ATM,-1.2846061000000002,36.8850598,atm,0.8223246222486291
 Westlands,Parklands,-1.2630616,36.8106288,0d8cfd187cfcf019bcaf7835f69afe31b8dc7945,Standard Chartered Bank ATM,-1.263914,36.80329100000001,atm,0.8207002692851303
 Dagoretti South,Riruta,-1.2917037,36.7346929,dc3e809e24e503b2d58a22d8cce7fc7886f747eb,Sidian Bank,-1.2852934999999999,36.738071999999995,atm,0.8052025360544347
 Lang'ata,Nairobi West,-1.3087022,36.8230975,263094760dd2cc968a0badee1991e7cd931b7160,Standard Chartered Bank ATM,-1.3018399999999999,36.825404,atm,0.8044642431618102
 Kasarani,Ruai,-1.2677339,36.9911112,b0bb6d23a8327d4ef071699689816d1193ffa4bf,PesaPoint ATM KCB - Ruai,-1.2713,36.997355,atm,0.7988881041273798
 Dagoretti South,Riruta,-1.2917037,36.7346929,60811a6aa5db7ec7d90f690d2f6f25b8c862a8ec,Kenswitch ATM,-1.2853796999999998,36.7381123,atm,0.7988601908681805
 Makadara,Maringo,-1.2920714,36.86572592,633ba28d2b303ecec211a7212297a937bcf306e2,Co-op Bank ATM - Jogoo Road Branch,-1.2978301,36.8699961,atm,0.7966031497660817
 Mathare,Huruma,-1.25764595,36.87259835,0699757005aa6be64e54143a11834998dc8b515a,Co-op Bank ATM - Kariobangi Branch,-1.2600087,36.87936210000001,atm,0.7959911500297694
 Starehe,Nairobi South,-1.314183,36.8235852,d0753db72f97ec966b4cb89202d4d9ebfb1b5490,Co-op Bank ATM - Tuskys T - Mall Branch,-1.3124448999999998,36.8166618,atm,0.7930416237989701
 Starehe,Nairobi South,-1.314183,36.8235852,7668d72891f4c9c400c93cc8cb59f030854a981c,Kenya Comercial Bank ATM,-1.3126959999999999,36.81668519999999,atm,0.7841698113871186
 Starehe,Nairobi South,-1.314183,36.8235852,63627284fc04609f3ac8f092510091ae2db5df45,Cooperative Bank ATM,-1.3125878,36.8167201,atm,0.7830142397546735
 Ruaraka,Mathare North,-1.251788,36.87077217,c2972324100855fbcbb8b22556ebf800308cc67e,PesaPoint ATM BBK Ruaraka,-1.245919,36.866903,atm,0.7811117439815457
 Embakasi Central,Spring Valley,-1.2477029,36.78923560000001,d489a72dfebb77dd047adf9b4585565b46caef18,PesaPoint ATM Spring Valley,-1.254068,36.792193,atm,0.7799094610379057
 Starehe,Nairobi South,-1.314183,36.8235852,d978f5296cee97cd32ec6f56be2b3e4f04731140,National Bank ATM-T-MALL,-1.3124559999999998,36.816789,atm,0.7790385641989681
 Starehe,Nairobi Central,-1.2832533000000002,36.8172449,b96c311548761bfb10ecef5744990e46b8f111c6,PesaPoint ATM CFC - International Life House,-1.285925,36.823709,atm,0.7770941073963509
 Starehe,Nairobi South,-1.314183,36.8235852,b7baed95e1232473558a93091a6c1830ad99238e,PesaPoint ATM Madaraka,-1.3125149999999999,36.816794,atm,0.7769099352094665
 Makadara,Maringo,-1.2920714,36.86572592,5f76685aa29b640a403d68be2ab2986f56115f0b,Co-op Bank ATM - Moi Referral Branch,-1.2859728000000001,36.8623221,atm,0.7760722808269469
 Starehe,Nairobi Central,-1.2832533000000002,36.8172449,a4fbc27b098175be31c04f379866db3075124888,PesaPoint ATM CFC - Corner House,-1.285051,36.82394,atm,0.7701665988148529
 Lang'ata,Karen,-1.3283746,36.7049676,89c1851420f5495b5f48ef76cb63727e89c76d9a,Equity ATM,-1.3222868,36.70826199999999,atm,0.7691638070676957
 Embakasi West,Umoja 2,-1.2818728,36.89933970000001,31ba4e21799710bae3db91cce0d649f806758fd9,Greenspan Mall. Cooperative ATM,-1.2885215,36.9012097,atm,0.7674905058692529
 Embakasi West,Umoja 2,-1.2818728,36.89933970000001,5a4ce4fbde28523660e074cdd39ca2bca8f6e2e0,National Bank,-1.2885248,36.90112450000001,atm,0.7653367564562379
 Makadara,Makongeni,-1.2873101,36.87210716,f753a87fe1f8ec6099a54b67833d6812dfd44dfd,Co-op Kwa Jirani Irene Njeri Kaunda T/ A Joycool Cosmetics Mwea,-1.283748,36.87797,atm,0.762193119915128
 Starehe,Ziwani,-1.2788772,36.8360883,6cf95459c30f2e2f2f3d8f319dafd5ce623166d2,PesaPoint ATM KCB - Gikomba,-1.285539,36.837367,atm,0.7538005137780839
 Starehe,Nairobi Central,-1.2832533000000002,36.8172449,58c95794fa843b93f267c60393ed9844104a4df8,PesaPoint ATM KCB - River Road,-1.281476,36.82374100000001,atm,0.7482358069938969
 Lang'ata,South C,-1.3204427,36.83053678,73e6e2a2784e4d2d3cd97bd107a826cf392696e1,PesaPoint ATM Bellevue,-1.319447,36.837158,atm,0.7438638216757961
 Dagoretti South,Uthiru,-1.2631329,36.7188955,b8e170820484a5aff8e4169e6caa93715b474dfd,CFC Bank AtM,-1.2688466999999999,36.7222336,atm,0.7353173423653507
 Dagoretti North,Kilimani,-1.2874422,36.7845225,349f77103d01b03b8f963fc52c9ab609c476de48,NIC Bank ATM,-1.2930422,36.7880201,atm,0.7336530427651714
 Dagoretti North,Kilimani,-1.2874422,36.7845225,975e331a2661e0db6d90628c0312425cbe6f2be6,KCB ATM,-1.292993,36.78802,atm,0.7290153432050942
 Lang'ata,South C,-1.3204427,36.83053678,6392ee6eb23634bdd94ebe43f29c61c518e85c2b,KCB ATM - Oil Libya Belle Vue,-1.3193469999999998,36.836948,atm,0.7225909223431852
 Embakasi West,Umoja 1,-1.2778669,36.8881172,95451824c07155b765ca09c287c261473bd29c74,PesaPoint ATM NIC - Uchumi Buru Buru,-1.284324,36.887440999999995,atm,0.7214678354642201
 Starehe,Nairobi Central,-1.2832533000000002,36.8172449,d3c2583cfa5275b8d4970d2ff481277076ab5d00,PesaPoint ATM NIC,-1.285828,36.82320199999999,atm,0.7210152116954995
 Starehe,Nairobi South,-1.314183,36.8235852,948815d063c9861ce6fb9eded47b3a104a3f21aa,KCB ATM,-1.307817,36.822609,atm,0.715687346250854
 Westlands,Mountain View,-1.27113135,36.74300262,d5bcc7ba4ae9031eb1b6d2019647a5d2a8dd36ec,KCB ATM - Kangemi,-1.265095,36.740759000000004,atm,0.7156050633456323
 Starehe,Nairobi South,-1.314183,36.8235852,08dcadbad51b3842c36bd6257f7caa34f95396b0,National Bank ATM-Nairobi West,-1.3078522,36.822461,atm,0.7145110850671998
 Starehe,Nairobi Central,-1.2832533000000002,36.8172449,e1948f37fd94a1ff83d722dd8e0e1b441b400c8c,Standard Chartered Bank ATM 2,-1.284268,36.823583,atm,0.7131164787621068
 Dagoretti North,Kilimani,-1.2874422,36.7845225,3bfb9e39a3c361b382a707a2d60a0e315d820cdb,Standard Chartered Bank ATM 1,-1.292827,36.787954,atm,0.7095083437006141
 Dagoretti North,Kilimani,-1.2874422,36.7845225,a4bcdfc7620652ec6862107caff3fccc87360c8c,PesaPoint ATM KCB - Yaya,-1.292886,36.78785900000001,atm,0.7094757359186201
 Ruaraka,Utalii,-1.25571935,36.8612155,92c77609985faf6184bf7fa981613141bcba4950,Co-op Bank ATM - Kahawa Barracks Branch,-1.2566215,36.854898299999995,atm,0.7089548073207882
 Embakasi West,Umoja 2,-1.2818728,36.89933970000001,d0cc385afe3b296cf57cdd1a6d9b5748c892a4eb,KCB ATM,-1.281056,36.905629,atm,0.7045952063749165
 Roysambu,Zimmerman,-1.2103969,36.89522120000001,c8d465cfd6a523a550641c85ccf975849ffe5683,Coop ATM Kasarani,-1.2087973,36.901288799999996,atm,0.6971547496858786
 Starehe,Nairobi Central,-1.2832533000000002,36.8172449,96d8818251a80ea3fbffa8181901982cfb6e6c37,PesaPoint ATM DTK - Jubilee House,-1.28552,36.823091999999995,atm,0.696722824737492
 Kasarani,Ruai,-1.2677339,36.9911112,ca51b1663c3e522517c43aad667230494ddc0118,Equity ATM,-1.2708015,36.996578,atm,0.6964753331552911
 Starehe,Ngara,-1.277803,36.8300722,4640e618f1a208af91fe8715edc0d01356865c0f,PesaPoint ATM KCB - Savanis,-1.2819209999999999,36.825384,atm,0.6933189954727325
 Lang'ata,South C,-1.3204427,36.83053678,4c529cacfca08e4c52d9f15a1f7df13c6ac7a686,PesaPoint ATM South C,-1.31938,36.83667999999999,atm,0.6926265177073987
 Starehe,Nairobi Central,-1.2832533000000002,36.8172449,a24d8a238ceab68fb7d292e087e5dc6ac923ff47,PesaPoint ATM KCB - Salama House,-1.286043,36.822781000000006,atm,0.6887554292711959
 Kasarani,Kasarani,-1.2208721000000002,36.9012224,ed22d6eec10dcb15265fe0264f1f3335a5f5bc8a,KCB ATM - Nairobi,-1.2185139999999999,36.895526000000004,atm,0.6849752901881739
 Embakasi West,Kariobangi South,-1.324728,36.887724,84bad2d641d980bb3564ca75c1beebd4a71741c8,Co-operative bank ATM,-1.328292,36.882704800000006,atm,0.6839474368699175
 Starehe,Nairobi Central,-1.2832533000000002,36.8172449,1b81d65aa346d1ebce7b00ade48c96bc0ebf3fbb,PesaPoint ATM KCB - Kimathi Street,-1.2841109,36.82333479999999,atm,0.6832499992527201
 Starehe,Nairobi South,-1.314183,36.8235852,78a1f6e9f99c03bda0977b6894874975d5b890a7,Standard Chartered Bank - Total South C ATM,-1.3128135,36.8295318,atm,0.6779451697959697
 Starehe,Nairobi South,-1.314183,36.8235852,7dcbafe7b7569db2ee9acfe84ba6baa7fcb37713,Standard Chartered Bank ATM,-1.312818,36.82953200000001,atm,0.6778547454238245
 Starehe,Nairobi Central,-1.2832533000000002,36.8172449,12c3beece96013213fdd618e9a90ca79f236835a,KCB atm,-1.285941,36.82270949999999,atm,0.6765920416468001
 Dagoretti North,Kilimani,-1.2874422,36.7845225,4ec870efbb4e8451b84487c28739e776f67ab29f,National Bank ATM-Kobil,-1.292726,36.787525,atm,0.6752986288546803
 Kamukunji,Pumwani,-1.2797575,36.8442693,dc3b112cc9ce54357e394bb81938796e3617b36d,KCB ATM - Gikomba,-1.284219,36.840205,atm,0.6705850319798369
 Kamukunji,Eastleigh South,-1.2778285,36.8486835,ba146a5c02c92baf55b88eb4bb6c0ccb7804d6a5,PesaPoint ATM Eastleigh,-1.2721149999999999,36.850574,atm,0.6687507394648591
 Lang'ata,South C,-1.3204427,36.83053678,c3ade1aeffe3a27ba7ce260f0b46911f464c75bb,Co-op Bank ATM - Oilibya Mombasa Road Branch,-1.318773,36.836205299999996,atm,0.6565131724687763
 Westlands,Parklands,-1.2630616,36.8106288,776cf51fff6e34d6904233a00f1f760f384c7d7f,PesaPoint ATM CFC - Chiromo Branch,-1.268913,36.810572,atm,0.6502681083955781
 Kasarani,Kasarani,-1.2208721000000002,36.9012224,da23026a1abb94bf6410ded5ed4c95cb926334bb,Milk Atm Near Happy Mini Market,-1.2155232,36.903445899999994,atm,0.6436863935967253
 Lang'ata,Karen,-1.3283746,36.7049676,f9bb1d42235e38ab72a8bdae8a76ed62467ea27e,PesaPoint ATM DTK - Karen,-1.323284,36.70768700000001,atm,0.6413121242587861
 Embakasi Central,Kayole North,-1.2659842,36.9169455,041647c0513a301e7c0d606eb2ee6ee8e4ce4baf,Equity Bank ATM,-1.2660498,36.922672399999996,atm,0.6362888201115483
 Makadara,Maringo,-1.2920714,36.86572592,ca6e6d17f764996a28652396696fc634c663001b,KCB - Kenya Commercial Bank ATM,-1.295336,36.861056,atm,0.6330684620882819
 Kamukunji,Eastleigh South,-1.2778285,36.8486835,b4dd2bc25f64ab6d6863b4f160bd5400813ac7aa,M-Pesa Ramoz Communications Ltd,-1.2724537,36.850515400000006,atm,0.6309976207750475
 Embakasi West,Mowlem,-1.324728,36.887724,f79d255b58225c08898d75a3b3192d0057bbcf09,Equity Bank ATM,-1.3289945,36.891433299999996,atm,0.6281720060064984
 Makadara,Maringo,-1.2920714,36.86572592,fcaded8d195b35e9875babdc4f9260da903d73a4,PesaPoint ATM KCB - Jogoo Road,-1.295525,36.861265,atm,0.6268186842225666
 Lang'ata,Karen,-1.3283746,36.7049676,7b301fba50fa83419b36511c6e9cf9e0a8e93ebf,KCB ATM,-1.3230629999999999,36.706767,atm,0.6231850567004543
 Lang'ata,Karen,-1.3283746,36.7049676,d1f2d6fff3b993aadb5e83ebc1593c6227232ca7,PesaPoint ATM KCB - Karen,-1.323453,36.70765,atm,0.6228318616662171
 Dagoretti North,Kileleshwa,-1.2723271,36.7996878,1e00c188f8ab7eef9f5c8c6142867035639cfc63,PesaPoint ATM Kasuku,-1.274931,36.794746999999994,atm,0.6205095328349455
 Embakasi East,Embakasi,-1.324728,36.887724,b519762209d37c91c980857bdab9ecb15524a4bf,Ecobank ATM,-1.3287055,36.89161710000001,atm,0.6184051044362718
 Roysambu,Githurai,-1.2062932,36.9206391,757469a86bf955571b70391d74cf2d0ca675fc16,KCB ATM - Githurai 45,-1.2046299999999999,36.915328,atm,0.6183344534344366
 Kamukunji,Eastleigh North,-1.2778285,36.8486835,45645f9eab984f95de2e6c59cec6a4941bfebc54,M-Pesa Jobliu Telecoms,-1.2722817,36.8488526,atm,0.6166750066915991
 Lang'ata,Karen,-1.3283746,36.7049676,341e5351b7ed11d61dbcc36c23775d513735bf6e,Ecobank ATM Karen,-1.3237616,36.7080152,atm,0.6143385895695461
 Lang'ata,South C,-1.3204427,36.83053678,c5607e9aa3bec9a498aa4b6c2eefe7481e83f9d7,KCB Atm,-1.3165061000000002,36.834363,atm,0.6099648062435975
 Lang'ata,Karen,-1.3283746,36.7049676,e0e89b85ecd8fabf11115c8a57fcb26ca180d859,Co-op Bank ATM - Karen Crossroads Branch,-1.3234463,36.7073761,atm,0.6095281575337612
 Embakasi East,Embakasi,-1.324728,36.887724,aa88d99077393129c60710178ec05d793c853a72,AutoBank ATM,-1.3288148000000002,36.891366999999995,atm,0.6083150304279853
 Embakasi West,Kariobangi South,-1.324728,36.887724,d8092b21960194a46ee94f72302f2bf9e604d30e,Co-operative Bank ATM,-1.3299665,36.88931110000001,atm,0.6082454889521899
 Lang'ata,Karen,-1.3283746,36.7049676,9bd8bb92cab9e1817dd0d8f008e4271e097cc47e,PesaPoint ATM Karen,-1.323756,36.707896999999996,atm,0.6077259078866338
 Lang'ata,South C,-1.3204427,36.83053678,9d98c5b1aa5097b0877d86f96fec04a9a6324ae1,PesaPoint ATM CFC - Capital Centre,-1.3164497,36.834267600000004,atm,0.6071917060224782
 Embakasi East,Upper Savanna,-1.324728,36.887724,2e45956658ff9541400ce5c0ed17f4a57d159fe9,Pesa Point,-1.3299451,36.8893138,atm,0.6060572593785567
 Lang'ata,Karen,-1.3283746,36.7049676,982db328b1914dd93318d1172c76889d338e13db,KCB ATM - Karen,-1.3237450000000002,36.707832,atm,0.604928919436101
 Embakasi West,Kariobangi South,-1.324728,36.887724,d4530afd33706afafff40dde559942e9dc478351,KCB bank ATM,-1.3286419,36.89146759999999,atm,0.6017775450965965
 Embakasi West,Kariobangi South,-1.324728,36.887724,efbe6c1dca97582d67e9b099c2bd433d04103385,PesaPoint ATM Wanandege,-1.328159,36.883592,atm,0.5967329192029767
 Embakasi Central,Kayole North,-1.2659842,36.9169455,fe0bfb7da279281da2d396dca9c42c3ef49caf29,Pesa Point,-1.2698844,36.9132739,atm,0.595174384370766
 Lang'ata,Nairobi West,-1.3087022,36.8230975,1eec516142914d09aca776d9e8d6f4c0dc9a9f6b,PesaPoint ATM NIC - Capital Centre,-1.3071760000000001,36.828226,atm,0.5944632214696309
 Lang'ata,Nairobi West,-1.3087022,36.8230975,fa1d1b695e2f7907c1aff4f939c41d3a6fa3b279,PesaPoint ATM KCB - Capital Centre,-1.306894,36.828124,atm,0.5934760297994568
 Lang'ata,South C,-1.3204427,36.83053678,49996d3604f1c58b5a883db6cacbf0e32de0b243,NIC ATM,-1.3165073999999999,36.8341449,atm,0.5932272754160134
 Embakasi East,Embakasi,-1.324728,36.887724,d8bba400d865ffad3a2c0f3a4171babeb2d27a0e,ATM,-1.3282068,36.8917361,atm,0.5900143896430161
 Embakasi East,Embakasi,-1.324728,36.887724,06ca110891644c1e774f97d2aceb4b9260a94cd6,KCB ATM - Nairobi,-1.328543,36.89136999999999,atm,0.5863407442049141
 Lang'ata,Nairobi West,-1.3087022,36.8230975,e43523f43e31b9380af2ec07a1fb06cfba4fe509,PesaPoint ATM Capital Centre,-1.306937,36.828065,atm,0.5856950591153081
 Starehe,Nairobi Central,-1.2832533000000002,36.8172449,5d625a27cc8876dc497e91d2268d5b382157bd0a,PesaPoint ATM DTK - Nation Centre,-1.283141,36.822505,atm,0.5845158525693952
 Embakasi East,Upper Savanna,-1.324728,36.887724,0f33d403bb4f328a23250532b27a1f2a2af43924,PesaPoint ATM Embakasi,-1.329757,36.889235000000006,atm,0.5835151782436224
 Lang'ata,Nairobi West,-1.3087022,36.8230975,1423fe5dc67b0fcf88d2bbfd8e4e4b2d881b84e3,PesaPoint ATM DTK - Capital Centre,-1.306964,36.828038,atm,0.5818666740940079
 Starehe,Nairobi Central,-1.2832533000000002,36.8172449,a6bfb68ae64de65fc7279ed30c43d6f90b62cebc,CFC STANBIC BANK ATM,-1.2844445,36.822338099999996,atm,0.5811176355718236
 Lang'ata,Karen,-1.3283746,36.7049676,c52dfda61a2fa09d8772c08c71605cd6f5fe0fef,Absa | Branch | Karen,-1.323949,36.707706,atm,0.5782858791321169
 Makadara,Viwandani,-1.3112438,36.87347165,6ad2163d460ba1a1c3887a58e42150c0e91c7119,Co-op Bank ATM - Industrial Area Branch,-1.3060905,36.8731176,atm,0.5740102837963498
 Embakasi Central,Kayole North,-1.2659842,36.9169455,abc7ff7a4048b8ec9335167e6aab3f90aff43fbf,Kenya Commercil Bank ATM,-1.269788,36.91347800000001,atm,0.5719064940658201
 Lang'ata,Karen,-1.3283746,36.7049676,29beef6f0b287b3c63eddf5ea6e7722fd060113f,Cooperative bank ATM,-1.3242388999999999,36.7079294,atm,0.5652279678248666
 Roysambu,Kahawa West,-1.1856847,36.90579279999999,e0ffdb0ca79ec11f8b3aa4dcb4d980b4546f8873,Equity Bank ATM - Kahawa West,-1.1836973999999998,36.901287599999996,atm,0.5470868006583303
 Starehe,Nairobi Central,-1.2832533000000002,36.8172449,0fa37b5f526fd0013548df837bf30e066a6d92cd,Standard Chartered Bank ATM 2,-1.2846146,36.8219704,atm,0.5463500583275975
 Starehe,Nairobi Central,-1.2832533000000002,36.8172449,300801ebee579b14cc3a821a443b47a01e8d41e4,PesaPoint ATM Kisumu Eco Fedha,-1.2857677,36.8214356,atm,0.5429840562239377
 Starehe,Nairobi Central,-1.2832533000000002,36.8172449,b069f90930c5e892aa4f897466fa5a6200a5d318,PesaPoint ATM Eco Fedha,-1.2858221,36.82132670000001,atm,0.5358426206144229
 Kamukunji,Pumwani,-1.2797575,36.8442693,7a7ceb90d02bd3d3bdc69a3ff9fc6311a29b7216,PesaPoint ATM CFC - Gikomba,-1.283758,36.84166099999999,atm,0.5306596509733622
 Starehe,Nairobi Central,-1.2832533000000002,36.8172449,337023a004d57bab3ce2c877c16c1537976ee2a1,K-rep ATM,-1.2847845,36.8216592,atm,0.5190962389687129
 Makadara,Harambee,-1.290941,36.89721585,10a5c013bcd7b3053416f50464d023c0bd283227,Cooperative Bank Atm,-1.2885258,36.90117710000001,atm,0.5154665448470013
 Embakasi East,Upper Savanna,-1.324728,36.887724,9fc574843fa0a87bcab93d619fcbc9bb58908a6f,Barclays Bank Embakasi,-1.3284495,36.89033970000001,atm,0.505439500025832
 Embakasi North,Dandora Area 1,-1.2484935,36.89734979999999,5ba3d63ee2e8f5c54fbd2d9941095d6027bd438f,Coop bank ATM,-1.2486921,36.901866399999996,atm,0.5022736058623446
 Roysambu,Kahawa West,-1.1856847,36.90579279999999,f69676a60ec7d29f1a8fe72020cb02cb3b467b23,Cooperative Bank ATM,-1.1835327,36.9018393,atm,0.5001196292690784
 Ruaraka,Mathare North,-1.251788,36.87077217,d1dae2545eb7fb9f763a161b5c53255b302f69ad,KCB ATM - Oil Libya Baba Dogo,-1.247702,36.87263799999999,atm,0.4991368702408501
 Mathare,Mlango Kubwa,-1.2658072,36.8456235,101991f5a11d1a11940477ff4cb1b3ea5eef2b5c,Airtel Money Agent-Salome Waithira Maina,-1.2666667,36.85,atm,0.4955125896646853
 Ruaraka,Mathare North,-1.251788,36.87077217,ea16f29df1e960b9a477faef585a2b031104ac71,Equity ATM,-1.2476436000000002,36.8724051,atm,0.4949902671865203
 Makadara,Harambee,-1.290941,36.89721585,5806890283b46b72f00c15ddb4902e3bab98bd67,KCB ATM - Greenspan,-1.288746,36.90094099999999,atm,0.480386245108307
 Makadara,Harambee,-1.290941,36.89721585,e5f40d2bca0a6f35ddb364198c6ec47514fdc00c,Imperial Bank-Greenspan,-1.288728,36.90085499999999,atm,0.4732164977478656
 Embakasi North,Dandora Area 1,-1.2484935,36.89734979999999,fe62af431e47322594804ac6707ae781ee7d8d90,Co-op Bank ATM - Dandora Branch,-1.2487952,36.9015726,atm,0.4703441158567908
 Makadara,Harambee,-1.290941,36.89721585,f36642b12bbf5f648d60ad661084f98a2233dc9d,National Bank ATM-Greenspan,-1.2888,36.900822,atm,0.465952373734077
 Ruaraka,Mathare North,-1.251788,36.87077217,7b2190d6e0a2853eca3ae13cfbf9bf19de2d8b9c,Kenya Commercial Bank Atm,-1.247815,36.872105,atm,0.46567017836441293
 Roysambu,Roysambu,-1.2188396,36.88673920000001,eb47f0be70d99f8dcaaf05c6ca6b2487b931fe30,PesaPoint ATM KCB - Thika Road,-1.217797,36.890684,atm,0.4533227322409941
 Starehe,Nairobi Central,-1.2832533000000002,36.8172449,c0ad4355ffa843f0d53a8293bcab1f3298842090,PesaPoint ATM Guardian,-1.281807,36.82104,atm,0.4512193085729256
 Ruaraka,Mathare North,-1.251788,36.87077217,2bb6d3fbadbaf88f64de1308ccc98119098830fd,KCB ATM,-1.2478898999999999,36.871869000000004,atm,0.4499901296467571
 Westlands,Kangemi,-1.2654259,36.7525183,18145ca4e7c958736717077e729ce04c6d5d8c71,CO-op Bank ATM,-1.2664761999999998,36.748647999999996,atm,0.4455415974229204
 Westlands,Mountain View,-1.27113135,36.74300262,5da8ad74413b88ace1bf1f2304396ce2431ef183,PesaPoint ATM KCB - Kangemi,-1.269401,36.746569,atm,0.4404106640613369
 Kibra,Sarangombe,-1.31226715,36.77745932,6f9f6a02b877c65a2045c4558144a992ab3f04ae,Co-op Bank ATM - Kibera Branch,-1.3096214,36.78034459999999,atm,0.4349590307866325
 Starehe,Ngara,-1.277803,36.8300722,66e8c0ac27073f3ff63072eb8a59276cba8eee46,PesaPoint ATM KCB - Ngara,-1.276502,36.826483,atm,0.4241510039730767
 Kasarani,Clay City,-1.2208721000000002,36.9012224,0b6154c477ca843f4dd1a57ad1bdfc7bb63ceb6d,Solo Kiosk,-1.2173201,36.8999047,atm,0.42099043916572415
 Westlands,Kangemi,-1.2654259,36.7525183,393dd0803d208bec5722d383640d7c979075e11c,KCB Atm,-1.266097,36.748814,atm,0.4182427742361611
 Roysambu,Zimmerman,-1.2103969,36.89522120000001,5ece2ecd48414b937c4bcd8d503384d654dd73b1,Equity ATM - Mishael Plaza,-1.2067774,36.8942141,atm,0.4174901068549811
 Westlands,Kangemi,-1.2654259,36.7525183,3b701410def135aebb16cd06ecd404445d703ce3,Krep Bank ATM,-1.2661308,36.7488825,atm,0.4114552710998277
 Starehe,Ngara,-1.277803,36.8300722,d29bc1fecb93e8c9cd4241e66b82c047e2464b38,PesaPoint,-1.2795379999999998,36.826815,atm,0.41002446986940055
 Roysambu,Zimmerman,-1.2103969,36.89522120000001,5d24caa87e2791b1649a8a0dbc691f2bfe1e2dff,Wasolo Shop,-1.2134379,36.89726849999999,atm,0.407349612773388
 Kasarani,Kasarani,-1.2208721000000002,36.9012224,f0ccebcc8083cb855183f85ceed76dc0b63a6ad5,Coop Bank ATM,-1.2176768,36.8994981,atm,0.4034592539760459
 Westlands,Kangemi,-1.2654259,36.7525183,a03f23aaa9fb75717a92f1a889fbc75323bdca24,Pika Oil ATM,-1.2686639,36.75414239999999,atm,0.4025284648706378
 Roysambu,Zimmerman,-1.2103969,36.89522120000001,749f1f3e87713b0c503b803dc46a63c117fa1d33,"Equity Bank ATM, Mishael Plaza Building",-1.2069398,36.894297400000006,atm,0.3976442145614952
 Mathare,Kiamaiko,-1.25377765,36.87573249,1abded9bfd22f022257374f9d0f3e68d2c17ade7,KCB ATM - Kariobangi,-1.253693,36.87920400000001,atm,0.38579428828193785
 Roysambu,Githurai,-1.2062932,36.9206391,af937704095d58bf6a1ec02665dd7cbb76d6d87b,PesaPoint ATM KCB - Githurai,-1.205134,36.917409,atm,0.3812850005191132
 Westlands,Kangemi,-1.2654259,36.7525183,917dbc8f8fd37c8f088f104491363493e032f333,PesaPoint ATM Mountain View,-1.264556,36.749232,atm,0.37768204341344064
 Roysambu,Githurai,-1.2062932,36.9206391,5ed13f28266bd6ab59e8f150e6a9545b629f2f9a,KCB ATM,-1.205078,36.917539,atm,0.3699494381242721
 Kasarani,Kasarani,-1.2208721000000002,36.9012224,9350445abde87b12896577f936b60031e9e7465b,Equity Bank ATM - Kasarani,-1.2178779,36.9001901,atm,0.35194210010881466
 Starehe,Landimawe,-1.2694542,36.83557186,0bf38e570c861cacd628c855b6e67ee1493ea3b3,M-Pesa Kentel Communications Ltd,-1.2667077,36.8341641,atm,0.3429444130085636
 Roysambu,Kahawa West,-1.1856847,36.90579279999999,d448901b000888258a7a7684e3092c67b87dfe5d,Co-op Bank ATM - Githurai Branch,-1.1857256999999999,36.902844200000004,atm,0.3276250309234457
 Roysambu,Roysambu,-1.2188396,36.88673920000001,40d4ab16057d60ac9bd293aab12ec9478e988766,Cooperative Bank ATM,-1.2200882,36.88936569999999,atm,0.3231120032398384
 Kamukunji,Eastleigh North,-1.2778285,36.8486835,2abd9a1be0d120813c5e686638707e241caf38e2,KCB ATM - Eastleigh,-1.2790764,36.851296100000006,atm,0.32167861239332596
 Starehe,Nairobi Central,-1.2832533000000002,36.8172449,c43502d6a48241cc02cc37f3bb40eed26e366e1c,PesaPoint ATM KCB - Madaraka,-1.28541,36.818870000000004,atm,0.30005793431071165
 Starehe,Nairobi Central,-1.2832533000000002,36.8172449,60ec5e722e6c1a78ddb235c58de93541fb3dd3bb,Co-op Bank ATM - University Way Branch,-1.2806872,36.817049299999994,atm,0.2859849523406856
 Roysambu,Roysambu,-1.2188396,36.88673920000001,8b3ff5722c4829f510b7a4fb504c92eb03a2b322,KCB Bank ATM,-1.2197132,36.88911020000001,atm,0.2807371527146593
 Roysambu,Roysambu,-1.2188396,36.88673920000001,635d8949e04c0aef2162bb9f585750fbb78ea3aa,Ecobank ATM Thika Rd Mall,-1.2196316999999999,36.88910449999999,atm,0.2771348376047357
 Roysambu,Roysambu,-1.2188396,36.88673920000001,c48901437229a4954ad5d3cdb0d82c165251c19b,KCB ATM,-1.219835,36.889023,atm,0.27679304492533696
 Roysambu,Zimmerman,-1.2103969,36.89522120000001,71fdfe3fd4e2cd007fde5b5d38d36eb28580fa0f,PesaPoint ATM KCB - Zimmerman,-1.2084030000000001,36.89668899999999,atm,0.2751129775073172
 Starehe,Nairobi Central,-1.2832533000000002,36.8172449,c58b9155d4b25ad50279fc8ea4923f9202c6c49c,PesaPoint ATM KCB - Kipande House,-1.285308,36.818624,atm,0.2749701840946547
 Starehe,Nairobi Central,-1.2832533000000002,36.8172449,e716ea6630285506053a2a07d60bf42332eefbb0,PesaPoint ATM NIC - Koinange Street,-1.28459,36.819292,atm,0.2716385457188328
 Ruaraka,Mathare North,-1.251788,36.87077217,cae23c5a8e51314d8b053fcbcecd91a0262a21de,Co-op Bank ATM - Jonsaga Branch,-1.2537264,36.8693129,atm,0.26959799069582424
 Mathare,Mabatini,-1.2602912,36.86361626,306c890db19069cd9d3f5ab503c8b256318fae49,Express Strategies Mpesa,-1.2579381,36.8635364,atm,0.2616389800037239
 Starehe,Landimawe,-1.2694542,36.83557186,214f8dd80cdae05de8861ebbbe2f07b76b26ab1a,Chase Bank ATM - Nairobi,-1.2682593999999998,36.833585799999994,atm,0.25751425139312384
 Roysambu,Kahawa West,-1.1856847,36.90579279999999,4fac1606d121062d8c7b4dc2ea6c146775ae10f8,Blessed Collections,-1.1835076,36.905596100000004,atm,0.2429155014718476
 Starehe,Nairobi Central,-1.2832533000000002,36.8172449,02ddc28b6465a4fdd4c513c36ab7ae71a82cea41,PesaPoint POS J. C Ventures,-1.281436,36.818194,atm,0.2278178375751633
 Kasarani,Ruai,-1.2677339,36.9911112,9ccc0ed39d9706a763b82df90b646507fbe43ab7,KCB ATM - Ruai,-1.2684950000000002,36.992983,atm,0.2244945252074282
 Starehe,Nairobi Central,-1.2832533000000002,36.8172449,bb4b19660c13f3282a5a7204b64093aef9e8e2d6,Family Bank ATM,-1.2821257,36.8188508,atm,0.21801785158300788
 Starehe,Nairobi Central,-1.2832533000000002,36.8172449,97afc2817b4d69646378770bb898dfb9aacef1fc,KCB ATM,-1.2815860000000001,36.816427000000004,atm,0.20636129922935226
 Roysambu,Zimmerman,-1.2103969,36.89522120000001,75b610f47d5504fb3331d14db58a2d1922f0dca0,Barclays Bank ATM,-1.2111778999999998,36.893547399999996,atm,0.2052152170195034
 Roysambu,Zimmerman,-1.2103969,36.89522120000001,7b2c66ab392ba62c45c92b03fa78fe8e29aa99ca,Barclays ATM,-1.2111548,36.89372729999999,atm,0.1861189126308512
 Roysambu,Zimmerman,-1.2103969,36.89522120000001,0c9df001dc72b7c7cf389c024175e83645e47ef2,KCB ATM,-1.211059,36.893685,atm,0.18585598795510572
 Starehe,Nairobi Central,-1.2832533000000002,36.8172449,416780a5b5c243058083f0d90c14fec137f5a3cb,Standard Chartered Bank ATM 2,-1.2817718,36.8179457,atm,0.18211357921099405
 Kamukunji,Eastleigh South,-1.2778285,36.8486835,273c0655fc356499e16926128925dafbee06278b,Standard Chartered Bank ATM,-1.2788301000000002,36.8499644,atm,0.1806626008660688
 Roysambu,Zimmerman,-1.2103969,36.89522120000001,0752402cd6149d12d794cdb3b02705525cb4f5eb,Pesa Point,-1.2110591999999998,36.89375440000001,atm,0.17881073496373615
 Starehe,Nairobi Central,-1.2832533000000002,36.8172449,80aa447f6822e0ac8cc6323fc9627065cf65c7e4,Standard Chartered Bank Koinange Street,-1.281786,36.817894,atm,0.17828877419845052
 Roysambu,Zimmerman,-1.2103969,36.89522120000001,f8ed7affce6421a74dd1025d911335016874a8df,KCB ATM - Zimmerman,-1.2093180000000001,36.894192,atm,0.16567728156979444
 Starehe,Pangani,-1.2648989,36.8372708,6968ed01ca3d91adab24c9b0404a221316cb8742,PesaPoint ATM KCB - Pangani,-1.2654889999999999,36.83605500000001,atm,0.15014919237412155
 Dagoretti North,Kabiro,-1.2878118,36.7515014,5fbe24c14bc4e411dd9c4e01e5d5741b9a920e9b,Barclays Bank ATM,-1.2889363999999999,36.752238399999996,atm,0.1494052069827567
 Lang'ata,Nairobi West,-1.3087022,36.8230975,38905a3c5b0463ca614696da6b864b5e221b05d1,Barclays Bank ATM,-1.307458,36.823575500000004,atm,0.14810933256534192
 Kasarani,Ruai,-1.2677339,36.9911112,cc832954fa79aaca72daed0aa4920d5e3043a4b1,Coperative Bank Atm,-1.2686871000000002,36.9919857,atm,0.1437327578187905
 Kasarani,Ruai,-1.2677339,36.9911112,288c967cfc6159bf7c87de6fc196309e651ce9f0,Co-op Bank ATM - Ruai Branch,-1.2687304,36.9919166,atm,0.14236873380575846
 Mathare,Huruma,-1.25764595,36.87259835,b3044f41ca53892467e65c7d54572d91b8343fe7,Airtel Money Agent-Over Dose,-1.2564898000000002,36.872113899999995,atm,0.13929530408841245
 Lang'ata,Nairobi West,-1.3087022,36.8230975,6d41c360285a868179476f75fab11cad74a71183,Ecobank ATM,-1.3094121,36.822151299999994,atm,0.1314279486984642
 Lang'ata,Nairobi West,-1.3087022,36.8230975,3ec6ac9b24c2cb2c3a2b1ae454a61bf7760181df,Standard Chartered Bank ATM,-1.307569,36.823318,atm,0.12828753766316345
 Makadara,Harambee,-1.290941,36.89721585,8e5adb41636b430d1e7a80c1fdf7c5e36e4d4adf,Airtel Money Agent-Poisers Grocery,-1.2919535,36.8976626,atm,0.12297491015682835
 Lang'ata,Nairobi West,-1.3087022,36.8230975,11337e56dd35ad473f748944695b430336d768e4,PesaPoint ATM KCB - Nairobi West,-1.307787,36.822564,atm,0.1177121280748346
 Dagoretti South,Uthiru,-1.2631329,36.7188955,aa1693090c1c246536fbb18461084edbc920c2dc,Posta ATM,-1.2631806,36.7192067,atm,0.03497770710147991
