constituency,ward,clat,clon,place_id,place_name,place_lat,place_long,place_type,distance_km
 Roysambu,Kahawa,-1.1869631,36.912022,21899825ab9f74956e4eb65b7aef59c41a04f725,Agmo Prayer Mountain,-1.1558772,36.94139419999999,church,4.75207512425508
 Dagoretti South,Uthiru,-1.2631329,36.7188955,22c1abc1705e6101dfef2732957e2ef87789faff,Kindom Hall of Jehovah's Witness,-1.2278749,36.69631,church,4.652667101350587
 Westlands,Kitisuru,-1.2395542,36.7839651,50524c2d547a196d56deaf59d75aa1c76d19e995,Karura Community Chapel Foresight,-1.201851,36.76614710000001,church,4.633888338134213
 Kibra,Sarangombe,-1.31226715,36.77745932,934307c63aaac8a7ff5764d1184b858f10b869da,Scripture Mission,-1.3374451,36.7454067,church,4.528604546634296
 Lang'ata,Karen,-1.3283746,36.7049676,4588024a7ca6a9478192badd9b1f1fc7b7c180be,Assembly Of Apostles Church,-1.349006,36.6733181,church,4.19752780873324
 Kasarani,Mwiki,-1.2322833999999998,36.9275102,5c27bdd1277fecb2542cf6956b2ebf8c32d32141,ACK Holy Spirit The Comforter,-1.2130725,36.95833870000001,church,4.035880466116675
 Westlands,Kangemi,-1.2654258999999999,36.7525183,a139a002d87fe7d63840c71007bed8e0f093034c,Kingdom Hall of Jehovah’s Witnesses,-1.2295828000000002,36.7468815,church,4.0319987107761
 Westlands,Kitisuru,-1.2395542,36.7839651,e10ece041c7dc4ce8c78006e2b72733cb20c35a7,Full Gospel Church,-1.2046311,36.77964420000001,church,3.9104114229047693
 Dagoretti South,Mutuini,-1.3,36.7,af7bc52de12c103c631d80f7b235e3928afd6425,St Andrews church Karinde,-1.3077101,36.6657999,church,3.894910450083638
 Westlands,Kitisuru,-1.2395542,36.7839651,551971fb6a309dd8c72699cd620c5a8d800c26b1,Mamlaka Hill Chapel Ruaka,-1.2064918,36.7950529,church,3.8750740268520625
 Kibra,Sarangombe,-1.31226715,36.77745932,046d0349d45d659d00c7c2498466f36f84df4c8e,NPC Karen,-1.3402633999999998,36.7588538,church,3.735142917761524
 Dagoretti South,Uthiru,-1.2631329,36.7188955,55ea5ae5b6711a1197ab9c7c98d28ef23c182b3d,Full Gospel Church Of Kenya,-1.2514855,36.68761629999999,church,3.7082821859462047
 Kibra,Sarangombe,-1.31226715,36.77745932,093f0e96f56efb9b9471d88625626ed0ade01862,Karengata SDA Church,-1.3419099,36.76447570000001,church,3.596020676136488
 Dagoretti North,Gatina,-1.1655719999999998,36.85526373,aa74dfdd522b2e627241c2dd9d7a614d1fc82d4c,Worldwide Gospel Church of Kenya,-1.1631106000000002,36.82391610000001,church,3.493513842593931
 Westlands,Karura,-1.2369881,36.83255910000001,e2bff838d90fe7c579d1ccbe8761f9de35f3f48d,Nairobi Lighthouse Church,-1.234343,36.863663,church,3.468099331208111
 Lang'ata,Karen,-1.3283746,36.7049676,ccf2c87677f93e347133fff7448ba68c8f8cb8b1,Resurrection Garden,-1.3138338,36.6773768,church,3.465041510577065
 Lang'ata,Karen,-1.3283746,36.7049676,91e57d936c18b8f520f8f040b5699b84fa792ca0,Dc Embulbul,-1.3324348999999998,36.6742143,church,3.446207575515623
 Westlands,Kitisuru,-1.2395542,36.7839651,8c3506d82cfeed6faaa9d6ee332bc3659f34c72e,Kihara A.I.P.C.A Church,-1.2177438,36.76196510000001,church,3.442136959595703
 Lang'ata,Karen,-1.3283746,36.7049676,872deee2b93ae88c89068fc6d882fe02217f2121,Deliverance Church Embulbul,-1.332748,36.674307,church,3.4407395538387493
 Lang'ata,Karen,-1.3283746,36.7049676,f03e8e890cc79701d2057fd46b85f1d82fed9704,New Testament Church Of God - Kenya Head Office,-1.3500484,36.7270758,church,3.439962431390956
 Dagoretti North,Gatina,-1.1655719999999998,36.85526373,7d5bbab78dab6b2438abf26b0656388abde3ee07,KAG Kiambu Church,-1.1749023,36.825785,church,3.435343618657948
 Embakasi South,Pipeline,-1.0881862,36.5315908,63681ad75c05bf4a606cf6fc8661d4c846e12214,A.I.C Empeut,-1.1179583,36.5232724,church,3.4350929061487276
 Dagoretti North,Gatina,-1.1655719999999998,36.85526373,4573cad0a3de1118c042e7c7beccb7ac9db18311,"Kings Outreach Church, Kiambu Main Altar",-1.162396,36.8245424,church,3.431405363544411
 Dagoretti North,Gatina,-1.1655719999999998,36.85526373,03a8630a6ed3d29f8f0db64d497794987f0414ed,Repentance & Holiness Church Kiambu Main Altar,-1.1625233,36.8246083,church,3.422693400751671
 Dagoretti North,Gatina,-1.1655719999999998,36.85526373,2c76ffa2dce4de912f56ef268433aa8852b6e4fa,Jesse victory celebration ministry,-1.1724538999999998,36.82532970000001,church,3.412524927952854
 Kibra,Woodley,-1.3056567,36.77600465,e8edd81b8ed3b1beb28995aefc41fa7aed90abda,A I C Children's Homes Department,-1.294088,36.8042299,church,3.389023706943461
 Lang'ata,Karen,-1.3283746,36.7049676,d1be0f8827093e65504cac698f5f3d27a00c6a3e,Karen Vineyard Church,-1.335941,36.734514,church,3.3884383565233174
 Lang'ata,Karen,-1.3283746,36.7049676,f14699288b43b040d0f19ba0eb1dfe0d869e20e9,Jesus is the way the truth church,-1.3335973,36.6751125,church,3.367150872333165
 Lang'ata,Karen,-1.3283746,36.7049676,5510211e57cc61e7cb0cd7a5df1d00b6345aad1e,"Free Pentecostal Church, Waithaka",-1.3124983,36.7306305,church,3.352760162787181
 Lang'ata,Karen,-1.3283746,36.7049676,502e4042e684fc4fb98eb2ba11fd1e8bfc007273,Mount Zion Worship Sanctuary,-1.3394375,36.7330027,church,3.3484057642916802
 Dagoretti North,Gatina,-1.1655719999999998,36.85526373,91d9f8acefbbaca7cbd7ca38f2f05810b6c0d9c5,ACF Church Kiambu,-1.1722018,36.82591439999999,church,3.3429621486146415
 Dagoretti North,Gatina,-1.1655719999999998,36.85526373,0c81997753c044ac4983a98cffb45fe1967a6367,1st Born Of Holyspirit church,-1.172006,36.82614239999999,church,3.3134955449626706
 Dagoretti North,Gatina,-1.1655719999999998,36.85526373,30e842dbd724095ce4751996dab01857c3bb6a5b,Dominion chapel,-1.1727918,36.82647499999999,church,3.2975736950700596
 Dagoretti North,Gatina,-1.1655719999999998,36.85526373,6c997646b0a4060e3beba87dd9f6bb4f4aac2b24,Redemption World Crusaders Church,-1.1670959,36.82570849999999,church,3.2880116028728623
 Dagoretti North,Gatina,-1.1655719999999998,36.85526373,9595aa6a9806843c47c05edacb4ba32a05f86edd,Blessed Souls Church,-1.1695109,36.8259342,church,3.2878372202891133
 Dagoretti North,Gatina,-1.1655719999999998,36.85526373,149598936bdbdd36b79a3a778ed9799486e39aee,Redemption world church,-1.1670638,36.8257266,church,3.2858214447000442
 Lang'ata,Karen,-1.3283746,36.7049676,247c40f1e1674c77962f8324f065b79659bb1039,Free Pente Coastal Embulbul Church,-1.3366152,36.6765783,church,3.28416358281743
 Dagoretti North,Gatina,-1.1655719999999998,36.85526373,0f59f3e50d387ae50022db710342a848c04f31c8,Omega Pentecostal Church Kiamumbi,-1.1806249,36.8804514,church,3.2602347101334797
 Dagoretti North,Gatina,-1.1655719999999998,36.85526373,488367e8b87195e3e32a50c64827a19cfb468baa,Blessed Souls Terbanacle,-1.170644,36.82640000000001,church,3.2559731490870663
 Roysambu,Kahawa,-1.1869631,36.912022,6551def30aae4ad2263d20068c58932899b4c830,Membley Baptist Church,-1.1628479,36.92862149999999,church,3.2530829167193502
 Dagoretti North,Gatina,-1.1655719999999998,36.85526373,ac1799d2e5248d5e21e26c785517a1284956cf50,Church Of God Seventh day Church,-1.1703702,36.82648029999999,church,3.2420441697751
 Dagoretti North,Gatina,-1.1655719999999998,36.85526373,16f6b3f274fc321e37f7d592571685cbeaccb007,Zayuni Gospel Church,-1.170634,36.82655009999999,church,3.2393566324790304
 Dagoretti North,Gatina,-1.1655719999999998,36.85526373,a1c2c397b0a0bafd4d77a0c5edf622ffd778a03c,CFF Church Kiambu,-1.1659102,36.826355,church,3.2120408781550407
 Dagoretti North,Gatina,-1.1655719999999998,36.85526373,5920ac9618e817ba9987ed126f89ea8a797cfc01,Freedom Community Church,-1.1751918,36.82845179999999,church,3.164862390822557
 Dagoretti North,Gatina,-1.1655719999999998,36.85526373,b943374e7f0a46f3fe82c29157d467bc2fd8e559,Gospel Revival Centre - Kiambu,-1.1718367,36.8277138,church,3.1390225774528315
 Dagoretti North,Gatina,-1.1655719999999998,36.85526373,ee9d4ea5f16aaae4b4247e729ad1ac45f26aa8b7,AIPCA Kamiti Church,-1.1511858999999998,36.8793487,church,3.117071463045001
 Lang'ata,Karen,-1.3283746,36.7049676,a66dc6cac15a2f40c609b4bd47de53f979ca8665,Aic Embul bul,-1.336511,36.6781898,church,3.1092478138348674
 Dagoretti North,Gatina,-1.1655719999999998,36.85526373,8a41f5db4b2da09c2d1437f25f76a776ed8ce823,A C K Diocese Of Mt Kenya South,-1.1701772,36.82767930000001,church,3.1071196803026204
 Westlands,Karura,-1.2369881,36.83255910000001,a12ef466b5aabba298973218e39a7f76683b7b4b,Hearts Ablaze Church,-1.2421448999999998,36.8600088,church,3.1030103592494602
 Westlands,Karura,-1.2369881,36.83255910000001,b79b49221a8191de5506c1aab24611d799a12587,Nairobi Lighthouse Church,-1.2421448999999998,36.8600088,church,3.1030103592494602
 Dagoretti North,Gatina,-1.1655719999999998,36.85526373,bdbd9dd4c044e23377a4a85896c47127bc589fdb,"ACK Cathedral Church, Kiambu",-1.170627,36.82780899999999,church,3.1015693552091266
 Dagoretti North,Gatina,-1.1655719999999998,36.85526373,03a17d4b48a3596b9117f79b4343279cacb8fda1,New Beginning In God Centre,-1.1683982,36.8275049,church,3.100013124065974
 Westlands,Karura,-1.2369881,36.83255910000001,4e7ccac3491fd44344ecb974e28edec3fe9e765e,ACK St. Pauls Church - Survey,-1.2486897,36.85785079999999,church,3.0961789803848005
 Westlands,Karura,-1.2369881,36.83255910000001,8b619006110a2586c3d7510ee73070fc4a19ce72,"SDA Church, Survey",-1.2486626,36.8578434,church,3.094169029295111
 Dagoretti North,Gatina,-1.1655719999999998,36.85526373,3e60a70c0add7a449e5cb4be94dd90f8e3f66d2b,Word Of Life Christian Church,-1.167722,36.82751699999999,church,3.091963924034812
 Dagoretti South,Uthiru,-1.2631329,36.7188955,5ad313d608a04b381149cdcbd85cc7ece7019336,Kinoo A.I.P.C.A Church,-1.2500248,36.6943574,church,3.090898775743134
 Lang'ata,Karen,-1.3283746,36.7049676,0aa552e5cf584201507ec7b14ab2babf668dff89,PCEA Muteero Church,-1.3200279,36.6786226,church,3.0702639322640017
 Roysambu,Githurai,-1.2062932,36.9206391,4051abfaf90383d36fea40e9444bb47c9c4de0d8,Deliverance church,-1.1950894,36.94581979999999,church,3.062125791701517
 Dagoretti North,Gatina,-1.1655719999999998,36.85526373,66795eee941af43ab9998ad5f49657d0e3f8db6f,Word Of Faith Chapel,-1.16539,36.82771500000001,church,3.060789231942381
 Westlands,Karura,-1.2369881,36.83255910000001,c4a83c0d96c023bc3c3fdad73ff14dee4842018c,Life Youth Fellowship,-1.2597975,36.8479763,church,3.059163484107873
 Dagoretti North,Gatina,-1.1655719999999998,36.85526373,5d567850d4875770b92fe355e7e94cf7398207ee,"Ack St James Cathedral Church, Kiambu",-1.170632,36.82829,church,3.0491308428244803
 Dagoretti North,Gatina,-1.1655719999999998,36.85526373,8a3b2751ece89413ba765b76c76be40a5e10752d,Christian Foundation Fellowship,-1.1714955,36.8285416,church,3.04097910256379
 Kibra,Sarangombe,-1.31226715,36.77745932,67d749494028b8d2c13fa39ab78c9d03c608742f,Nairobi Baptist Church,-1.2977938999999998,36.80065820000001,church,3.03797410397487
 Lang'ata,Karen,-1.3283746,36.7049676,9845cfb405391a18e20afc706062e83c34c0c774,Embulbul P.C.E.A,-1.3366649,36.6789186,church,3.0370160598443054
 Dagoretti North,Gatina,-1.1655719999999998,36.85526373,bf3d4f21ec6ac336156c44e46162a48144300854,Neno Evangelism Church,-1.1715605,36.82861099999999,church,3.035027440568353
 Lang'ata,Karen,-1.3283746,36.7049676,b0d10f8f1d194f713dde7d3734b280f60613c0cb,S.D.A,-1.3371868,36.67911270000001,church,3.0346904907692114
 Dagoretti North,Gatina,-1.1655719999999998,36.85526373,8c86a19e5c4a9d46b00aa3e60a2a7f3f3a9c97fa,Anglican Church Of Kenya-Kiambu Branch,-1.170897,36.82848099999999,church,3.03388264827357
 Westlands,Karura,-1.2369881,36.83255910000001,e39c7581e07048ba558a52ef697779cb745bac71,Life Youth Fellowship,-1.2594468,36.84766810000001,church,3.007709037656908
 Dagoretti North,Gatina,-1.1655719999999998,36.85526373,fd9fcbdf112abd81ae0bbe0032bc68a7b6bffae9,Family Hope Evangelistic Ministry,-1.1711234,36.8287866,church,3.0056518581404608
 Dagoretti North,Gatina,-1.1655719999999998,36.85526373,02b4c8bbd9635d5150e768c1c5926b3ceb24727e,Word Of Faith Church,-1.1676175,36.8284236,church,2.990645083418992
 Dagoretti North,Gatina,-1.1655719999999998,36.85526373,e450da5b7e1870321c31f22324bbf59706a3135c,Dominion Tabernacle,-1.1727626,36.82948470000001,church,2.9734772088278527
 Dagoretti North,Gatina,-1.1655719999999998,36.85526373,cb785bf5fa9e04a9f3fd0cf9eb2fa297f78c93e1,AP Interdenominational Church,-1.1756772,36.8305479,church,2.9667124498502417
 Dagoretti North,Gatina,-1.1655719999999998,36.85526373,cb8c875d40f7b9ac859818468fb7ec165b2d60e6,Redeemed Gospel Church,-1.1720476,36.8293718,church,2.9652846779675306
 Lang'ata,Karen,-1.3283746,36.7049676,e27603900b2aac4e2fc797ad79530a5d84ac119b,Faith Celebration Center Embul-Bul,-1.3350825000000002,36.6791359,church,2.9650050815414493
 Westlands,Karura,-1.2369881,36.83255910000001,f68959637afaf29e08e62f1b388da5b8efec470d,St. Joseph Catholic Church Murunga,-1.2121892,36.82306320000001,church,2.950819308525081
 Dagoretti North,Gatina,-1.1655719999999998,36.85526373,d9fa3e0b2479fa9690727a1a6f64afc3269af186,Blessed Souls Tabernacle,-1.1748105,36.8304102,church,2.9459479511739355
 Dagoretti North,Gatina,-1.1655719999999998,36.85526373,ee2b20c2c5cf7c9df93521dce91c512f0974cb55,UHAI CENTRE CATHEDRAL,-1.1748105,36.8304102,church,2.9459479511739355
 Westlands,Karura,-1.2369881,36.83255910000001,43a6fda84d37c8aa43505c5dd5cb48597f35e35a,A C K City Park Church,-1.2634326,36.83199130000001,church,2.9393250510308304
 Lang'ata,Karen,-1.3283746,36.7049676,7def9260af69051c17ec0d54c0e82bc493c21416,Gospel Revival Centre,-1.3359385,36.6796398,church,2.936654981760902
 Roysambu,Githurai,-1.2062932,36.9206391,16121305fe6f6c90db287fccb26ebb4bd708dd81,Pcea Kahawa Sukari Church,-1.1896617,36.9411757,church,2.9362577140699564
 Lang'ata,Mugumoini,-1.1991235,36.846741200000004,5f530c32b538c4569c67ffb534bca3e0c31a7d86,ACK St.Barnabas Marurui,-1.2092903999999998,36.871004,church,2.9228002983455053
 Westlands,Parklands,-1.2630616000000001,36.810628799999996,15c877c5259dfca166822dc5a4f584496984c954,The Holy Family Minor Basilica,-1.2874157,36.8203657,church,2.9145353817209525
 Lang'ata,Karen,-1.3283746,36.7049676,fb201ce6b5726968aec009a5cdb6421a918c15a6,The Salvation Army,-1.3409799999999998,36.7276269,church,2.8808238285461285
 Lang'ata,Mugumoini,-1.1991235,36.846741200000004,7e94257f2c3bb6e59ddb978aa0f3e4a652b18108,Thome PEFA Church,-1.2110214,36.8693333,church,2.8369291552153495
 Lang'ata,Mugumoini,-1.1991235,36.846741200000004,cc71aed66a65742cee149df7d478c2f5c2534127,St. Mary's Catholic Church Marurui,-1.2081246,36.870549,church,2.82786895865008
 Dagoretti North,Gatina,-1.1655719999999998,36.85526373,8c6df6fb9cb4c9051042e8417c04148ddb660e9a,PCEA Kiambu Town Church,-1.168359,36.83060620000001,church,2.756953317652522
 Dagoretti North,Gatina,-1.1655719999999998,36.85526373,ef5ac1c0a15bfb7c9cebffac3b20acc5d3523f33,Bible Baptist Church kiambu,-1.1751864,36.83255010000001,church,2.74037872370018
 Lang'ata,Mugumoini,-1.1991235,36.846741200000004,c1e1333e24bb7ac35aa2561cab80903e470af7ba,Faith Church Marurui,-1.2086975,36.8692733,church,2.720030638689593
 Lang'ata,Mugumoini,-1.1991235,36.846741200000004,7ba96bed73fc1df0330660779d78da63919ebd08,Hope And Victory Church,-1.2071896999999998,36.86980609999999,church,2.71477228918013
 Lang'ata,Mugumoini,-1.1991235,36.846741200000004,2dcca14d0744c4d470d1c71afc50700bab94da11,St Gabriel Catholic Church,-1.2157497,36.86365339999999,church,2.635155880594167
 Lang'ata,Mugumoini,-1.1991235,36.846741200000004,343d8f224c406902737a9863474fc187ada30d54,Jesus Culture Ministries,-1.2146636,36.86433510000001,church,2.6082527073455672
 Westlands,Karura,-1.2369881,36.83255910000001,5ca9568ca3e471b4f431e1c3289667c17ab4f4bf,Runda Independent Baptist Church,-1.2160966999999998,36.8219217,church,2.6050557299060744
 Makadara,Harambee,-1.290941,36.89721585,bbe73ffb1c6358569150b9878734f2b78f681c48,Lighthouse Chapel International Embakasi,-1.308233,36.91287829999999,church,2.59233577504703
 Lang'ata,Mugumoini,-1.1991235,36.846741200000004,74c73a85c9fe0a9050dc34b3f10ca09f306ba81c,EBENEZER GOSPEL CHURCH,-1.2069306,36.8683352,church,2.5511530838404783
 Dagoretti South,Uthiru,-1.2631329,36.7188955,06ae9b33936f755c515b52705ebcfd5c6b3cee23,"INN KEEPERS MINISTRY, FORTSMITH",-1.2447153,36.7052633,church,2.546089208181756
 Dagoretti North,Gatina,-1.1655719999999998,36.85526373,97fefae9390318e5393be61d0db40ddba67d8371,Kiukenda PCEA,-1.1803514,36.87273509999999,church,2.5426813023426735
 Dagoretti South,Uthiru,-1.2631329,36.7188955,dc23e6440b78b2dea1fdecb531f151c311f712da,Judean Worship Center,-1.2561575,36.6972783,church,2.523625909536801
 Lang'ata,Karen,-1.3283746,36.7049676,80b5c9c72626e869dbcb0020299399a31137cb81,Don Bosco Utume,-1.334208,36.72691500000001,church,2.522948592989274
 Westlands,Kitisuru,-1.2395542,36.7839651,2e5a96bd2844aa5ce1d93eda7b9fb5a8ef67eb5a,Hossana Christian Church,-1.2200258999999998,36.7724499,church,2.5191189490104917
 Westlands,Kitisuru,-1.2395542,36.7839651,c39b46f28c2f22df7f35e133ab5ee8246110871d,C E E Christian Foundation,-1.2176258999999998,36.7784446,church,2.512784915738762
 Makadara,Harambee,-1.290941,36.89721585,7d3500c9e5ae65dd5798c93c7dee8e4da6041476,Parklands Baptist Church Eastgate,-1.3078173999999998,36.91204550000001,church,2.4962824222616113
 Westlands,Karura,-1.2369881,36.83255910000001,e1437f96c5ccff7127e3b90fb0382f4551b23eb1,PCEA Beulah Church,-1.2157189,36.82675319999999,church,2.4499796450860005
 Westlands,Kitisuru,-1.2395542,36.7839651,192f8cf83f41c453ca1fca620e684c20856ac7c8,Ack St James,-1.2185623,36.7778126,church,2.4308112622184486
 Dagoretti North,Gatina,-1.1655719999999998,36.85526373,93a78a7e32e17db8072faaf5cbd028fdab637dc8,Kamwaki Assembly Hall of Jehovah's Witnesses,-1.1577208,36.87564550000001,church,2.426722007480648
 Dagoretti North,Gatina,-1.1655719999999998,36.85526373,8e350f3b85599542cb30ee3012450262bc2f7086,AIC Kiambu Town Church,-1.177863,36.8373666,church,2.412316093154605
 Kasarani,Ruai,-1.2677339,36.9911112,cc3fb8db752da73382d525f9b2ed843bdab6bdab,St. Joseph Freinadimetz Catholic Church Ruai Parish,-1.2482228000000002,37.0005208,church,2.4070349069569286
 Westlands,Kitisuru,-1.2395542,36.7839651,2234d88e8f2cfb44d3f9c654d284cdd796f16245,Independent Presybeterian Church Gachie,-1.2187602,36.7780557,church,2.4021933410691894
 Dagoretti North,Gatina,-1.1655719999999998,36.85526373,e668f3e955a9a9d103a181d16b808661c34b26b1,Holy Family Catholic Church Mugumo,-1.1680718,36.8767035,church,2.3981461911996163
 Roysambu,Githurai,-1.2062932,36.9206391,b88c2fbe92060b461f86f2413cdbd41689a7082e,Kahawa Sukari Baptist Church,-1.192831,36.937363,church,2.3854321986715763
 Roysambu,Githurai,-1.2062932,36.9206391,394259a1b76d5ee4b521acb0c6e5a020851e1836,Grace Community,-1.1890945,36.9333084,church,2.373597867277912
 Embakasi Central,Spring Valley,-1.2477029,36.78923560000001,be9b834e2db2f3cbc6610f19b22554e90a9c0163,Parklands Baptist Church,-1.265992,36.7998837,church,2.3515992403359443
 Westlands,Kitisuru,-1.2395542,36.7839651,adc238b3ebe37916999b1855304db007061283a2,Cross Mission Centre,-1.2192405000000002,36.7781633,church,2.347586853857679
 Westlands,Karura,-1.2369881,36.83255910000001,197500631d0ce2d0296b9cf84e502dfe4530d02c,PEU Church,-1.2533221,36.8192474,church,2.3413331880174826
 Westlands,Kitisuru,-1.2395542,36.7839651,3c309ea6aedef347a9d4e47f528f7ec3c73404d8,Gachie Worship Centre,-1.2199843,36.7767667,church,2.3170960673633805
 Westlands,Karura,-1.2369881,36.83255910000001,8c6ea588937c83dd876bacbe1317c5b42cb5fdb2,World Victory Centte,-1.2162204,36.8335848,church,2.3106247320985474
 Westlands,Karura,-1.2369881,36.83255910000001,694b1da7c9740c2268c4bc0791ee752e15ea7a5a,Assembly of God Mission,-1.2309517,36.85210879999999,church,2.2731854051018843
 Lang'ata,Mugumoini,-1.1991235,36.846741200000004,dfc082c02cb1b4e09c711b78140a4ba4f4bf4f56,Eagle faith church,-1.2129032,36.8316235,church,2.2728379578762223
 Lang'ata,Mugumoini,-1.1991235,36.846741200000004,003c4a5704e0d3d95489118d9ad3fdf0639d3d7e,OneTribe Church,-1.2148199,36.8336425,church,2.271623435169277
 Embakasi Central,Spring Valley,-1.2477029,36.78923560000001,26a61fab78983173681ce11c8f13f39123894932,Sozo Church of God,-1.2662251,36.7978094,church,2.2680049405996545
 Westlands,Karura,-1.2369881,36.83255910000001,efc8d651f27b3761364e86aa861e96dbef53ec73,Nairobi Chapel Parklands,-1.2548078,36.8226803,church,2.2640259253414334
 Lang'ata,Mugumoini,-1.1991235,36.846741200000004,63c6214bb5df350cbe101f33887a1e70d8c450e5,Eagle Faith Christian Centre,-1.2128945,36.8318159,church,2.2564318585819354
 Dagoretti North,Gatina,-1.1655719999999998,36.85526373,6da26c5e16b6522f3c9587de47f4ea9e66e3164e,Ack St pauls,-1.178137,36.83942169999999,church,2.2466633597097463
 Kasarani,Ruai,-1.2677339,36.9911112,b02446faec61e569d02b6caa34f4b8618aec69d3,Glorious Worship Church Hq,-1.263684,37.010906,church,2.244739977442712
 Kasarani,Ruai,-1.2677339,36.9911112,246a1ff57925f65a0d0dd4b0fd7da20f4ca546f8,New SDA Ruai Central Church under construction,-1.2544923,37.00624730000001,church,2.234500617593597
 Dagoretti South,Uthiru,-1.2631329,36.7188955,1b9e79bdcb766a6a010daa753c47bda3461bf28a,Sammy-K,-1.258095,36.6994415,church,2.2326342789094205
 Embakasi Central,Spring Valley,-1.2477029,36.78923560000001,318f9321505a63d2f27f5538981a91952fb7c7dd,St Austin's Catholic Church Parish Office.,-1.2647037,36.7785895,church,2.2289165213402984
 Embakasi Central,Spring Valley,-1.2477029,36.78923560000001,25e59847fdf6c32a4c4b24db3008262ac5cbeee9,Parklands Baptist Church,-1.26561,36.79817759999999,church,2.224127257158746
 Embakasi Central,Spring Valley,-1.2477029,36.78923560000001,892b1282e9b486dd7a1098961ab4887dadab77bf,St Austins Parish Church.,-1.264366,36.778169,church,2.222695869732535
 Roysambu,Roysambu,-1.2188396000000001,36.88673920000001,b9953bf6da6e248b85a973b80317d9b463265e2b,Victory Faith Church,-1.2285487,36.869256,church,2.2219173965364174
 Kasarani,Ruai,-1.2677339,36.9911112,9f6becd2ef4275d3c6af928b8f06ad327dc871da,SDA Ruai Central Church,-1.2546076000000002,37.00597640000001,church,2.203437202503688
 Lang'ata,Karen,-1.3283746,36.7049676,4a8600ec293433d33f2799bbf6f52afdc39532ad,St Francis Church-Karen,-1.315792,36.720258,church,2.20014729690933
 Lang'ata,Karen,-1.3283746,36.7049676,bbc5275d5f8fe91bade00775d5ab49ffec4122cb,St. Francis Karen,-1.3158333,36.7202778,church,2.1989344721700657
 Kasarani,Ruai,-1.2677339,36.9911112,68f9a0ac75e86175886a044c82df0d2f65c65568,Utawala Christian Centre,-1.2742366000000005,36.9724257,church,2.198090802649704
 Embakasi Central,Spring Valley,-1.2477029,36.78923560000001,715702f843d7f76876cb929b83ad7cb29a073044,Hosim church,-1.25708,36.77184140000001,church,2.1955118395113757
 Dagoretti South,Mutuini,-1.3,36.7,6c39340f8e02254e2b56fde674ac3ad59446d206,Happy In God Church,-1.2864143999999995,36.685844,church,2.1800322776830408
 Kasarani,Ruai,-1.2677339,36.9911112,ab4b9544b3ac20841915bd33877089ff10560d82,covenant worship church ruai,-1.2852553,36.9999265,church,2.179498655989662
 Dagoretti South,Mutuini,-1.3,36.7,163eab29837a14ef5150b6deabed865aae512f35,TRINITY Worship Santuary,-1.2916367,36.71760310000001,church,2.1652449501625823
 Dagoretti South,Mutuini,-1.3,36.7,56b94cbdde1a1ff56ac7ec3c95ab1032cdf94e08,The ACK Ruthimitu Church,-1.2809378,36.6960821,church,2.1625461691210024
 Embakasi Central,Spring Valley,-1.2477029,36.78923560000001,fb5b84cf112e8d1ce8a44a418795e9f5b7e04cfb,Living Faith International,-1.265792,36.796372,church,2.160859891103524
 Dagoretti South,Mutuini,-1.3,36.7,450950db0250060280b6bb3e448fb73c955d15cc,Joy Celebration Church,-1.2843593999999998,36.6884699,church,2.159101091467688
 Dagoretti South,Mutuini,-1.3,36.7,4fa4e39445940488f44e5e3c818f9582b01c0a42,TRINITY Worship Santuary(IPHC),-1.2917236,36.71753,church,2.153771349489478
 Dagoretti South,Mutuini,-1.3,36.7,51abf9a5eb6acb7ab46013074167c46bbbfb2c66,Christian Mission Celebration Ministry,-1.2848481,36.6880545,church,2.1438867033589615
 Roysambu,Roysambu,-1.2188396000000001,36.88673920000001,ea5a1d4bab5a8964889429eda76b0d9825af98b5,Pcea Thome Church,-1.226561,36.869086,church,2.1407484909192727
 Dagoretti South,Mutuini,-1.3,36.7,89d6dd219f84250f6a5d3b7a06b3538b8acd5a81,St Johns Orthodox Church,-1.2816832,36.70549389999999,church,2.1249980466794214
 Westlands,Kitisuru,-1.2395542,36.7839651,9c7b3913109d269a47f75c3c2c28935a5e84fd5d,New Vision Church Of Christ Ministries,-1.2208964,36.77980719999999,church,2.1241868876273466
 Embakasi Central,Spring Valley,-1.2477029,36.78923560000001,1ee4a30b25a94ee0b027a4846c6a4ad8741dc208,Global Impact Ministries,-1.2602338,36.8036473,church,2.1219400260491352
 Embakasi Central,Spring Valley,-1.2477029,36.78923560000001,008770301d406affdd281061c464ca511ca85913,Living Faith International,-1.2655953000000002,36.7957148,church,2.114585121005355
 Embakasi Central,Spring Valley,-1.2477029,36.78923560000001,7406055110237adf069822d8f6f9075974ca6ea3,Living faith international,-1.2655152,36.7956936,church,2.1054140001302857
 Embakasi Central,Spring Valley,-1.2477029,36.78923560000001,c42f14eacea2bc6e57fbe13000ed33f20464b927,Religious Superior Conference of Kenya,-1.2639716,36.7989066,church,2.103037750228187
 Dagoretti South,Mutuini,-1.3,36.7,ecb1550209a6c73c8dbba068ffa2fc6f5e4aefcc,Oasis Of Worship Center,-1.2813976,36.6966078,church,2.101265320458026
 Dagoretti South,Mutuini,-1.3,36.7,bfa644fc6883df559470644db5d2a0ca57ace795,Amazing grace s.d.a chuirch,-1.2813421,36.7030325,church,2.100554558041912
 Dagoretti South,Mutuini,-1.3,36.7,6194ee20f41d1f82a7e97034b58c0d4aaf553908,Full Gospel Of Kenya,-1.2814714,36.6964911,church,2.0955708302625733
 Dagoretti South,Mutuini,-1.3,36.7,0106c21defb2372fa3c5442c18e64cd88d5334a7,KAG KAREN CHRISTIAN CENTRE,-1.3018652,36.6812347,church,2.095036860363661
 Dagoretti South,Mutuini,-1.3,36.7,f9bb0bda6cc2cd256f6afa16fc80179c91a198c1,St Joseph Dagoretti,-1.2864507,36.68708459999999,church,2.079869471478453
 Lang'ata,Mugumoini,-1.1991235,36.846741200000004,cfa16981f613bdd777d72efacba71d6458e79035,New Breed Chapel,-1.211781,36.8330564,church,2.0712337201946664
 Westlands,Karura,-1.2369881,36.83255910000001,1385e6d7a933f4f4f9fb427e0adb968a0726df74,Ridgeways Baptist Church,-1.2212112,36.8424728,church,2.0704693259626348
 Dagoretti South,Mutuini,-1.3,36.7,68f207f80eea00a041bec7ec9126980967412ddb,Nairobi Chapel Dagoretti,-1.3001553999999995,36.68138769999999,church,2.0678336351294053
 Westlands,Kitisuru,-1.2395542,36.7839651,b2b185f8a76166c04b8588e9000e7945d5156747,Shekinah Sanctuary,-1.2215544,36.77925329999999,church,2.067595007924919
 Kasarani,Ruai,-1.2677339,36.9911112,2fbfa16b92b1287c90032536ca7adaf72871b2d0,Church Of Christ Our Hope,-1.2651874,37.0094439,church,2.0562901942198333
 Westlands,Kitisuru,-1.2395542,36.7839651,2a77964f3e86c335f5d4d85a0520ce2e769e27fa,Worldwide Mission Centre,-1.2214874,36.7800111,church,2.0551722800080796
 Lang'ata,Mugumoini,-1.1991235,36.846741200000004,b1d1ba0af71985a0ed4ab220c205fb4d2e9e744f,PCEA NJATHA-INI KIRIGITI PARISH,-1.1967961,36.865016,church,2.046751831736814
 Dagoretti South,Mutuini,-1.3,36.7,4bc41a9366cec4a9de1de5155df5ae3f049923ae,St. Joseph Catholic Church,-1.2848595,36.6895472,church,2.0443402413480203
 Lang'ata,Karen,-1.3283746,36.7049676,755e525c65a96d6fd5d41688baa15683a8d9de61,Sunday school classses,-1.3287036,36.6865844,church,2.0426132569499447
 Embakasi Central,Spring Valley,-1.2477029,36.78923560000001,61c4e08ab43d327ebba17c5175c131e6d041dce2,C3 Church Nairobi,-1.2559467,36.77282539999999,church,2.040368366488668
 Westlands,Kitisuru,-1.2395542,36.7839651,ced53a6bb39d385f42bcbc14080370e4fe0162a1,The Witness Church,-1.2217931,36.7795819,church,2.0328918972239927
 Dagoretti South,Mutuini,-1.3,36.7,f3d6d887f13a22b7fe601e07b9abeb835efc0cc9,House Of Prayer Ministry,-1.288017,36.6861914,church,2.031409870820205
 Dagoretti South,Mutuini,-1.3,36.7,47fe393e1162b45091509ec6672eaffe1e15da80,Jesus Refreshing Sanctuary,-1.2819205,36.6974527,church,2.0289198870022287
 Westlands,Kitisuru,-1.2395542,36.7839651,5f29a824b6d8d0caf9c9b0b8d08bcbadfb9f7f9f,CHRISCO CITY CHURCH KITISURU,-1.2271796999999998,36.7706632,church,2.018647605872053
 Dagoretti South,Mutuini,-1.3,36.7,2e98e8b100dec6e9ade136a1559857d99a940a23,Shekinah Glory Center,-1.2883308,36.6861284,church,2.0140744245436655
 Westlands,Kitisuru,-1.2395542,36.7839651,df1167cd8989adf475a9595ca06e29b9d9c64dbd,The Harvest Centre Fellowship Gachie,-1.2218071,36.78031849999999,church,2.0133316598106865
 Westlands,Kitisuru,-1.2395542,36.7839651,cc4f88e2809399fd71cb8f4daffa4eb7af08bb44,CHRISCO City Church - Kitisuru Sanctuary,-1.2267249,36.77136700000001,church,1.9978724123599427
 Westlands,Kitisuru,-1.2395542,36.7839651,8bc29afe8d45afe7b4946cc10789625eb1db0c2b,Chrisco City Church Kitusuru,-1.2272584999999998,36.7708691,church,1.9959567312957456
 Dagoretti South,Mutuini,-1.3,36.7,ec6df4813adfcdc64972cc2be1cafacb0f0c0192,Christ The King Worship Centre Mutego,-1.3003671,36.71793270000001,church,1.9926778669812897
 Embakasi North,Kariobangi North,-1.3151376000000001,36.86733961,5768df48fad3a17007e2ccf9673f42fe37ea18da,Winners Chapel International,-1.3211114,36.850441,church,1.991274583154615
 Lang'ata,Karen,-1.3283746,36.7049676,3f67dcdd2c7b16598a50083d7bdf3966e209a639,Dari Office Park,-1.3293878,36.6870886,church,1.9894601279423978
 Ruaraka,Mathare North,-1.251788,36.87077217,02b65b2e39ac6619da3a45a9e8adbe1e7ad80728,Sanctuary of Truth Centre Ministries,-1.2339468,36.8698793,church,1.9850854146135684
 Lang'ata,Karen,-1.3283746,36.7049676,a42a41c72164dddc3cde6e8bfeabea7ae7821928,ECC firebrands youth ministry,-1.3295822,36.68719859999999,church,1.9786069681537524
 Westlands,Karura,-1.2369881,36.83255910000001,b0c031a2df9fa7aaac88824f0a1cb8242c3c74cc,Kayole north world wide gospel church,-1.232815,36.815279,church,1.9750216418123943
 Westlands,Karura,-1.2369881,36.83255910000001,bf7907d9172a576fbad7a3550d87cdaf64bdf1ba,Ridgeways Baptist church,-1.2219539,36.842029,church,1.9743555095560315
 Westlands,Kitisuru,-1.2395542,36.7839651,9ea799e9cbeaefb7e065373d1a97f1fa9776342c,Overcomers Family Ministry,-1.2220854,36.7807487,church,1.9738380026815483
 Dagoretti South,Mutuini,-1.3,36.7,c0effb5628021fef1f8031fda811820ecbf6c700,Well of Living Healing & Deliverence Church,-1.2822624,36.69974330000001,church,1.9712991111448388
 Dagoretti North,Kabiro,-1.2878118,36.751501399999995,c9bbb2f4cd41d7f295446040551c7998c24fcf4b,Nairobi Chapel,-1.305269,36.75459299999999,church,1.9701041914467474
 Kasarani,Ruai,-1.2677339,36.9911112,c355dd5d52475fa879fd871b23b9c5db326ed96f,covenant worship church,-1.2839327,36.9982339,church,1.966345695170544
 Lang'ata,Karen,-1.3283746,36.7049676,1baad921ceef90003d470823f9995c58d51022aa,Eagles church main sanctuary,-1.3281002,36.68728979999999,church,1.9641564051540523
 Dagoretti South,Mutuini,-1.3,36.7,934b3c1e3b2bc18582a5b86832086c4059670a20,Body Of Christ Ministries,-1.2878299,36.6872384,church,1.9593557981777976
 Westlands,Kitisuru,-1.2395542,36.7839651,ca3c64a009d9a75fd1a86542c7b1da7d4bbb4692,Pentecostal Covenant Church,-1.2222141000000002,36.7811134,church,1.952792700404963
 Embakasi Central,Spring Valley,-1.2477029,36.78923560000001,a250dda8bde8282e27090fceee0031b3f469195c,Saint Jude’s Catholic Chapel,-1.2651347,36.7911593,church,1.9488648750911057
 Roysambu,Githurai,-1.2062932,36.9206391,a4657f0ec349ff8b685f150b790a8dfaa0e8eab7,PCEA KIMBO CHURCH,-1.2042668,36.9380398,church,1.9462975625206322
 Lang'ata,Karen,-1.3283746,36.7049676,581cbb500199d95d6178e2a18207393abedd8ab9,Karen Community Church,-1.330267,36.687565,church,1.9447487720311978
 Kasarani,Ruai,-1.2677339,36.9911112,b83da919984de9f0bfba7555068693ff0167754a,PCEA Upendo Church,-1.2663409,36.9736727,church,1.943555810882353
 Lang'ata,Karen,-1.3283746,36.7049676,98af46a8dd992f207954cea04079fb3d7c3fa6a3,Karen Community Church,-1.330315,36.687597,church,1.9417996671701778
 Westlands,Kitisuru,-1.2395542,36.7839651,f54acd215e988e59762b1d96f4d211611016fc91,House Of Enlargment Ministries Center,-1.2223666000000002,36.78087130000001,church,1.940655507696507
 Westlands,Kitisuru,-1.2395542,36.7839651,9023c06942e2c539978e0559f0899dceedeeb0ff,PCEA NYARI CHURCH,-1.2222228000000002,36.7819392,church,1.9390609586763503
 Lang'ata,Karen,-1.3283746,36.7049676,ad562e9b1235e68d5e1e6d93db0c9874cb36fbcb,Eagles Christian Church,-1.329066,36.687566,church,1.9347609598854036
 Kamukunji,Pumwani,-1.2797575,36.8442693,9e8b7ff43541a40b482b204d05b2b7b77b8134c0,Friends Church 'Quakers' Makongeni.,-1.296604,36.84856399999999,church,1.931914774732517
 Dagoretti North,Gatina,-1.1655719999999998,36.85526373,1a242dd293b1c204f492bab563274e83c948c8e8,Destiny Recovery Church,-1.1714251,36.8389284,church,1.9279192473548474
 Dagoretti South,Mutuini,-1.3,36.7,7df00613f08a23ec24d9629e1e99be9b9e66b03e,Dagolight Center,-1.2882557,36.6872723,church,1.9242310536941893
 Roysambu,Kahawa West,-1.1856847,36.90579279999999,613c03c346e59f95e93f7ab87f79cd52e2875a4e,Apostolic Faith Church Kiamumbi,-1.1888629,36.88880679999999,church,1.9199296474622518
 Dagoretti South,Mutuini,-1.3,36.7,6304de720b8170f886f3d67d88acb2579ba69def,New Testament Church Of God-Headoffice,-1.3024751,36.6829119,church,1.9182483165899264
 Embakasi Central,Spring Valley,-1.2477029,36.78923560000001,2d6f16b2829ecd79d832c5d1750975e716f4d192,St Austin Catholic Church,-1.260065,36.777393,church,1.902160521706874
 Dagoretti South,Mutuini,-1.3,36.7,d6d9f944f95d4edbdc880e71fe7d44b3222df716,Karinde Free Methodist Church,-1.3008008,36.6829074,church,1.9010119121281062
 Westlands,Kitisuru,-1.2395542,36.7839651,547ca4834c53e72d63260366247d27d9d75b95b6,Full Gospel Church Rivarori,-1.222796,36.7806253,church,1.8988624901837436
 Embakasi Central,Spring Valley,-1.2477029,36.78923560000001,a19850a0f02ec2c76af549417d1cbab506d6c2e6,St. Jude Catholic Church Rhapta Rd.,-1.2646561,36.7909471,church,1.8934976356966684
 Westlands,Kitisuru,-1.2395542,36.7839651,6c3d9268e7e3c2ee8e72acef65cd2f99171ddcfc,PCEA Milimani North Presbytery Loresho Parish,-1.2226978000000002,36.781722,church,1.8896739640625115
 Westlands,Kitisuru,-1.2395542,36.7839651,98c6c3428a2c0fc714d81ee98e14e7c7ffd5b0b1,AMBASSADORS FOR CHRIST FELLOWSHIP,-1.2236501,36.77809599999999,church,1.8837946072694145
 Kasarani,Ruai,-1.2677339,36.9911112,cf5e500b65441b1f83e8c655ec895cb2d7bb8931,Reedemed gospel capital hill,-1.2701492,36.9743844,church,1.8775945285899367
 Dagoretti South,Mutuini,-1.3,36.7,e2a16e8b8ea0bcd3bd8f565e28fc55510fdc33bf,Jesus Refreshing Church Int,-1.283385,36.6973589,church,1.8695131394457607
 Lang'ata,Mugumoini,-1.1991235,36.846741200000004,7853c914107458d4ae8013beeb854b270843efc4,THE REBUILDER'S HOUSE,-1.2092817,36.83343500000001,church,1.8600292209872815
 Embakasi Central,Spring Valley,-1.2477029,36.78923560000001,6a34cacb6b977dda800e4e4d15116c238de3f06b,Worship Tabernacle Church (WTC),-1.2629365,36.7961181,church,1.8575141615230517
 Lang'ata,South C,-1.3204426999999999,36.83053678,aee8cc57fa91687d2e4f35dba96ceac47c0a8309,PENTECOSTAL EVANGELISTIC FELLOWSHIP OF AFRICA,-1.3133919,36.84560250000001,church,1.8480537757608264
 Dagoretti South,Mutuini,-1.3,36.7,1961f9e67cca059d5f89e1a5d4009d9a709d653c,Deliverance Church Southern Bypass,-1.2936606000000002,36.68463870000001,church,1.846271656999364
 Ruaraka,Mathare North,-1.251788,36.87077217,2e269e63ea10394c5896168f6c9ea6ba7f9579c6,Nairobi Gospel Assembly Church,-1.235547,36.867949,church,1.8318347702002102
 Westlands,Kitisuru,-1.2395542,36.7839651,e1dbd8f3eb4319fa251ba65ecc25d9874eb1a256,SDA Church,-1.2233475,36.781698,church,1.818498883110776
 Embakasi Central,Spring Valley,-1.2477029,36.78923560000001,2aaa207f8b9e92dced152f1e1d42bdc053a71e6b,Little Daughters of St Joseph,-1.2569741,36.80267480000001,church,1.8140335700869492
 Lang'ata,Karen,-1.3283746,36.7049676,759b445327bf2e80de975b1a641a6e3af8d7947d,Word of Life Fellowship Church,-1.3367775,36.6909885,church,1.812117326042394
 Westlands,Kitisuru,-1.2395542,36.7839651,1a387d8175f677c2d856a9fda7347dd8a09188b0,Gachie Baptist center,-1.2254742,36.792157,church,1.810086463874117
 Dagoretti South,Mutuini,-1.3,36.7,1c795501d536213eb00a5bbeb2ddaae4c3dcbe9d,"Redeemed Christian Church Of God, The",-1.3019812,36.71615339999999,church,1.8080400004135073
 Ruaraka,Mathare North,-1.251788,36.87077217,6994cbbe0bc382c4f9c861ea352aba38cc8e0e8c,Nairobi Gospel Assembly Complex (HOT),-1.2358232,36.8679392,church,1.8017928031922579
 Westlands,Kitisuru,-1.2395542,36.7839651,6a1668e506ace6f53b56ea87f483a97cf3c8a7ef,Karura Church Old Sanctuary,-1.2235535,36.781493,church,1.7991662268096513
 Dagoretti North,Gatina,-1.1655719999999998,36.85526373,6a3874fcc4ec12643fa4f123434389a4487f17c7,Power & Glory Ministry,-1.173916,36.8414581,church,1.7923151959539332
 Kasarani,Ruai,-1.2677339,36.9911112,9ace2ea23d0dffa593b968508468a657bb063241,Deliverance Church capital hill,-1.2657676000000002,36.9751626,church,1.7852790435483876
 Kibra,Laini Saba,-1.31234835,36.79611435,4f784a8c922ad995c5e30b00cb00f9593d135225,Mayfield Guest House (AIM) International,-1.296984,36.800723,church,1.7824824803998538
 Westlands,Karura,-1.2369881,36.83255910000001,41044cea5e9382ba503d058e9ca6479c1904f5c2,Nairobi Chapel Kiambu Road,-1.2400322,36.8481964,church,1.7699180416174423
 Lang'ata,Karen,-1.3283746,36.7049676,1cb78a39d3eb1f3b3cf744050010d6bfc67cf962,Church of Jesus Christ of Latter-day Saints Kenya Nairobi Mission Office,-1.3180373,36.7170516,church,1.7668716912472189
 Embakasi Central,Spring Valley,-1.2477029,36.78923560000001,9c6f6169cfa8c8316afe51d5bdc719d2a0d6ccdd,Mennonite Board In Eastern Africa,-1.26354,36.787934,church,1.7658304519801884
 Dagoretti South,Mutuini,-1.3,36.7,c1dfafdce0bebd04cd7c36aa453f5198e30b29c6,Sts Constantine and Helen,-1.2842515,36.70198329999999,church,1.7638700304779238
 Dagoretti North,Kileleshwa,-1.2723271,36.799687799999994,52061f57ad20f761785605b71cb2648144406d99,German Speaking Evangelical Lutheran Congragation In Kenya,-1.2686361000000002,36.7842968,church,1.7584119551137165
 Embakasi Central,Spring Valley,-1.2477029,36.78923560000001,ef19d80d52c365e44100f6c46d49c7b1a7a4c087,Kivulini Residence,-1.26345,36.78817000000001,church,1.7538983241653985
 Westlands,Kitisuru,-1.2395542,36.7839651,25739fdfb944d92fa3c3337c99fdb96b6dabe145,Central Kenya Conference SDA,-1.2240474,36.7817548,church,1.7406038954855354
 Embakasi Central,Spring Valley,-1.2477029,36.78923560000001,ba547de1626a124059b768565e33e25fec206e27,Kandisi Pcea Church,-1.2633142,36.78827700000001,church,1.7380733686699048
 Embakasi Central,Spring Valley,-1.2477029,36.78923560000001,6e17a05e7da5c64dc104d47789e3e42ef2d6092e,Baptist Mission Hampton House,-1.2622352,36.78409490000001,church,1.712920229748044
 Dagoretti South,Mutuini,-1.3,36.7,9ac743238cb2028a4b190e98ee172d62bb8c9c2d,FPFK: DAGORETTI,-1.2881711999999998,36.6901205,church,1.712463767174518
 Ruaraka,Mathare North,-1.251788,36.87077217,05c403479dac695df4e2504ff77765950e391032,JCC Thika Road Church,-1.2364026,36.8703662,church,1.7102991345931011
 Kasarani,Ruai,-1.2677339,36.9911112,b01b8aaed887da203a9c1162000f794a2f47dbf6,ACK Holy Innocent Ruai,-1.2627351,37.0056185,church,1.704773485318331
 Kamukunji,Pumwani,-1.2797575,36.8442693,e08cc6e1ddf3857a5eb701d48f0c52aa378f8ebe,Redeemed Gospel Church Inc,-1.2937283000000002,36.8501719,church,1.6853191259866975
 Embakasi East,Mihango,-1.2692818000000001,36.95299050000001,a9da93b735648f62e4b06a8036854665d4c4cf74,Great Grace Worship Centre KAG Church,-1.2569674,36.96176289999999,church,1.6800193444171148
 Embakasi South,Kwa Njenga,-1.3166386,36.884663,1e656b8ac57ce5d1c39940d1da8d0f92fc700f07,Bethesda,-1.3067541,36.8960964,church,1.679267307929443
 Westlands,Kitisuru,-1.2395542,36.7839651,c2bad7b928e38da76f39ba6861804c59f1740013,A.C.K St. Bartholomew Nyari,-1.2260421,36.7906856,church,1.676925682351261
 Lang'ata,Mugumoini,-1.1991235,36.846741200000004,a1281bbb297787001fec1345dc49d0d75afb4d76,Deliverance Church - Thindigua,-1.2061855,36.8334319,church,1.674015193579831
 Dagoretti South,Riruta,-1.2917037,36.7346929,f7263c5f2428dd7f64c1fa4a1077a049e1d3a0ee,PCEA Mugumoini,-1.3050983,36.7278475,church,1.6715032729389971
 Lang'ata,Karen,-1.3283746,36.7049676,7ebb874a9b564ee9627123ca6383341dcf98a4af,"Bible league, the",-1.32038,36.71770000000001,church,1.6703588300090197
 Embakasi Central,Spring Valley,-1.2477029,36.78923560000001,f0c67bbb38e2138b0a9d5e24dacad9319890eab7,ACK ST MARKS CHURCH WESTLANDS,-1.2605438999999998,36.7970471,church,1.6701390418466255
 Dagoretti South,Mutuini,-1.3,36.7,292eed6a4dadc44cd1fe4104689f5343757d732f,"St. Parthenios Orthodox Church, Waithaka Parish",-1.2871542,36.7077681,church,1.6680882717486447
 Dagoretti South,Uthiru,-1.2631329,36.7188955,47257310b30996c9c85db79caa20361248521232,Perfecting Saints Family Church (PSFC),-1.2607407,36.7041468,church,1.6599773669159226
 Westlands,Karura,-1.2369881,36.83255910000001,5d236208eeb4fabc7766a6d00b1c907f10913952,EAPC Karura forest,-1.2484546,36.842102800000006,church,1.657664867591466
 Dagoretti North,Gatina,-1.1655719999999998,36.85526373,92111f918ea5783ba1e3f5bf4513a3565241f698,Deliverance Church Kirigiti,-1.1730063,36.84243439999999,church,1.6474723796988016
 Westlands,Kangemi,-1.2654258999999999,36.7525183,f0836f5ae9c6be2f8dd5bf616235b29faca37f41,Maryknoll Fathers & Brothers,-1.263384,36.767047,church,1.6299811754343294
 Lang'ata,South C,-1.3204426999999999,36.83053678,112829d9473d3cce339bb438bccac5b2e27ccd4c,Nairobi South Vineyard,-1.3163875,36.84461470000001,church,1.6276227900794036
 Dagoretti South,Mutuini,-1.3,36.7,97abba0d379cace8e1218c9b16dd068bd5420674,FPFK DAGORETTI CHURCH,-1.2878492,36.691852,church,1.625612633222647
 Roysambu,Roysambu,-1.2188396000000001,36.88673920000001,7c18fd54c2daffc711de2be6c436e36c4df28c42,Pcea Gateway Church,-1.21256,36.873542,church,1.623800166551214
 Embakasi Central,Spring Valley,-1.2477029,36.78923560000001,bc7e2cba9b52195c9a99f388d5371ecd07dc2f48,St Marks Church Westlands,-1.260219,36.79660199999999,church,1.6137670722432589
 Embakasi Central,Spring Valley,-1.2477029,36.78923560000001,ddb444fccc314fcf484d6974e87af4112bfc8283,"ACK Christ Church, Westlands",-1.2621323,36.7882935,church,1.6068810950435763
 Westlands,Karura,-1.2369881,36.83255910000001,fae27d0715b2df26298707ace65b5769ce0cefbb,Siloam SDA Church,-1.2293041999999998,36.8447867,church,1.6045453376842913
 Kibra,Laini Saba,-1.31234835,36.79611435,2ea9bbc56075ec2986d476d698cdd5f14ba9ce77,Central Church Of The Nazarene,-1.2981896000000002,36.7985525,church,1.596538385586124
 Ruaraka,Lucky Summer,-1.2393083,36.898786,74d80d66544c679dd29b2019d97289c8ed552c60,Glory Mission Centre,-1.2456833,36.9116271,church,1.5928417388034393
 Makadara,Maringo,-1.2920714,36.86572592,66b351a2dfbffe0f76b7f0b55d8ecef477ff29e6,Rhema Fellowship International,-1.2939345,36.8515414,church,1.589397211844776
 Embakasi West,Umoja 2,-1.2818728000000001,36.89933970000001,2578dfeb0f5490ebf14ef852bbb14169c1c51049,Jesus Miracle Anointing Ministry,-1.2863452,36.9128909,church,1.5854137012754501
 Embakasi East,Utawala,-1.285877,36.98408679999999,f6c99d627bda3bd2bc94ceb4a47d2e0edd07a8fb,ACK St Monica Utawala Parish,-1.2828211,36.97018,church,1.5818863753643417
 Dagoretti North,Gatina,-1.1655719999999998,36.85526373,a16e328b25f20837f1e18048f1edd73fbd4d9e34,"Kingdom Worship Centre,Kirigiti",-1.172058,36.84263660000001,church,1.5772183713175176
 Westlands,Karura,-1.2369881,36.83255910000001,b4978e1e5008e5fa3823497af17d6880b4c70ef1,Siloam SDA church. Kiambu Road Ridgeways,-1.2296773,36.844667,church,1.5714722499980474
 Embakasi East,Upper Savanna,-1.3247280000000001,36.887724,6f2af78c8b937a55f1a12e991156036723bee747,House of Grace Embakasi,-1.3206028,36.9011879,church,1.564447791674943
 Dagoretti North,Gatina,-1.1655719999999998,36.85526373,a9bfac51c8f1a873dae8da851721254f9041b978,PAG Church Kirigiti,-1.1702881,36.8420083,church,1.5631753881885333
 Ruaraka,Babadogo,-1.2433103,36.8910881,ab86f614b6ecb988e325c76038215c5a46240030,Ruaraka Baptist Church,-1.2324559,36.88214049999999,church,1.5630377499596473
 Lang'ata,Mugumoini,-1.1991235,36.846741200000004,76c85cbe6cc87f9c94227389f00fd1363f619829,P.C.E.A Thindigua,-1.2094444,36.8372222,church,1.5600806854419105
 Lang'ata,Karen,-1.3283746,36.7049676,53b4a9fcf12ddb7513194f56c4215b38c14492cc,ST. Augustine Catholic Church,-1.3205038999999998,36.6933824,church,1.5561209265355282
 Dagoretti North,Gatina,-1.1655719999999998,36.85526373,62c7d117f7c88805b3c9b15cc53affd97200a587,Victory Palace Chapel - Kirigiti,-1.1721136,36.8429034,church,1.553792632289337
 Embakasi East,Utawala,-1.285877,36.98408679999999,5648ed1a57ea41f0eb255fddc41ecfb3e3e5f1e8,Gospel Centres International Utawala,-1.2750007,36.97530939999999,church,1.5529637452112866
 Dagoretti North,Gatina,-1.1655719999999998,36.85526373,ebaa68ebf66c823a617b9d83202d3f7742da9cea,Charismatic Church,-1.1716142,36.8426668,church,1.552274348774166
 Dagoretti North,Gatina,-1.1655719999999998,36.85526373,f1ff6ccbaa6c9ee2f942766a46955a49a940f4d2,Kirima Prayer Centre,-1.1777759,36.848518,church,1.549472339221136
 Embakasi Central,Spring Valley,-1.2477029,36.78923560000001,3ead5ae1c77df18ccdf071560e48ac08cdb79ecf,Eagles Faith Christian Centre,-1.255088,36.80105199999999,church,1.548194248322193
 Embakasi East,Utawala,-1.285877,36.98408679999999,00b3dc08740ccae53a64b14a4aeeaa08c41b1f97,Utawala Baptist Church and School,-1.2996938,36.982646900000006,church,1.543704299732822
 Dagoretti South,Uthiru,-1.2631329,36.7188955,4454206d92dbd5de7249dbc53ba49699bc113d55,St. Stephen's Catholic Church - Uthiru,-1.2517222,36.7111802,church,1.5305493199215732
 Lang'ata,Karen,-1.3283746,36.7049676,1df6a39b084586099c3e02aa96ef6aa042c1551c,Karen Vineyard Church,-1.3182853,36.7143258,church,1.5290233033318217
 Westlands,Karura,-1.2369881,36.83255910000001,bc6fb5181318e09df3585b7e731cf9b0b33bde5b,Our Lady Of The Rosary Catholic Church,-1.2242816,36.83765709999999,church,1.5213704111744548
 Dagoretti South,Mutuini,-1.3,36.7,6ba3b1029a3ef1c348a37d15b0653fa8a8469c8e,Kirigo SDA,-1.2871995,36.69519629999999,church,1.5192740593379466
 Embakasi East,Utawala,-1.285877,36.98408679999999,a72ee2c51f762b1e15b66ce41ddd97f50bfecc7d,Utawala PCEA Church,-1.2859874,36.9704214,church,1.5182362413008594
 Westlands,Karura,-1.2369881,36.83255910000001,b56e75cf3bcf2ac21ac98471f2f1780342f20950,PCEA Evergreen Church,-1.2238896,36.8290561,church,1.5067026802127856
 Embakasi East,Utawala,-1.285877,36.98408679999999,fe3394d30b90318832b1dcdeac790ae5e5e59d34,Light of Life Church,-1.2900845,36.9712231,church,1.5036596481296767
 Kasarani,Njiru,-1.2539022,36.9343299,86df6ec1c5bf7e0f3c9d44c60627ed1fc559da0b,Deliverance Church,-1.2492016,36.9469786,church,1.4991965023826455
 Embakasi Central,Spring Valley,-1.2477029,36.78923560000001,1f2cb6998f8bd79796e8f2f45eb0173a096b7405,Norwegian Church Aid,-1.260646,36.792971,church,1.496976818657872
 Makadara,Harambee,-1.290941,36.89721585,f39c2b80d26fa8d4c58278dbf25079107defd3a6,Friends Church Quakers Donholm,-1.3029966999999998,36.8912533,church,1.494513759921387
 Westlands,Karura,-1.2369881,36.83255910000001,16c24a3cea1429ea3cb1026f2140e7719f33349f,Social Ministry Research Network Centre (Somirenec),-1.237205,36.81913400000001,church,1.491712769467392
 Lang'ata,South C,-1.3204426999999999,36.83053678,089fa445ee595d0f1b6b9a05172f746f52391fda,Kingdom Hall of Jehovah’s Witnesses,-1.3267541,36.84237770000001,church,1.490760465864707
 Embakasi Central,Kayole South,-1.2659842,36.916945500000004,2b1ea3bcad932c65881523ce4e428902693ddbf0,The Good News Fellowship International,-1.2527606000000002,36.9147438,church,1.4896931300003178
 Kasarani,Ruai,-1.2677339,36.9911112,032d69a7e3d14dbf0b25fc85566fa4f75f938483,"Kingdom Hall of Jehovah's Witnesses, Ruai",-1.2622065,36.9789079,church,1.488413372603004
 Dagoretti North,Kilimani,-1.2874421999999999,36.784522499999994,53d42e1c346c5e866a74f8597a6d31e327c77104,Methodist Church of Kenya,-1.2893578,36.7713046,church,1.4838181244645439
 Embakasi East,Utawala,-1.285877,36.98408679999999,f23341c44ac3f003b21854f086adbf00ff01783f,Delivarance Church Airways Int'l,-1.2987736,36.98750940000001,church,1.4827210465886815
 Lang'ata,Mugumoini,-1.1991235,36.846741200000004,3ba3fe603c94d6595d9e921a9831189e5fde0c90,St. Gregory The Great Catholic Church,-1.2045825,36.8346208,church,1.4769198497696412
 Dagoretti North,Kabiro,-1.2878118,36.751501399999995,50a84a6ed36bc83b8eef8013316fcce9fb45d3a8,Jesus Breakthrough Assembly - JBA,-1.2990334,36.7585652,church,1.4733872289793069
 Embakasi East,Utawala,-1.285877,36.98408679999999,ea45cd7db2bcfd53811b270e93942465ead52002,Deliverance Church Airways,-1.2986892,36.9874484,church,1.471923653750542
 Embakasi East,Utawala,-1.285877,36.98408679999999,4a60b16b10985619db3916ec04e4a1b140bee6d3,Utawala CFF Church,-1.2887156000000002,36.9712013,church,1.4658828772106354
 Westlands,Karura,-1.2369881,36.83255910000001,01a5b47a633a1c7048bcc8f32b8d57cea491a530,Harvesters Global Church,-1.2308248,36.8442095,church,1.4643876112151775
 Kibra,Sarangombe,-1.31226715,36.77745932,09e8cfece1b8620e0461292bab4569fd798a4f1f,Friends Church (Quakers) Langata.,-1.3248932,36.7811859,church,1.4628775306885689
 Roysambu,Githurai,-1.2062932,36.9206391,ec59453253016f7563584ec0863b1e8e55e28be6,Gospel Celebration Church Githurai,-1.206229,36.93379820000001,church,1.4619998243302474
 Dagoretti South,Riruta,-1.2917037,36.7346929,5acab311e11f5744225c0b0a02f3f29476bc2d4a,Kingdom Reality Ministries,-1.3009142,36.7440885,church,1.461899035409996
 Dagoretti North,Gatina,-1.1655719999999998,36.85526373,f59e0d9f5b774ecd50f94a01a653fa77d99f4f09,ACK ST PETER'S KIU RIVER,-1.1686398999999998,36.8679952,church,1.4549969389491755
 Dagoretti North,Kabiro,-1.2878118,36.751501399999995,339644c05b41e88d2bd75cebfe8016d821158f02,Lavington SDA Church,-1.2905893,36.7642967,church,1.454641459751572
 Embakasi West,Umoja 2,-1.2818728000000001,36.89933970000001,3746ae829d89e699dbe70367397879a6eeb1a27d,African Brotherhood Church - Kayole,-1.2786698,36.9120344,church,1.4545685894032492
 Embakasi Central,Spring Valley,-1.2477029,36.78923560000001,beca47f24c11a54cd4ccca71baa8b2536040fc1e,Interchristian Fellowships Evangelical Mission (Icfem-Mission),-1.260571,36.78691999999999,church,1.4529260432210314
 Roysambu,Roysambu,-1.2188396000000001,36.88673920000001,9b1dde5a3d81096e1fcc1bec371c5c43ed060c1c,Riverside Christian Church,-1.2289238,36.878425,church,1.4522376216199044
 Dagoretti South,Mutuini,-1.3,36.7,9c4d4cb7d8339418d1c9779b9b2233ae99b6668f,ACK St. Johns Church Kirigu,-1.2872692,36.69705870000001,church,1.451959664698223
 Dagoretti North,Kabiro,-1.2878118,36.751501399999995,13c141b3d42730e2cb93e9d8126d961c18107a11,Seventh Day Adventist Church Lavington,-1.2904036,36.7642289,church,1.4430215193689164
 Lang'ata,Mugumoini,-1.1991235,36.846741200000004,0b59f996cb305adb73f3c79318d1fa6d962aade7,Compassionate Church,-1.2088815,36.8382023,church,1.4407712086898723
 Embakasi East,Utawala,-1.285877,36.98408679999999,5c3761d6430b578d415775f1546f2a29b97952c8,RGC UTAWALA,-1.290381,36.971945,church,1.4387798122103632
 Embakasi East,Utawala,-1.285877,36.98408679999999,482edf8186df7e8969be694a4528c702ed27a818,Breakthrough Victory Church,-1.285368,36.97117100000001,church,1.436022831417706
 Embakasi East,Mihango,-1.2692818000000001,36.95299050000001,65fd3763cb82c687b29911d42cde64baab5650e6,"Assembly Of The Chosen Generation Church (ACGC), Corradini",-1.2657426,36.965420400000006,church,1.435849781331973
 Kasarani,Ruai,-1.2677339,36.9911112,656b0a4b03e677f317e779ecf925f2a886bb4eb9,Covenant Worship Church RUAI,-1.2558961000000002,36.98602800000001,church,1.4315739960572373
 Kasarani,Ruai,-1.2677339,36.9911112,051782a3322ece2d83a65a6dd48cd87df38348c3,Chrisco Church Ruai,-1.2558961000000002,36.98602800000001,church,1.4315739960572373
 Embakasi East,Utawala,-1.285877,36.98408679999999,4be6a9e84c776f45ba6b73cca2b44ac78cff578e,Holy Family Catholic Church Utawala,-1.2781972,36.9737738,church,1.4286560905352406
 Embakasi East,Utawala,-1.285877,36.98408679999999,9fbc3aed90e2675cd81e50ef220a2df667c24661,Redeemed Gospel Church utawala,-1.2904599,36.9721498,church,1.4205898592486892
 Roysambu,Roysambu,-1.2188396000000001,36.88673920000001,9411e88cffc84a1664577f6662c1979e0cadc1bb,Overcoming Faith Church (OFC),-1.2290747,36.8790893,church,1.4198447553685136
 Embakasi Central,Spring Valley,-1.2477029,36.78923560000001,a6134bd831a0effbd169718d6c4da0b67cd5fe03,ACK Diocese of Nairobi Bishop's Office,-1.2591758999999998,36.7948268,church,1.418211974997391
 Westlands,Kangemi,-1.2654258999999999,36.7525183,0fc892fc5776d8acb197d1a96b5abe6959ab6ac1,P C E A Loresho Community Church,-1.252686,36.752004,church,1.4168753911056247
 Ruaraka,Lucky Summer,-1.2393083,36.898786,804b91cecd3b6c179254c718fac2480cf621284b,Gloryland Church Dandora,-1.2429106,36.91101549999999,church,1.4164292657816486
 Dagoretti North,Kabiro,-1.2878118,36.751501399999995,56204e69be8516c37242de2a203ca3f64402394f,Cornerstone Faith Assembly,-1.3003275,36.7536925,church,1.4119503614707853
 Embakasi West,Umoja 1,-1.2778669,36.8881172,d8676aa3ea05bae3cdb9caa38231e9eb5af1a585,PCEA Kariobangi South Church,-1.2660481,36.8834987,church,1.410037419050264
 Kamukunji,Pumwani,-1.2797575,36.8442693,27dc26fb6cc9044dcb99cf4449a72f5f2fa1f735,Shauri Moyo Baptist Church,-1.292383,36.845055,church,1.4057228632011278
 Westlands,Kitisuru,-1.2395542,36.7839651,6cac256ab03cab33aa0d03fb8fd712d54da56bb3,ACK St Bartholomew,-1.227341,36.78721780000001,church,1.4044799228780676
 Lang'ata,Karen,-1.3283746,36.7049676,2e0384d6a5828ec3145b5d3ec50cf30f87d1b10a,"Calvary Chapel Nairobi, Kenya",-1.32878,36.717595,church,1.4035671992217065
 Dagoretti North,Gatina,-1.1655719999999998,36.85526373,c36288255d9558bf6abd6d0d4e9ec2eff052bb21,ACK Church Riabai,-1.1650106000000002,36.8426832,church,1.3991152554944182
 Roysambu,Roysambu,-1.2188396000000001,36.88673920000001,b62df3b6a9066d65925ca9f3f848a7e002704d0d,Economic Dimension Enterprises Empowerment Limited (EDEEL),-1.229806,36.88065,church,1.3938268324430831
 Kamukunji,Pumwani,-1.2797575,36.8442693,3a0ebdc42539382215286598b07a985607146ec3,Kenya Local Belivers Nairobi Church,-1.2920866000000002,36.8464696,church,1.3917087946676487
 Kasarani,Kasarani,-1.2208721000000002,36.9012224,dcab5bf458fb113241d73bef4af11c0b8b016f0d,"Kingdom Hall of Jehovah's Witnesses, Sunton",-1.220037,36.9136867,church,1.3878885448712297
 Starehe,Nairobi Central,-1.2832533000000002,36.8172449,bc5d9d19aa25cd91257ad36a09a391018b6faa46,City Revival Temple (Shofar House),-1.2932745,36.82455529999999,church,1.378307070972907
 Embakasi East,Utawala,-1.285877,36.98408679999999,188263fa7c726186017210a12589b043d37da6e4,Christian Hope Gospel Church Utawala,-1.2875595,36.9718779,church,1.3691988672197364
 Embakasi East,Utawala,-1.285877,36.98408679999999,3ada4417bcfbb4bd95b1930d17072ae73367bade,ENDTIMES CHRISTIAN CHURCH INTERNATIONAL,-1.2875464,36.9718852,church,1.3681973212377485
 Embakasi East,Utawala,-1.285877,36.98408679999999,902980f958b01cac7a6a1691e95026037bc0be14,Solid Rock Church Utawala,-1.2829716999999998,36.972204100000006,church,1.3590396077554026
 Embakasi East,Lower Savanna,-1.3247280000000001,36.887724,1c563de0ccccd4b0f5928ad6642728ea48322e9e,House Of Grace Embakasi (HOGE) Church,-1.321852,36.8996053,church,1.3580988310758848
 Westlands,Kitisuru,-1.2395542,36.7839651,b5b30843c30a0e81dc0e75b3fcdd54820e3ed8f7,St.Catherine Of Sienna Church Springvalley,-1.2339869,36.773088,church,1.3575969864741282
 Lang'ata,South C,-1.3204426999999999,36.83053678,69fca2b806459f1bca049f82b72af72b5865c757,Africa Inland Church Plainsview,-1.3165102,36.84209970000001,church,1.3568867235968887
 Embakasi Central,Komarok,-1.26725495,36.90524096,17c1fd09721dcfadde3abaaee115bf4e4002d8b2,Deliverance Church Kayole,-1.2777803,36.9113461,church,1.3520659025751411
 Dagoretti North,Kilimani,-1.2874421999999999,36.784522499999994,74adb475bcbba81be593913b79f8235ab73f730a,Musmark Cristian Retreat House,-1.2754722,36.7824134,church,1.3506478274342901
 Makadara,Makongeni,-1.2873101,36.87210716,9ff77690f6be8c6bc4c20047c72a30fca7ee5a38,Citam Buruburu,-1.295354,36.88120579999999,church,1.3493697556530202
 Dagoretti South,Uthiru,-1.2631329,36.7188955,e63019bba591df929a339d546f6ad8554cf71f2b,PCEA UTHIRU CHURCH,-1.2536073,36.7113987,church,1.3469168754076914
 Lang'ata,Nairobi West,-1.3087022,36.823097499999996,4cd0798ab3cc1ccd85d35746e86e5d97976701b6,Seminaries And Institute Of Religion,-1.2973517,36.8191046,church,1.3370565900850813
 Makadara,Harambee,-1.290941,36.89721585,3c8232e94a49f4797a8b3db3dfd144ee10fd705c,Living Word Africa Gospel Church - Donholm,-1.3006213,36.89007110000001,church,1.3368750930687652
 Makadara,Harambee,-1.290941,36.89721585,543559fa9cdf6f2d3cba8a0acb9b9df823baaad6,Living Word Africa Gospel Church,-1.3005838,36.89004970000001,church,1.3349407525520147
 Kibra,Makina,-1.30854575,36.78652379,af78facee3bb6bf00c32af5173eba309c7b04019,Deliverance Church Ngong Road,-1.3003748,36.7952674,church,1.329678358142206
 Embakasi East,Lower Savanna,-1.3247280000000001,36.887724,4769e67b8d483e762e816697defbbb89fac7f208,Gospel Centres International - Central,-1.3199378000000002,36.89866660000001,church,1.327109047605682
 Embakasi East,Utawala,-1.285877,36.98408679999999,083d28f65dac405619ba1a15e566323d7bf364e6,Utawala South Seventh Day Adventist Church,-1.2976631,36.98219810000001,church,1.3264332599108333
 Embakasi Central,Kayole North,-1.2659842,36.916945500000004,ed476aa86170011c118ffbbbe9979dda3d018248,Free Pentecostal Fellowship in Kenya Kayole,-1.2770478,36.9125986,church,1.320891456166878
 Kasarani,Ruai,-1.2677339,36.9911112,7dda42bfd70d92f608f3ace745c284b6e29518b9,VIC Ruai Church,-1.2570709999999998,36.9963141,church,1.3183882033119614
 Embakasi Central,Spring Valley,-1.2477029,36.78923560000001,fe8f94b1b915b95386305ab29c26ee705d6020a3,"Nairobi Chapel, Waiyaki Way",-1.2595573999999998,36.78883520000001,church,1.3180835115765017
 Dagoretti South,Mutuini,-1.3,36.7,a90d1094027cc2f893b213815cc73368094f2b61,Dimesse Sisters,-1.311755,36.69860300000001,church,1.3154633107269764
 Dagoretti North,Kabiro,-1.2878118,36.751501399999995,7de8dc9dbfc9924c8bd6a431068dd022e3572b8f,Solid Rock Church of Jesus Christ,-1.2984586,36.74645170000001,church,1.309395438302781
 Embakasi East,Utawala,-1.285877,36.98408679999999,b51d07146a4c1ce7de2b9220b56d6c3ced5564a3,AIC Utawala,-1.2855423,36.9723231,church,1.3074425224447679
 Embakasi East,Mihango,-1.2692818000000001,36.95299050000001,ed003524ce30ab63ab906e498ae721d05c5a6203,"Worldwide Gospel Church, Utawala Local Church Assembly",-1.2725874,36.9642708,church,1.3059425976743002
 Dagoretti North,Kilimani,-1.2874421999999999,36.784522499999994,5660ac56fded7c495497d50b21d2a8b6e1faf437,Eucharistic Apostles of Divine Mercy,-1.287702,36.7962351,church,1.301555599149506
 Lang'ata,Nairobi West,-1.3087022,36.823097499999996,24f513ff5b322bf52939ef0328ac489c74573580,The Church Of Jesus Christ Of Latter-Day Saints Nairobi Upper Hill,-1.2976145,36.8193688,church,1.2998936037926752
 Dagoretti South,Mutuini,-1.3,36.7,d93e09eb859ad4c8fe3f31b89f6821c8562e16cc,Church of Restoration Mutuini,-1.288357,36.699075,church,1.2979043982514238
 Embakasi East,Mihango,-1.2692818000000001,36.95299050000001,87df2a3347142d2a968e231c1ba0e1a80e74862b,The Winning Walk Chapel - Victory Domain,-1.2796731,36.95831999999999,church,1.297685533728263
 Embakasi East,Utawala,-1.285877,36.98408679999999,a6f5405c5e4bbe03e9a6ab5bdcede20426a94709,African Inland Church,-1.2855286,36.9724166,church,1.2971037297392896
 Lang'ata,Karen,-1.3283746,36.7049676,7ddb5f71d1408ec70bc704ad3dbfff3332f0e9a3,African Evangelistic Enterprise Kenya,-1.3228552,36.7151928,church,1.290977965060611
 Lang'ata,Karen,-1.3283746,36.7049676,4dded7e1a647671d0ec9c8d837e65f33231ae6ab,St. Nicholas Anglican CDC,-1.3228559,36.7151422,church,1.2859971702989432
 Embakasi South,Imara Daima,-1.3285901000000002,36.8743999,5457c8d337ac110e4134f4c43fa1ac9533d781f5,Christ Ambassadors Sanctuary,-1.3246438,36.88527699999999,church,1.285507554313439
 Dagoretti South,Mutuini,-1.3,36.7,0f1d8b2bf23b4ae7e266b4e82feac923947d75bb,The Church Of Jesus Christ Of Latter-Day Saints,-1.3054912,36.7101716,church,1.2842584969593795
 Embakasi East,Utawala,-1.285877,36.98408679999999,ec3619baf5c8e9b583584761bf1c45564e3121d4,SDA Church MC,-1.2971784,36.9818959,church,1.2792390136850067
 Embakasi South,Imara Daima,-1.3285901000000002,36.8743999,c9641ed459cc480aa1f0050d1cb284d24f6a4491,Agape Fellowship Ministry,-1.3171524,36.87363990000001,church,1.2738170182710655
 Dagoretti South,Mutuini,-1.3,36.7,226f78e2585e98f542db91f6e93c94a22763db96,Green Pastures Tabernacle,-1.2951765,36.7103663,church,1.2702879924443327
 Kasarani,Ruai,-1.2677339,36.9911112,68117e3cd259102c2d235389f70bd8f4436758df,PCEA CANAAN CHURCH,-1.2582854,36.9975019,church,1.2674858357980217
 Dagoretti North,Gatina,-1.1655719999999998,36.85526373,dff1f6bf041a708b54f248f275545c91431c2da3,P. C. E. A.kirigiti Church,-1.1726292,36.8463138,church,1.2663971864764334
 Dagoretti North,Gatina,-1.1655719999999998,36.85526373,17feda2c11228e177b7ab3124a185ff229d7e264,P.C.E.A Kirigiti,-1.1726359,36.8463259,church,1.2658034936530727
 Embakasi South,Imara Daima,-1.3285901000000002,36.8743999,6b18a3074e7e0f9d7aa513fbda4ff9fa1c97159b,Agape Fellowship Ministry,-1.3172264,36.873650700000006,church,1.2655324833733546
 Embakasi South,Imara Daima,-1.3285901000000002,36.8743999,3c9da944995ced95d65e5d7da1bed4cf464b9bea,Saints Gathering Centre,-1.3259145,36.8854047,church,1.2582164372063511
 Makadara,Makongeni,-1.2873101,36.87210716,2c2f8bbeb77ee4918ff10df85e90707291300830,Holy Trinity Catholic Church Buru Buru,-1.2764328,36.8750793,church,1.2530303932696891
 Embakasi East,Mihango,-1.2692818000000001,36.95299050000001,61f7da30d1e8882851b354ba63f81c13e2abc06e,Destiny Pillars International,-1.2799858,36.94957730000001,church,1.2484637485978773
 Embakasi East,Utawala,-1.285877,36.98408679999999,ce989dacfa1ab631023277c844f1fdd61f685799,Utawala PEFA Church,-1.2885801,36.9731811,church,1.2482720229260724
 Mathare,Huruma,-1.25764595,36.87259835,556f65ea12129bbc337e28e1b980e853e8f13cc4,Jesus Victory Temple,-1.2659576,36.88013220000001,church,1.2464597314682586
 Kibra,Laini Saba,-1.31234835,36.79611435,93559c9ebb528f0aeb407e9c39007ce8d346bb3c,"Hebret Church, Nairobi (EFCEK)",-1.3021553999999995,36.8007156,church,1.2426983465343004
 Embakasi South,Imara Daima,-1.3285901000000002,36.8743999,9bda270c65576ec47c6288e1747a3f5d94993594,New Hope Academy,-1.3244479999999998,36.8847755,church,1.241185308741285
 Makadara,Makongeni,-1.2873101,36.87210716,47ff9226de3a8af017847524c56efea8d65a23e1,Lightstand Church,-1.2952423,36.87986770000001,church,1.2330140999074148
 Kasarani,Ruai,-1.2677339,36.9911112,bceeac27b79b81c71d9a32f1171830c743bc1ce9,St. Peter's Catholic Parish - Ruai,-1.2786665000000002,36.992898,church,1.2309975455430737
 Embakasi East,Upper Savanna,-1.3247280000000001,36.887724,b8e05ef31f593f770efc20a50e527c76bf37ea90,Joy Christian Fellowship Embakasi,-1.3194576999999998,36.8974597,church,1.2299771019056076
 Dagoretti North,Kileleshwa,-1.2723271,36.799687799999994,30b665e1f9eea54e27566d9493ba086ddbbf92cf,A.I.P.C.A Kiranga Church,-1.2757307,36.7891553,church,1.2297449105666345
 Embakasi East,Mihango,-1.2692818000000001,36.95299050000001,8f2aa1dabcbed1c0c775963b0b1c640cc686b012,Gospel Celebration Church Utawala,-1.2790647,36.9580655,church,1.2246371796049884
 Dagoretti North,Gatina,-1.1655719999999998,36.85526373,2a9a036ebe040664c525762fe8c9e19d64d4b60c,New Apostolic Church - Riabai (Gitamaiyu),-1.1679944,36.86600410000001,church,1.2232636038163822
 Dagoretti South,Waithaka,-1.2833,36.7166,85eb8a7ae26b17e3b392fa413483039009390a96,Cornerstone Sabbath Church,-1.2819851,36.72752420000001,church,1.2224131793805175
 Embakasi Central,Spring Valley,-1.2477029,36.78923560000001,f59babfbab95b80972cc1d0d2a56825948a8e780,Gloryland SDA Church,-1.2585666000000002,36.7909367,church,1.2219333590407953
 Embakasi South,Imara Daima,-1.3285901000000002,36.8743999,1da074252487a92f6d12c4d6e90d15736ac65294,New Hope Church Imara Daima,-1.3242013,36.8844724,church,1.2206700918185864
 Westlands,Karura,-1.2369881,36.83255910000001,3cefcafe5d62e57aded32b02e16567249a663494,The Peoples Church Ridgeways,-1.2289704,36.84006569999999,church,1.2203868336842278
 Starehe,Nairobi Central,-1.2832533000000002,36.8172449,cc77259ed20a2b14b0099e38a34d5fa4f5759c82,Chrisco Missionary Church,-1.2930422,36.8221982,church,1.219065006291526
 Embakasi East,Mihango,-1.2692818000000001,36.95299050000001,d8fe48d710e07115fbf202bc927d74683818e97a,Deliverance Church Springfield Utawala,-1.2754553,36.96205330000001,church,1.218358777124755
 Embakasi South,Imara Daima,-1.3285901000000002,36.8743999,f1d581d937d64b90aefdd7a5342a88a424cbb686,Shilloh Academy,-1.3261575,36.88509060000001,church,1.2180614175226878
 Embakasi East,Utawala,-1.285877,36.98408679999999,9557c5c3abb56ba22aad5d9dc39b73aa3aefe354,JIAM Church,-1.2847992,36.97317839999999,church,1.217796229983709
 Embakasi East,Mihango,-1.2692818000000001,36.95299050000001,fb0ddac5ad467461174c813681b335ffd1ffb3ec,Resurrection Temple International,-1.2788007,36.9475889,church,1.2161592296260186
 Embakasi Central,Kayole Central,-1.2659842,36.916945500000004,17a81fcbfd4de2cc34d5ed645e559616c7269182,The Good News Mission,-1.2550813,36.9161929,church,1.2144676563674897
 Lang'ata,Nairobi West,-1.3087022,36.823097499999996,1c01d6b8aba9b1a3ecda14f464e8e1dff4ce9c61,Grace Apostolic Assembly,-1.3094585,36.8339771,church,1.211599651636389
 Embakasi East,Mihango,-1.2692818000000001,36.95299050000001,b63318bbcaecc8a102a646ce2dedd698c9c958ac,Skyway SDA Church,-1.2788998,36.9580534,church,1.2077730857640308
 Embakasi East,Utawala,-1.285877,36.98408679999999,659b9c0ae284d900e4919b73990c669890a54786,Redeemed Gospel Church Eastern Bypass(Utawala),-1.2925722,36.9755982,church,1.2012082832885347
 Makadara,Maringo,-1.2920714,36.86572592,22ce70c52e2deec858d300e117c1069d498634af,Kingdom Hall of Jehovah's Witnesses,-1.2846741000000002,36.85790479999999,church,1.196126691440172
 Starehe,Ngara,-1.277803,36.830072200000004,29f7b13fceb87b285c11de8c5dcd3a7782716171,Deliverance Church House of Bread,-1.2884943000000002,36.83113400000001,church,1.1939138090774264
 Kibra,Makina,-1.30854575,36.78652379,bb552d62f779e8cad48e7ad7b95b41cc87232754,Dimkes Sacco Society,-1.2987296999999998,36.7908552,church,1.192234404536551
 Westlands,Kitisuru,-1.2395542,36.7839651,631caaf95bb2a4213313de638a88a70ab78eb89d,St. Catherine of Siena Catholic Church,-1.2333586,36.775218,church,1.190966735810855
 Lang'ata,Karen,-1.3283746,36.7049676,f3b08a2f038d0ed43d497ec578f0ce56e5df3115,Redeemer Bible Church,-1.3201703000000002,36.7118454,church,1.189554791618194
 Lang'ata,Mugumoini,-1.1991235,36.846741200000004,0937d75e57ea9349fcf72f754675fef0efa9416a,Christian Worship Church,-1.2074053,36.8399983,church,1.1866729368520268
 Starehe,Nairobi Central,-1.2832533000000002,36.8172449,3c27cb5845ae957b512fe9c6f3aeb2a839696179,East Kenya Union Conference,-1.2887997,36.8081635,church,1.182283666312707
 Kasarani,Mwiki,-1.2322833999999998,36.9275102,43eb3e158d3352f22215e93c46628901307951cb,PCEA Ciiko Church - Kasarani Central Parish HQ,-1.2253927,36.9194028,church,1.182224202873184
 Kamukunji,Pumwani,-1.2797575,36.8442693,6e5abb558888d5485dd5469895853baf7d8c07ce,Jesus Centre Ministry,-1.2903776000000002,36.8437714,church,1.1814554477758026
 Embakasi Central,Spring Valley,-1.2477029,36.78923560000001,952927e3f6367b39b9854b37f532e21fab3f6822,United Bible Societies Africa Area Service Centre,-1.257998,36.791882,church,1.1812195452962548
 Kibra,Woodley,-1.3056567,36.77600465,99f9f212d216ce917227eb72aac3cf286e9cac16,"Calvary Worship Centre, International Pentecostal Holiness Church",-1.2981452,36.7684964,church,1.1800594922689107
 Starehe,Ngara,-1.277803,36.830072200000004,8d55edb2ef1425b668fc53f1e4ee72d271821034,Apostolic Church International Fellowship of Kenya - A.C.I.F.K.,-1.2882811,36.8285631,church,1.176388425677732
 Embakasi East,Mihango,-1.2692818000000001,36.95299050000001,ac73e356fab093eb98270468d41da677506d05d6,"Ebenezer Evangelistic Church, Corradini Area",-1.2683464,36.9635318,church,1.175719954125595
 Makadara,Harambee,-1.290941,36.89721585,672979c9787063df133b3acfba107507e6740c27,All Nations Fellowship Church,-1.2893739,36.90767889999999,church,1.175384981070616
 Starehe,Nairobi Central,-1.2832533000000002,36.8172449,7a32dc84367cc949698b535292fddcaa8282b5b5,Nairobi Happy Church,-1.2914386,36.8239295,church,1.1742536592681085
 Embakasi South,Imara Daima,-1.3285901000000002,36.8743999,45ffd14ce82905a43a006a3068cba4b80ff22ff9,"GOD'S GRACE MISSION CHURCH,SCHOOL AND SACCO",-1.3344366,36.8831876,church,1.172691350670752
 Embakasi South,Kware,-1.3112903999999999,36.87875837,30e6cf8faea047f03be3c6ea55c84bae33af43a0,Nairobi East SDA Church,-1.3010511,36.8810541,church,1.1660773989985267
 Starehe,Ngara,-1.277803,36.830072200000004,f8e9408e897b21d9444a4364522f426e53ec42ed,Jesus Is Alive Ministries,-1.2882502,36.8298553,church,1.1611963412446833
 Embakasi East,Utawala,-1.285877,36.98408679999999,88dcf9a6f17c48a59f6364243dd896a7940efd34,Nairobi Chapel Utawala,-1.2863127,36.9737078,church,1.1540930645641627
 Roysambu,Roysambu,-1.2188396000000001,36.88673920000001,8eb0dbcec301e9e05695ad5c063fb814ed8fc62b,ACK ST. JOSEPH OF ARIMATHEA,-1.2194416,36.87637340000001,church,1.1535813015493248
 Embakasi North,Kariobangi North,-1.3151376000000001,36.86733961,90f17465188b9f823226549abde7b97e7427a3ad,CLJ Maranatha,-1.3177086999999998,36.8573231,church,1.1488857478732344
 Embakasi East,Utawala,-1.285877,36.98408679999999,01b4d40f758a5b77027d58ae33e8ecc9ac0bfd0b,Revelation Holy Spirit Ministries,-1.289634,36.97447659999999,church,1.146390859812519
 Embakasi East,Utawala,-1.285877,36.98408679999999,2d00d37a7742ec3c11fdfd04b895daead3c26707,Airways Worship Center,-1.2959376,36.98636920000001,church,1.146380254946393
 Lang'ata,Karen,-1.3283746,36.7049676,7d24ee786bf79c717cae531c06d4f64173438c8b,Holy Cross Fathers and Brothers,-1.3189061000000002,36.7008792,church,1.1460366280749428
 Dagoretti North,Kilimani,-1.2874421999999999,36.784522499999994,1ec83706e1b6a3d639cded111d3c87da74fbc245,Jesuits Of Eastern Africa,-1.297697,36.783745,church,1.1428347939951826
 Embakasi South,Imara Daima,-1.3285901000000002,36.8743999,b3593cb17020cc37791554ad07942327c7b5fbfb,Cathedral of Praise Ministies,-1.3244454,36.88380719999999,church,1.1420959076271238
 Makadara,Makongeni,-1.2873101,36.87210716,71b9e092c505e5557287c2c7e57943aac7a0b455,Nairobi Calvary Temple,-1.2770841999999998,36.87312259999999,church,1.141940357460414
 Embakasi West,Umoja 1,-1.2778669,36.8881172,1e64bf869bd9d098710251970327b817cbab49c3,East assembly (KAG) buruburu,-1.277592,36.877853,church,1.1407358863049382
 Starehe,Ngara,-1.277803,36.830072200000004,197ee5704ad749f55568bdf3b80a4ad72a3bd48c,liberty Ministries,-1.287863,36.82808699999999,church,1.1394667684493063
 Lang'ata,Mugumoini,-1.1991235,36.846741200000004,2a913fb6bf0c358ae7fcf74859f4b880d5dca04d,Grace Chapel International,-1.1987157,36.8364966,church,1.1390848984229653
 Embakasi East,Utawala,-1.285877,36.98408679999999,0d2f99502a8c22c5dd65dd3026c3178e91b6b8aa,Eden Springs Seventh-day Adventist Sabbath School,-1.276717,36.9795325,church,1.1367228830576825
 Starehe,Ngara,-1.277803,36.830072200000004,a8776aee7d25c778c2e87a7d135bd40e20e70de3,Nairobi Happy Church,-1.288009,36.830313200000006,church,1.1344589047793563
 Starehe,Ngara,-1.277803,36.830072200000004,ce69bbea5c2b8faf76eaed8b94f231f5050074c9,The Box - FirebrandNation,-1.287907,36.82948709999999,church,1.1246881900609378
 Dagoretti South,Mutuini,-1.3,36.7,d9f5547228f298dd6c34d80347ec3d9075d11404,P.C.E.A Manyatta Church,-1.2943002,36.69164600000001,church,1.12363520747694
 Makadara,Makongeni,-1.2873101,36.87210716,ee6013eb76af714ce5f310d0a04ab0f9c132e370,World Dominion Ministries International,-1.2959997,36.8772412,church,1.1215057920199822
 Embakasi Central,Komarok,-1.26725495,36.90524096,07f8862285bace2e86a434098c68f3873f204e8b,Jesus Power Celebration Church,-1.2765517,36.909145,church,1.120456280264391
 Embakasi Central,Kayole Central,-1.2659842,36.916945500000004,d6832fd19366b110f1e3bf172812fc1a6d8775da,HPRM,-1.2758231000000002,36.9191203,church,1.1197275536165971
 Dagoretti North,Kileleshwa,-1.2723271,36.799687799999994,5a7174b59655173e0f2e1284b948b7b905d17cd3,Kenya Students Christian Fellowship,-1.2629331,36.79614779999999,church,1.115536208025998
 Westlands,Karura,-1.2369881,36.83255910000001,a12d60a5d0e74398f6ca8abad29a4514b5073295,PEFA Runda,-1.2275516000000002,36.8359834,church,1.11550984345522
 Starehe,Ngara,-1.277803,36.830072200000004,9fdf60a48b32801b154da75bc01857b6ba0910b9,Jesus Is Alive Ministries (JIAM),-1.2878333,36.829706,church,1.115360462815876
 Starehe,Nairobi Central,-1.2832533000000002,36.8172449,3746c3fbfcf0627fea154eb235e272426d3c46cf,GOA KAHAWA WENDANI CHURCH,-1.2920659,36.82194619999999,church,1.1098777741554737
 Kibra,Makina,-1.30854575,36.78652379,71e16428ca0e8130f3daf8a1aa624f7dfd597d39,Good Shepherd Africa Gospel Church,-1.299068,36.78947000000001,church,1.1029043197086117
 Makadara,Harambee,-1.290941,36.89721585,22b4f4109b75ebe64937d528affc9791e6ab11ff,Redemption Powerhouse,-1.2943165,36.8878841,church,1.1025002633825516
 Roysambu,Zimmerman,-1.2103968999999999,36.89522120000001,76c5f4da361704edc8251264a40ba3cbf833a9c0,NAIROBI GRACE CHAPEL,-1.2022641,36.88954520000001,church,1.1020179087673425
 Makadara,Harambee,-1.290941,36.89721585,2cdba2c2ad62188713771ae965375d339bc16110,Deliverance Church Donholm,-1.2992105,36.8917656,church,1.1005015785438457
 Lang'ata,Mugumoini,-1.1991235,36.846741200000004,ee968cf690fcab28564fbd6d338e2a5b20554288,VOG KENYA,-1.1981494,36.8369423,church,1.09403391198593
 Starehe,Ngara,-1.277803,36.830072200000004,21d5e9e5b45f4631fa86dafcc2a09efe68c5bb16,JIAM Ressurection Church,-1.287617,36.829487,church,1.092518026003968
 Embakasi East,Utawala,-1.285877,36.98408679999999,f134fb4ebfedd17df68e7566fcf81190bee1c693,"Covenant Centre,World Harvest Church",-1.2899015,36.9751194,church,1.0920282485450696
 Embakasi East,Utawala,-1.285877,36.98408679999999,122dbe5b233a0fd2a08c58c49b594c95b83e061b,Jesus Life Restoration Church-Utawala,-1.2845464,36.9743968,church,1.086638612470483
 Dagoretti South,Riruta,-1.2917037,36.7346929,8bd23cfec26cc2e68f899f3b67b61e1e93de2897,New Testament Agape Restoration Centre,-1.28374,36.7403492,church,1.0853806017801217
 Dagoretti South,Uthiru,-1.2631329,36.7188955,22522968d80e914359e3894ef234dcdc3f0897d9,Kingdom Hall of Jehovah’s Witnesses,-1.2533912,36.7183033,church,1.0845449606260535
 Kibra,Makina,-1.30854575,36.78652379,016e3817bef928eb13a2676ec167b6500e7c2934,Free Pentecostal Fellowship of Kenya guest house,-1.2989281,36.7850203,church,1.081736077064398
 Embakasi East,Utawala,-1.285877,36.98408679999999,39b3a342e17ad042897d1a199a601ebfabe39077,AIC Airways,-1.2954402,36.98550720000001,church,1.0743638200076147
 Kasarani,Ruai,-1.2677339,36.9911112,9dd7521a34423e2a797a45ed7877546be3b173af,W. G. C. K FAUTAIN OF LIFE,-1.2680459,37.0007508,church,1.07150045850295
 Embakasi East,Utawala,-1.285877,36.98408679999999,8ef0c6fb8d2a86116135afb5b00fa9400509a7fd,KAG Church,-1.2912479,36.97608620000001,church,1.0706361010161853
 Embakasi East,Mihango,-1.2692818000000001,36.95299050000001,e1452151bb8724fa2d11e2353ea558fdb73deaed,"St John The Baptist Catholic Church, Corradini",-1.2659171,36.9620033,church,1.068836540449676
 Lang'ata,Karen,-1.3283746,36.7049676,acb0dbfcfb01f7431cca42997fe6de78a6f5b6b1,City of Light Fellowship,-1.3197530000000002,36.70916399999999,church,1.065482729459068
 Starehe,Nairobi Central,-1.2832533000000002,36.8172449,6ebfc7da9b983e503d26fe7a5ccd0dbf4753d980,Life Church International,-1.2869578000000002,36.8260766,church,1.0640368153324398
 Dagoretti South,Mutuini,-1.3,36.7,c41f048f83cf66a2e9175ec313f58a6a96e15964,PCEA Mutu-ini Church,-1.2905038,36.6993324,church,1.057869503657061
 Embakasi East,Mihango,-1.2692818000000001,36.95299050000001,f961bee182b4b97bcdb8a833e6971dc4cfcb97ac,ROHIM THE CITY OF LORD,-1.2759348,36.9597936,church,1.05727676245111
 Roysambu,Kahawa West,-1.1856847,36.90579279999999,0f7dc354fefe3d8ce283d50d2d0fc91d3e275eef,AIC Kahawa West,-1.1831477,36.8966325,church,1.0560488686707792
 Embakasi East,Mihango,-1.2692818000000001,36.95299050000001,75c14f9f2ee6686d0abd073696fe2e20ad4edc81,Full Gospel Church Cheri Cheri,-1.259893,36.95191380000001,church,1.0501663277602367
 Embakasi East,Utawala,-1.285877,36.98408679999999,90933ed82457b5243b6ab7d2ae468f98c8123a90,A.I.P.C.A UTAWALA CHURCH,-1.2874163,36.993413,church,1.0501387715022419
 Roysambu,Kahawa West,-1.1856847,36.90579279999999,83397a7b75ea8110ec109d2947bb2dda88418d81,P.C.E.A Kahawa Farmers Church and School,-1.1894401,36.8972425,church,1.0375733245383347
 Kasarani,Mwiki,-1.2322833999999998,36.9275102,511ce3287b48e538a4e9d1dbc6f079fbae5a9503,Glory Chapel,-1.2230976999999998,36.9262531,church,1.0302722015334977
 Makadara,Makongeni,-1.2873101,36.87210716,913abf3150d0177e54b314c815820ea8fa018824,Buruburu Community Centre Church Of God,-1.2886495,36.88126810000001,church,1.028579312915447
 Dagoretti North,Kabiro,-1.2878118,36.751501399999995,a615abc1a54ad32cd5966f5f56ea9aa8f144912e,Kawangware Vineyard Church,-1.2844666,36.74300189999999,church,1.0148069728713842
 Embakasi Central,Spring Valley,-1.2477029,36.78923560000001,6261527cb0192d238b8eed07c9e25d4dce43abe3,Lower Kabete K.A.G Church,-1.2547315,36.79495860000001,church,1.007129115884471
 Embakasi East,Utawala,-1.285877,36.98408679999999,9c4fe71fc92534d9b09402d44d00072c4295ce8e,Merciful Community Church International,-1.2829483999999998,36.975523,church,1.0055350377404368
 Starehe,Nairobi Central,-1.2832533000000002,36.8172449,18935fd2932d5fadf038e32fdf12b47a69b63d19,Redeemed Gospel Church,-1.2865557,36.8256162,church,0.9998127943477741
 Roysambu,Roysambu,-1.2188396000000001,36.88673920000001,aee760aa1d8f4537e6ed0fba4944dc64f1f5129c,Good News Mission KENYA Church,-1.221938,36.87831499999999,church,0.9972513836525757
 Embakasi South,Kwa Njenga,-1.3166386,36.884663,686bb79dcf1aa5f90314452e6e7b8d4746b91688,Smash Music Kenya,-1.3170846,36.8936241,church,0.9967731766434664
 Lang'ata,Mugumoini,-1.1991235,36.846741200000004,6c5275fc151253b840fdcd2e40f9865d8ea9784d,All Nations Mission Center (PEFA),-1.1996477,36.8377972,church,0.9953912114126339
 Makadara,Makongeni,-1.2873101,36.87210716,872d8ad55012c36651c0b58e73efcb916caa4860,Buruburu Tabernacle of Praise (Worldwide Gospel Church Buruburu),-1.2783957,36.87242929999999,church,0.9912599905390975
 Embakasi East,Mihango,-1.2692818000000001,36.95299050000001,5d6307b7250866d717449479150f73668e62124c,ACK St Timothy.,-1.277455,36.9565582,church,0.9909681021753476
 Dagoretti North,Kabiro,-1.2878118,36.751501399999995,996408e9f7173d7a2f670991b8fe2c1c599aea28,Vincentian Prayer House,-1.2855556,36.76,church,0.9768916514025566
 Embakasi East,Utawala,-1.285877,36.98408679999999,bf5d0867c989d302aa3a8857ba79ce4e1327479a,"Gerizim SDA Church, Kenya",-1.2882188,36.97561470000001,church,0.9765380942505311
 Makadara,Maringo,-1.2920714,36.86572592,d44b927d77e07f92239403037157a81df4709bdb,Maximum Restoration Centre,-1.2966931000000002,36.8582565,church,0.9759029767805625
 Dagoretti North,Kilimani,-1.2874421999999999,36.784522499999994,2bf9dd904ff482aa92d6d45efd7e3bdbc69818f8,CMS-Africa,-1.2950345,36.78892280000001,church,0.975092489562484
 Makadara,Makongeni,-1.2873101,36.87210716,4622afba487daa07a992979202b2a93ef9be6e86,ACK St. James Church,-1.281899,36.87901310000001,church,0.9747898535535471
 Embakasi Central,Kayole North,-1.2659842,36.916945500000004,c07f56bd25c519f070188923b6cb00698c9cf501,Saints Transformation Church,-1.2746133,36.9184598,church,0.9735558512442917
 Dagoretti South,Waithaka,-1.2833,36.7166,27eeed27f7f9d367a5a9be7e9a164b1e743bd4e1,Christian Resource & Equipping Ministry - CREM,-1.291444,36.7197278,church,0.9694220820024909
 Embakasi Central,Komarok,-1.26725495,36.90524096,c5f6a69b0a1bd2773ff410ffc1f2f1240875f89f,Mwangaza SDA Church,-1.273841,36.910961500000006,church,0.9693049617074805
 Dagoretti South,Waithaka,-1.2833,36.7166,1b52460245c113db042eef6af0f9494997692c86,Christian Resource & Equipping Ministry - Church HQ,-1.2914428999999998,36.7197133,church,0.9687316376470672
 Dagoretti North,Gatina,-1.1655719999999998,36.85526373,2f1e020b44ea34acb3f8e4c7a3186fa8b8949af7,Elim pentecostal church kirigiti,-1.1692598,36.8474016,church,0.9648533487566937
 Embakasi South,Imara Daima,-1.3285901000000002,36.8743999,5126013a243870d5b2296aef31baf1742aa72fa8,St John Everlasting Gospel Church,-1.3238259,36.88164,church,0.9629397941005252
 Lang'ata,Mugumoini,-1.1991235,36.846741200000004,ddf6c12faba117ff7eb52b24738837057ee7a498,Dominion Assembly Church,-1.1933039,36.84037620000001,church,0.9582781399135221
 Embakasi South,Imara Daima,-1.3285901000000002,36.8743999,23b33c1bef7d77f42fbca49d372c34c8eda9aaae,THE SEVEN SEALS CURCH OF CHRIST AND RECONCILIATION MINISTRY - RIARA BRANCH,-1.3203491000000005,36.8769283,church,0.9578924968394696
 Embakasi East,Mihango,-1.2692818000000001,36.95299050000001,83e1c812467591781751a6d57ea41ff5b1825d0b,PCEA St. Luke Utawala,-1.2689503999999998,36.96160250000001,church,0.9574831985304401
 Dagoretti North,Kilimani,-1.2874421999999999,36.784522499999994,a9e51e1666c9641116cef5dfeef0397aed6d0b07,"Kingdom Hall of Jehovah's Witnesses, Elgeyo",-1.2942699,36.7794542,church,0.9448387246998164
 Kibra,Makina,-1.30854575,36.78652379,24891e0ead40775421f77db6fa7e17601e158e1f,"Friends International Centre (FIC), Ngong Road",-1.3004715,36.789186,church,0.9447412598749536
 Embakasi East,Mihango,-1.2692818000000001,36.95299050000001,d7d9f90077ec99ce48b0bcba3ddf30d89b60f2f2,Mihang'o SDA Church,-1.2718965,36.94492739999999,church,0.9417371221146306
 Lang'ata,Mugumoini,-1.1991235,36.846741200000004,36155af63b20da80220f9440ca09c3914993664c,Dominion Assembly Church,-1.1931689,36.84075770000001,church,0.93796397146013
 Lang'ata,Mugumoini,-1.1991235,36.846741200000004,23dcefb0c08b4db7db07217f92fd3e14e7b2551c,Gospel Revival centre-thindigua,-1.2042841,36.8400819,church,0.9360835779178467
 Lang'ata,Mugumoini,-1.1991235,36.846741200000004,181e76529ab892312ce563cf4a3aa630fbd3245a,Gospel revival centre,-1.2042841,36.8400819,church,0.9360835779178467
 Dagoretti North,Kabiro,-1.2878118,36.751501399999995,836068b359f9bb7f0c6097d5de90a42df9736b00,Prayer Palace Church,-1.2957425,36.74895639999999,church,0.9255443571240028
 Dagoretti South,Uthiru,-1.2631329,36.7188955,7aac746be925fa111cfcfbfe4bcc84d02d1534f6,Full Gospel Churches Of Kenya,-1.2560532,36.7230634,church,0.9128855246289519
 Dagoretti South,Mutuini,-1.3,36.7,2329a2348f1c326afca41848411fc809a823e8bf,Virgin Mary Orthodox Church Mutuini,-1.2976426,36.7078495,church,0.9105503136525239
 Lang'ata,Karen,-1.3283746,36.7049676,5129b6a96c37cc7645cfda8c5e816ee1d4988129,Eternity Gospel Church,-1.3295543,36.7130115,church,0.903203256744813
 Kasarani,Clay City,-1.2208721000000002,36.9012224,8fb11de792089948094c92389c8d292ffdd98f1f,Nairobi Chapel Northway,-1.2270578,36.89601069999999,church,0.8987563136678453
 Embakasi South,Imara Daima,-1.3285901000000002,36.8743999,01e3b2694bd115457765db7f5ec7bf33952f93ee,Deliverance church imara daima,-1.3237958,36.88085530000001,church,0.8934015401744768
 Kasarani,Ruai,-1.2677339,36.9911112,4bcb9fa7fc8a7a9f8af465c082cebf1bef9f12c5,KAG Church Ruai,-1.2754671,36.9930696,church,0.886467980610248
 Dagoretti North,Kabiro,-1.2878118,36.751501399999995,874271e77eeb246c6152b66253adf9e5699faf0d,The Church of Christ of Latter Day Saints,-1.2915093,36.7444389,church,0.885696752960709
 Embakasi East,Mihango,-1.2692818000000001,36.95299050000001,6138120ffcbd923bf6f77ed160606f06cf7ea152,City Of Grace Church,-1.2772463,36.9532828,church,0.885651519723491
 Ruaraka,Babadogo,-1.2433103,36.8910881,42be74e689a7a89e1104383850b369a10f60f1b1,Narrow Gate Apostolic Ministries,-1.2443533000000002,36.8832493,church,0.8785610815370861
 Roysambu,Githurai,-1.2062932,36.9206391,4b67cb4f357c093a4287d43bf8896fa9a304aeb5,KIMBO PEFA CHURCH,-1.2083313,36.928216,church,0.8717322734149293
 Kasarani,Mwiki,-1.2322833999999998,36.9275102,3a68c9895c5bb33275260d689d05ede78569d374,ACK Good Samaritan Church Ciiko,-1.2258576,36.9231927,church,0.8602198941833773
 Lang'ata,Nairobi West,-1.3087022,36.823097499999996,334fea9b3c02884f18056d4a0f2174a6aefd3fbc,Global Light Ministry HQ,-1.3023648,36.8275395,church,0.859937223425215
 Westlands,Parklands,-1.2630616000000001,36.810628799999996,47849e48e7521aadeea0c9e9221681c90aa70b11,Chemchemi ya ukweli,-1.2651756,36.80323900000001,church,0.8539410906805093
 Dagoretti South,Riruta,-1.2917037,36.7346929,62c7a72fb517459e44efe9d175bc3a56c35f263c,African Inland Church Riruta,-1.2841198,36.7349659,church,0.8433073236428936
 Dagoretti North,Gatina,-1.1655719999999998,36.85526373,eab087e4b3df674e9f53bef9b7f479f0cb421012,Mary Immaculate Riabai Catholic Church,-1.1625827,36.84831080000001,church,0.8408815947108182
 Kasarani,Ruai,-1.2677339,36.9911112,c593c28c1e694be75735e867c682e1e954c23ef9,"A.C.K Church, Rûai Centre",-1.2648371,36.98412009999999,church,0.8407630926134351
 Lang'ata,Karen,-1.3283746,36.7049676,b2fef3b795213d7adae193eef2563a1688c65755,PCEA Karen Church,-1.3208248,36.7051136,church,0.8391291577789058
 Dagoretti North,Kabiro,-1.2878118,36.751501399999995,e1616539234ea094fa3d0f13a2fe75c63b3b711b,Bethel Evangelistic & Prophetic Ministries,-1.2948338,36.754165,church,0.8345462414076495
 Embakasi East,Mihango,-1.2692818000000001,36.95299050000001,83da87bb867dbc25e1dca1f2d7fb15faf60d3e08,PEFA GOODTIDINGS CHURCH,-1.2674707,36.9457404,church,0.8302338455455776
 Lang'ata,Nairobi West,-1.3087022,36.823097499999996,99a37db9097dff4f0cef7057f4004a263a562f48,DIVINE NOVENA PRAYER GROUP,-1.3016965,36.8206375,church,0.8250865141454098
 Embakasi North,Dandora Area 4,-1.2484935,36.89734979999999,806039c860ea2aa53339cfdb9f9f5da9adbdf5a6,Methodist Church In Kenya,-1.2551258,36.9006189,church,0.8216446723892583
 Kibra,Laini Saba,-1.31234835,36.79611435,65f32f5feb26cf0f822f3e21c596ad126dc2d32c,Kenya House of Prayer,-1.305898,36.7996414,church,0.8169064268745339
 Kasarani,Mwiki,-1.2322833999999998,36.9275102,fb098b1fc4b727f2bb34715db87853297a88fafa,House Of Honor Chapel Ministry,-1.2308678999999998,36.9203037,church,0.8159435968935533
 Embakasi West,Umoja 1,-1.2778669,36.8881172,75a08e04665b58f7020b3bc8c60384f9e5fdc3d9,Buru Buru 1 FGCK Royalfamily,-1.2775923,36.8808133,church,0.8120184676027039
 Makadara,Harambee,-1.290941,36.89721585,422618dab3bc337458383f3632fdd3b7a37b4954,Corner Stone Christian Church,-1.286729,36.891285,church,0.808225182788041
 Ruaraka,Lucky Summer,-1.2393083,36.898786,f913cb8cacc6f85772facbfaee86eef199973dca,Gilead Healing Ministries,-1.2416717,36.9056645,church,0.8080656303429453
 Embakasi East,Mihango,-1.2692818000000001,36.95299050000001,69d4746ba848fadafb9ddd6ae6d7936db923f649,Mihango S.D.A,-1.2678991000000002,36.9458551,church,0.8074815750289192
 Kasarani,Ruai,-1.2677339,36.9911112,2a0901088d0035dfdcbd31db4a499efa50e83f0d,PCEA Ruai Central Church,-1.2737055,36.987033800000006,church,0.8034662407537427
 Dagoretti South,Uthiru,-1.2631329,36.7188955,d2271f02c9795f5d0da28b7f20b2e278f180dacd,Full Gospel Churches of Kenya -Ndumbu-ini,-1.2568806,36.72251089999999,church,0.8025360914873204
 Ruaraka,Babadogo,-1.2433103,36.8910881,5484feb68a28eea3518f753ffaf84d7554e8229f,"The Church Of Jesus Christ Of Latter Day Saints, Lucky Summer Ward",-1.2460551000000002,36.8844574,church,0.7973129247421804
 Makadara,Makongeni,-1.2873101,36.87210716,ba1988a22c67803d1f30d3aabcc3beb551299ade,Buruburu Baptist Church & School,-1.2914832,36.8779378,church,0.7966509100312225
 Embakasi South,Imara Daima,-1.3285901000000002,36.8743999,97a8ca80e1755e95d1c19c4c035931ccf0df1641,The Purpose Center Church,-1.3311129,36.86771119999999,church,0.7942074646840264
 Kasarani,Mwiki,-1.2322833999999998,36.9275102,9e1ff08569c746c3da113cfd94ad412c3afe52fa,Rehoboth Love Ministry,-1.2274421,36.92226360000001,church,0.7932209622005182
 Ruaraka,Lucky Summer,-1.2393083,36.898786,83e0a6e09ac59bd157dde0c7f0a0ca6952e43322,Dandora Baptist Church,-1.2442634,36.9039251,church,0.7932104140363001
 Makadara,Makongeni,-1.2873101,36.87210716,e9355b0aff82c97e8b5110d2f870ff9c14ed85c0,PCEA Makadara Parish,-1.294403,36.87285999999999,church,0.7926244458951769
 Roysambu,Kahawa,-1.1869631,36.912022,c551c3c1aed7b29724fe895c43509e9bf8805e54,Chrisco MTC,-1.18179,36.90712329999999,church,0.7916287642715811
 Embakasi South,Imara Daima,-1.3285901000000002,36.8743999,97494c535e519d421cd7bde8c3b59b19bf184b05,The Purpose Centre Church,-1.33107,36.867733,church,0.7902669301593995
 Makadara,Harambee,-1.290941,36.89721585,81e90e81aa1b4a7979e316ea4e1c32a3f056aa6b,PCEA Tena Parish,-1.2919401,36.8901747,church,0.7900894801904552
 Embakasi Central,Kayole North,-1.2659842,36.916945500000004,578ff090cd0547344cde1e3a31964fb642ecec5a,A. C. K - Diocese Of Nairobi,-1.2708708999999998,36.911848,church,0.7846063389460403
 Mathare,Mlango Kubwa,-1.2658072,36.8456235,3eda193119499a0b3d66e27fb6297df5e3b1a77a,Pcea Eastleigh Church,-1.26812,36.85223759999999,church,0.7784627536320582
 Embakasi East,Utawala,-1.285877,36.98408679999999,08d381b31ae9b22f412f74fa98491125b3ab23aa,SDA Church Ruai South Githunguri,-1.2850384,36.9910245,church,0.7763718353815846
 Embakasi East,Utawala,-1.285877,36.98408679999999,e0368eda185b5342d2bed9a812075f657a77ba03,Deliverance Church Githunguri,-1.2826586000000002,36.9902215,church,0.7696867222810836
 Dagoretti South,Waithaka,-1.2833,36.7166,63595b28e8822c21b77e4d66c172bf817f4c35a7,Royalty Christian Church,-1.2789611,36.7112134,church,0.7685087659921561
 Starehe,Ngara,-1.277803,36.830072200000004,053dd729fb13a0c690802a3cce662c2f6ca8de08,Fountain Gate Church,-1.2754138000000002,36.8235909,church,0.7674448335727727
 Embakasi North,Dandora Area 3,-1.2484935,36.89734979999999,5bb023f6e6b0946a9eb89da766c4ae7f6ce35f0a,Kingdom Hall of Jehovah's Witnesses,-1.2543525,36.9009984,church,0.7669550170394326
 Kasarani,Ruai,-1.2677339,36.9911112,35e1a2c8b4fbe79ee826a5fc6805b7c9409fa2ab,Ruai Township Seventh Day Adventist (SDA) Church,-1.2744535,36.99258250000001,church,0.7643976826099559
 Embakasi East,Utawala,-1.285877,36.98408679999999,6c21081018f9f2cf30639562c27f03ff2e878f0c,Cornerstone Church Utawala,-1.2807995,36.9794591,church,0.7633403273490555
 Embakasi East,Utawala,-1.285877,36.98408679999999,9da918a6bd59cdf3c90eabaf99775771f315f1fb,CMF UTAWALA,-1.2880313,36.9776083,church,0.7585117216912899
 Starehe,Ngara,-1.277803,36.830072200000004,4f5d759eec49e400c8550d23c836f0a8a8255aaf,ARENA OF MIRACLES COVENANT CHURCH,-1.2819319,36.8246558,church,0.7567168841253206
 Embakasi East,Mihango,-1.2692818000000001,36.95299050000001,c7c32bde28b60bc85ccfa7b8e76702c248d04574,P.C.E.A Church Mihango,-1.2651488000000002,36.94761159999999,church,0.7536880385430634
 Kasarani,Mwiki,-1.2322833999999998,36.9275102,e4069ed54a64ee54d0bac14075b63cd1e2f60d40,Power of Praise Ministries,-1.2295707,36.9213373,church,0.7491337067821029
 Ruaraka,Babadogo,-1.2433103,36.8910881,48a8dcd9a3d00ae56e009559bb9969c40377cd53,Baba Dogo Catholic Church,-1.2436534,36.8843651,church,0.7478906779021142
 Dagoretti South,Uthiru,-1.2631329,36.7188955,d93de558f4ca1d24cdd798f8f0447ef795a74722,St. Peters Church Uthiru,-1.259946,36.712971,church,0.7474270383029639
 Kasarani,Njiru,-1.2539022,36.9343299,a8ce9c2461bc6a782c12eed03bcb13a28a05d97f,AIC NJIRU (kirima),-1.2552579,36.94086950000001,church,0.7419945336369863
 Starehe,Ngara,-1.277803,36.830072200000004,f738de65d861f06e3b2b91dc32b650eaacc82ade,Mountain Of Fire & Miracles Ministries,-1.284464,36.8300107,church,0.740235913949774
 Embakasi West,Umoja 2,-1.2818728000000001,36.89933970000001,aa071c11de95360ac791e4ee825e9d4c382ae821,Umoja P.A.G. Church,-1.2850802,36.8935031,church,0.7399315802827559
 Dagoretti South,Waithaka,-1.2833,36.7166,eedb06bf52477670d27f707fc59fb2fca333d935,Emmanuel Ministries,-1.2821028,36.7231492,church,0.7396611002027839
 Embakasi Central,Kayole South,-1.2659842,36.916945500000004,afb04adec2a30c8f260c079ba31168de870347f4,Universal Church Of The Kingdom Of God,-1.2707348,36.9123475,church,0.734598743520171
 Dagoretti South,Waithaka,-1.2833,36.7166,d4d4adc5e7628c97b027fb679f0e8cd86a21e3d6,True Light Christian Assembly Kenya,-1.2882513,36.7209713,church,0.7338803292834408
 Embakasi North,Dandora Area 2,-1.2484935,36.89734979999999,ec72142aff6e415b1c9da44c3dd2fbc9784bac0b,Friends Church Quakers Dandora,-1.2538265,36.9012294,church,0.7327941609187831
 Embakasi North,Dandora Area 4,-1.2484935,36.89734979999999,86885b6c2b61c3b482c76c6b667d2f05db2701d3,Maximum Miracle Centre Church,-1.2542445,36.90053270000001,church,0.7303889594852621
 Kasarani,Njiru,-1.2539022,36.9343299,b04a77e295ecb9c2a1c988e6c9f1bea2b5a011c9,New Covenant International Ministries,-1.2583608,36.9295187,church,0.7288285697477058
 Lang'ata,Karen,-1.3283746,36.7049676,8d2fadcf186b0e2d9cf547d644d2e6aea67861a6,Queen of Peace Catholic Church,-1.3255311,36.71087660000001,church,0.7285524522617186
 Starehe,Ngara,-1.277803,36.830072200000004,d13d0b292cc60fa9fb56feab5c15939dacb0e607,The Christian Foundation Fellowship,-1.28429,36.829128,church,0.7284608207643558
 Dagoretti North,Kilimani,-1.2874421999999999,36.784522499999994,cc8697fc90e65243ca0084d5b0431c1e77b10b42,Kings Outreach Yaya Church,-1.2935081,36.7821015,church,0.7257534367330275
 Dagoretti South,Waithaka,-1.2833,36.7166,8abaffa24cadbff4e887d7f4ac1529aa54c35ce7,Phem Worship Center,-1.2819045,36.7229149,church,0.7185027255243133
 Kasarani,Njiru,-1.2539022,36.9343299,f602443916e9967d1ae76b7acbaaad956d51fc77,Jubilee Restoration Christian Church- Njiru,-1.2496457,36.93914919999999,church,0.71442611582294
 Lang'ata,Karen,-1.3283746,36.7049676,834a91045f98f482c082046f442ef40720338d05,Youth Serving Christ Regina Caeli Youth,-1.3255702,36.710747,church,0.713698485224744
 Lang'ata,Karen,-1.3283746,36.7049676,fb3cad00432efcdbd242a230e18f83dde4837142,Regina Caeli Catholic Church,-1.325574,36.710746,church,0.7134142288815521
 Dagoretti North,Kawangware,-1.2784631000000002,36.751643,79bf531e309c75cb4e9e501283bd968fdd529d00,Gatina United Church,-1.2751025,36.7571118,church,0.7131648994728085
 Dagoretti South,Waithaka,-1.2833,36.7166,0c33dfedcfcd6b1599c134ab6890382f735b449d,Phem Worship Centre,-1.282017,36.72287360000001,church,0.7114127400193876
 Starehe,Nairobi Central,-1.2832533000000002,36.8172449,b203e1f1d28307dc6da0938b2ebb2a237d57c332,In His Presence Worship Centre,-1.2831024,36.82364589999999,church,0.7113311531503527
 Dagoretti South,Uthiru,-1.2631329,36.7188955,ead02d6c01542528fde6c7f1d623797dd5f1e8cc,New Vision and Christian Centre,-1.2574625,36.7217273,church,0.7042969782097158
 Kasarani,Njiru,-1.2539022,36.9343299,c75155fbcdd94da5187bf006a7bb265802a8cdd0,Ebenezer Bridge Church Njiru,-1.2598437,36.93649980000001,church,0.7028838927500188
 Embakasi Central,Kayole South,-1.2659842,36.916945500000004,1bf194f211114605246f9f5fb44eb56e5b8c8d00,Redeemed Gospel Church Komarock,-1.270181,36.9122157,church,0.7025812859554438
 Kasarani,Njiru,-1.2539022,36.9343299,feffd8189efe095b065a813a8c9b18972a7f1f88,Hope Fellowship Centre,-1.2570418,36.9397524,church,0.6961656114022594
 Embakasi South,Imara Daima,-1.3285901000000002,36.8743999,026305369d5797ed335ea88c5f4d829c63ad56b7,Jesus Creation international church,-1.328436,36.8806499,church,0.6945563997477148
 Starehe,Nairobi South,-1.314183,36.823585200000004,783404f98068d6157a0214c30082e0e728639ffd,PCEA Nairobi West Church,-1.3119811,36.81774040000001,church,0.6939059226697524
 Dagoretti North,Kabiro,-1.2878118,36.751501399999995,8f88758002b338fa740c7641dc59bfcf64462c6e,True Vine Ministries,-1.2917068,36.7466229,church,0.6936088237064694
 Dagoretti South,Uthiru,-1.2631329,36.7188955,91f87405897b830c43ca8b4eea936974b8371ed0,St. John Orthodox Church Muthua,-1.2672696,36.71425970000001,church,0.6903405734154144
 Makadara,Harambee,-1.290941,36.89721585,ec1ebc083bb01b781c55934dbb36fbf11c5c8074,Jerusalem's Shiners Chapel International,-1.2859093,36.8935785,church,0.6898858870523009
 Starehe,Ngara,-1.277803,36.830072200000004,def58d67c8bce38b4ed38628dc2a8431aea77685,Maximum Business Centre,-1.2821211,36.8256276,church,0.6885328515110345
 Dagoretti South,Waithaka,-1.2833,36.7166,c879cd50fd1c1b017466c86fec09147848930f4e,Soul Winning Church,-1.2819306,36.7226044,church,0.6842096209937285
 Embakasi West,Umoja 2,-1.2818728000000001,36.89933970000001,c5f3ff95350616dcc18372181cd6223a1732e70f,Harvesters Christian Church,-1.2768882,36.89573,church,0.6838455256442506
 Dagoretti South,Uthiru,-1.2631329,36.7188955,48206ab4e3389aaf7582f65af5a705995d7c54f1,St Judes Catholic Church,-1.2683548,36.7156421,church,0.6836469580620601
 Embakasi Central,Kayole South,-1.2659842,36.916945500000004,1c7f8d84d633ad0fc491f2ed5508147d61e78568,Mountain of Fire and Miracles Ministries,-1.2660123,36.92309609999999,church,0.683326416647421
 Kasarani,Ruai,-1.2677339,36.9911112,b4460ccc74fd586a43651830aab60d3cf618adbf,Cornerstone Christian Foundation Church,-1.2714582,36.99597720000001,church,0.6808328581815788
 Starehe,Ngara,-1.277803,36.830072200000004,c9b932cdf8fddd39ee279e52f9bc4ef32d3d3817,Lovesprings International Church,-1.2760143999999998,36.82421780000001,church,0.6801008470150959
 Ruaraka,Korogocho,-1.2514893,36.8903648,e538681d4b8d59b70a60a105253c8b721cb8e49a,Redeemed Evangelistic Fellowship,-1.2569482,36.8930239,church,0.674731835023024
 Kasarani,Kasarani,-1.2208721000000002,36.9012224,a95fb367011ab4d0b7d54c142477a7fa1c0bf95b,PCEA KASARANI CHURCH,-1.2152053,36.9032881,church,0.6702402359711436
 Kasarani,Ruai,-1.2677339,36.9911112,1235e6f85e5601c0d63de434ab0b5c18c9458d81,CITAM KANGUNDO RD,-1.2704413,36.996468,church,0.6668548066029693
 Lang'ata,Mugumoini,-1.1991235,36.846741200000004,c01ac9a5f8a77f5a731df2f5892455c34443c87b,Holiness of Christ Ministry,-1.2017842,36.8413659,church,0.6663847248813077
 Kasarani,Ruai,-1.2677339,36.9911112,1cc6c5da4a75300534d3964f0a67a70a262b0f66,Ruai Abundant Worship Center Church,-1.2629052,36.99465449999999,church,0.6655011719326761
 Makadara,Harambee,-1.290941,36.89721585,aa376f3bf8eff8c851cf789bed4f85ab30594e54,Trinity Baptist Church Nairobi,-1.2952826000000002,36.8931034,church,0.6644605575045054
 Dagoretti North,Kawangware,-1.2784631000000002,36.751643,74072ddb59f37b8570d38440b3a8af858c95bc27,"Metropolitan Christian Church, Nairobi",-1.2825388,36.7560039,church,0.6632157001216457
 Lang'ata,Karen,-1.3283746,36.7049676,7a035df382830a6535646e77352107d4f99b93ad,Oasis Seventh Day Adventist Church,-1.3248746999999998,36.7098012,church,0.6630405009576361
 Makadara,Harambee,-1.290941,36.89721585,cd8f83838f3370e63ebd2819ffc44ed1d1854ad4,God's Light Christian Church,-1.2875451,36.8923795,church,0.6565846600657068
 Roysambu,Roysambu,-1.2188396000000001,36.88673920000001,986fc25a6e0670e8aa31e1cd4aae1d99a6596191,Thika Road Baptist Church Ministries,-1.224597,36.8856052,church,0.6520783988252324
 Lang'ata,Nairobi West,-1.3087022,36.823097499999996,d0a37bfb452b6f1d477ed188398eac07b9ab69a2,Agape Fellowship Center Madaraka,-1.3082433999999998,36.8172565,church,0.6509123347561688
 Dagoretti South,Waithaka,-1.2833,36.7166,50bef356f19aa00440dd3f3acbb21f71e8848a9a,Jesus Living Fountain Ministries International.,-1.2821186000000002,36.7222718,church,0.64365235717351
 Dagoretti South,Waithaka,-1.2833,36.7166,6559dfd3c9b3a088e2afa752c530def4ac44a4b1,Mwanzo Deliverance Church,-1.2802996000000002,36.71168979999999,church,0.63933552121425
 Dagoretti South,Uthiru,-1.2631329,36.7188955,8e421f947be2d84e3fbdd82014b2dd9c96d88616,King's Outreach Church -Kabete Altar,-1.2583876,36.72202069999999,church,0.6313629707939185
 Kasarani,Njiru,-1.2539022,36.9343299,dbbc0ca091c051d2f532f6190c69f79b93ef42ed,Friends Church (Quakers) Njiru,-1.2526102,36.9398553,church,0.630430157716007
