constituency,ward,clat,clon,place_id,place_name,place_lat,place_long,place_type,distance_km
 Embakasi East,Mihango,-1.2692818,36.95299050000001,49dd82730e679b250c01d69420f88286b1ec718a,MUNGAH ENT...,-1.2823141000000002,36.91051629999999,bank,4.936012141461903
 Dagoretti South,Uthiru,-1.2631329,36.7188955,5a396abf216310ae93c069d27c1c47dcdd6943c0,Ukristo Na Ufanisi Wa Anglicana Sacco Limited,-1.2211557,36.7154433,bank,4.680461825221253
 Lang'ata,Karen,-1.3283746,36.7049676,e46d8a36751baf9355f7b0636c81a3075b870934,Post Bank - Ronald Ngala Branch,-1.2993649999999999,36.73278799999999,bank,4.465964174453415
 Embakasi East,Mihango,-1.2692818,36.95299050000001,d39372e558cbf0bd82e3b5596233a336664f4ee1,Equity Agent,-1.2798383,36.9153902,bank,4.338895318481497
 Lang'ata,Mugumoini,-1.1991235,36.8467412,377b85334fa03cb4a2fb5403146d8afde49e258b,24/7 Jiweze Improved Productivity Programme,-1.2374087,36.84389,bank,4.266223515528347
 Westlands,Karura,-1.2369881,36.83255910000001,f068e764d42b600a2451aec87ac3f3b73c087bfb,PesaPoint POS Projection Solutions,-1.272018,36.817229,bank,4.2489820329463965
 Westlands,Karura,-1.2369881,36.83255910000001,73f28aec3622c26127d805e31fad2600d243031b,Co-op Kwa Jirani Eric Wambua Musembi T/ A Lexxy Technologies,-1.2741,36.82539999999999,bank,4.200060693297464
 Westlands,Karura,-1.2369881,36.83255910000001,c83821fccfe4f591f86dac1e6658d0bacd3e4f44,PesaPoint POS Man Dao Investments,-1.268034,36.811108000000004,bank,4.1930816050966975
 Dagoretti North,Gatina,-1.1655719999999998,36.85526373,a9e6182753938d0a3e68f93f4c346503e708e401,PesaPoint POS Kiambu Fertilizer,-1.158383,36.818360999999996,bank,4.1770822664022775
 Westlands,Karura,-1.2369881,36.83255910000001,3520ef9f77b8d509d191e142578c8aea3e8c8dc1,Equity Bank Agent,-1.263749,36.807509100000004,bank,4.0729278790981285
 Lang'ata,Mugumoini,-1.1991235,36.8467412,611eebe28a96de27a7cc70155438afc946b52eae,National Bank,-1.210547,36.812557,bank,4.004421222036871
 Lang'ata,Karen,-1.3283746,36.7049676,f2b4a8d76e17c8595997d953a1217dae9e9e47b3,PesaPoint POS Innscor - Ngong Road,-1.307613,36.733989,bank,3.9645978374669673
 Roysambu,Kahawa,-1.1869631,36.912022,09c136772d4fa5f8f92c857edd39c625688e52be,Wayuni Music & Art Distribution Centre,-1.153658,36.920959,bank,3.8319096371557904
 Lang'ata,Karen,-1.3283746,36.7049676,24175f18282e3dc3b0ef78d8a28084f7355608e6,KCB ATM,-1.308286,36.732909,bank,3.8235120859062737
 Kibra,Sarangombe,-1.31226715,36.77745932,142380d1df06fd86c59d4c55aa9114adc89c068c,NIC Bank,-1.3431781999999999,36.76429870000001,bank,3.733211652364689
 Westlands,Karura,-1.2369881,36.83255910000001,6f3a9b353beaa7b566324dd180eb65505af607da,PesaPoint POS Coach Berbers,-1.267508,36.821638,bank,3.602027184310748
 Lang'ata,Karen,-1.3283746,36.7049676,a094cf717ea0a720f40f22b59ac9d4e97233b3bb,PesaPoint POS Pharmart Chemists Ltd - Ngong,-1.334482,36.673590999999995,bank,3.551242615555054
 Embakasi West,Kariobangi South,-1.324728,36.887724,bb0632a96d57f3a0494453acb23fe3fb58f79645,National Bank,-1.336402,36.917425,bank,3.5454937570677565
 Lang'ata,Mugumoini,-1.1991235,36.8467412,2b038adf1f9bc2ffae6c497b5b76be89262aea17,Standard Chartered Bank Ridgeways ATM,-1.2306875,36.8492471,bank,3.518584718473788
 Dagoretti North,Gatina,-1.1655719999999998,36.85526373,c9d49603be994ee95192d68e79349b48ec2b7d28,PesaPoint POS Agape Growers - Kiambu,-1.164569,36.823843,bank,3.4926892250683634
 Embakasi East,Upper Savanna,-1.324728,36.887724,9feb80e5065b210887b9209153c2cadcf50874d4,National Bank ATM-Tuskys,-1.317541,36.918031,bank,3.4603991868605046
 Embakasi West,Kariobangi South,-1.324728,36.887724,dccbf903578efd9d452e914871c8931ea18ab85b,PesaPoint POS Nippon Business Snack Shop,-1.3170629999999999,36.917828,bank,3.4511844116323322
 Kasarani,Njiru,-1.2539022,36.9343299,e714e37d4aa44692a897d11822c95eeabd179e36,Equity bank atm- the scepture building,-1.227536,36.918445,bank,3.4203946026611662
 Kasarani,Njiru,-1.2539022,36.9343299,136d0e9f9dae72fc553af5c779ae0ddb0e1ab883,Equity Bank Hunters,-1.2275518,36.918444799999996,bank,3.418902172302618
 Westlands,Kitisuru,-1.2395542,36.7839651,e4f74df9882958bb285e682bd5e14fd14a842ea1,Standard Chartered Bank - Two Rivers Branch CDM,-1.2107526000000002,36.7947782,bank,3.418613514937936
 Kasarani,Njiru,-1.2539022,36.9343299,c4bb9e871f729c7d71f33ba522ed85cb98bd7b68,Equity ATM,-1.2275907,36.918439899999996,bank,3.415481914584704
 Dagoretti North,Gatina,-1.1655719999999998,36.85526373,8cebbb46d34a063cb1df71c01699e5b52dc1ce07,PesaPoint POS Cleanshelf Supermarket - Kiambu,-1.165446,36.824723,bank,3.393168821327762
 Dagoretti North,Gatina,-1.1655719999999998,36.85526373,fb579f58550103316e7e643bda841f4a03d39809,PesaPoint POS Kamindi Selfridges - Kiambu HQ,-1.165473,36.824739,bank,3.391380126035144
 Dagoretti South,Uthiru,-1.2631329,36.7188955,114fd5af66591b288ee30f0f44ee81a41c17605b,Sidan Bank,-1.2663358,36.7490348,bank,3.3672806086505016
 Kasarani,Njiru,-1.2539022,36.9343299,cd5c15344b5e1167d7093d1ad9bfd207df8e16f9,Postbank Elizawa Agencies,-1.2761617,36.913794,bank,3.365097018429013
 Dagoretti South,Uthiru,-1.2631329,36.7188955,fb6e0e36187c62fc410ed19ece5770ef95687856,Sidian Bank,-1.2662149,36.74892000000001,bank,3.3531995059339548
 Dagoretti North,Gatina,-1.1655719999999998,36.85526373,1dd25900a2a22576cb4ff8913c4aa7b031f59029,Pioneer Credit,-1.1673815,36.82519509999999,bank,3.3467336775900534
 Dagoretti North,Gatina,-1.1655719999999998,36.85526373,b4214263c5294c341e5dfd66ca1d78eeddffb33a,Pioneer Credit,-1.1673915000000001,36.8252157,bank,3.3445161028742003
 Lang'ata,Mugumoini,-1.1991235,36.8467412,72cb983f95aeb243a5bfbf387ce5388b9585e2b6,Master Mpesa Agencies,-1.2109094,36.8743715,bank,3.3374615851432763
 Dagoretti North,Gatina,-1.1655719999999998,36.85526373,1573e5cd4380288f3f3b77a7d1ee0aebc26fafe8,Pioneer Credit,-1.1672917,36.82540469999999,bank,3.3229002664937246
 Dagoretti North,Gatina,-1.1655719999999998,36.85526373,953c318187448ae95f2238fab6b74039aaa8d66f,Pioneer Credit,-1.1670986,36.8254262,bank,3.319349809290976
 Kasarani,Njiru,-1.2539022,36.9343299,2e536d3b7331be086c219ea8b13760971b324c4d,Rafiki Deposit Taking Microfinance,-1.2723816000000001,36.91136819999999,bank,3.27483970370937
 Dagoretti North,Gatina,-1.1655719999999998,36.85526373,03779d2aaa126256989b9fcbdd3bfd524d50fba8,PesaPoint POS Marinya Candy Shop,-1.168407,36.825925,bank,3.274782370361605
 Dagoretti North,Gatina,-1.1655719999999998,36.85526373,038c9e5e4105f7559357e131b10ef787dda99cbe,PesaPoint POS Home Choice - Kiambu,-1.1687450000000001,36.826268000000006,bank,3.240724310503856
 Dagoretti North,Gatina,-1.1655719999999998,36.85526373,b04f5e2f1497cec2a69c55dc66404f1e9070b6ce,Post Bank - Karuri Branch,-1.166358,36.826172,bank,3.2333323961891334
 Dagoretti South,Uthiru,-1.2631329,36.7188955,2ec91dcb6300df4123abaf8f8e1e2307714f6af3,Equity Bank Atm,-1.2849948999999998,36.7377468,bank,3.207539077417591
 Dagoretti North,Gatina,-1.1655719999999998,36.85526373,f14d445ec65876b041a8d15afe5acae3fc29408b,Fep Kiambu,-1.1698326000000001,36.826715,bank,3.206964147317682
 Kasarani,Njiru,-1.2539022,36.9343299,47de22381a08f8120f017c10d4e798bf414af634,Rafiki Traders,-1.2714953000000002,36.91150700000001,bank,3.2017707856384368
 Lang'ata,Mugumoini,-1.1991235,36.8467412,d2f80bc8e56c9f9a72a9e6d1d49b7ce4a47ae706,Nic Bank Ridgeways,-1.2263341,36.838422200000004,bank,3.1618785957066677
 Lang'ata,Mugumoini,-1.1991235,36.8467412,1e15fab2f295fd3c9f94b0786305c1f2aaf29d29,NCBA CIATA,-1.226374,36.83865499999999,bank,3.1586657975085077
 Lang'ata,Mugumoini,-1.1991235,36.8467412,654a1b76083f85b15bf6c9d29fe1a47069747ae3,NCBA Ciata Mall - (ATM),-1.226374,36.83865499999999,bank,3.1586657975085077
 Dagoretti North,Gatina,-1.1655719999999998,36.85526373,4bdbbff2fe500a3b09e92c6abe647de16e44d967,Kiambu Equity Bank,-1.1704215,36.8272504,bank,3.1586484993690647
 Dagoretti North,Gatina,-1.1655719999999998,36.85526373,b75dfd7069b1aec32d06964c5eaa14b9a406a64f,24/7 Jiweze Improved Productivity Programme,-1.1703531,36.82749550000001,bank,3.1305211635720585
 Dagoretti North,Gatina,-1.1655719999999998,36.85526373,4b786e3ceb338776628dd72cf67317498e5d9c01,Co - Operative Bank,-1.1707912,36.8277161,bank,3.1150661712121064
 Dagoretti North,Gatina,-1.1655719999999998,36.85526373,fecbe5a76a7762b59e0814dd78d1634ba61152e3,PesaPoint POS Kamindi Selfridges - Kiambu Town,-1.17105,36.827806700000004,bank,3.110676704857722
 Dagoretti South,Uthiru,-1.2631329,36.7188955,2eabc5c4b7e431191cddca49b11445cf3fd05771,Post Bank - Kawangware Branch,-1.283791,36.737722999999995,bank,3.1056572004072946
 Dagoretti North,Gatina,-1.1655719999999998,36.85526373,4aae1d19fd622725f59d770d174eb5819f03bf5f,M-Pesa Family Bank,-1.1701825000000001,36.82772219999999,bank,3.1025157977837945
 Dagoretti North,Gatina,-1.1655719999999998,36.85526373,98808a726a0391f4622dfbf1da94ab60e611736c,K-UNITY SACCO LIMITED,-1.171163,36.827915999999995,bank,3.1012601530541075
 Dagoretti North,Gatina,-1.1655719999999998,36.85526373,f69e5177f5c297e634bebf3b9b3d7067485925b8,Absa | Atm | Cleanshelf Supermarket Kiambu,-1.160352,36.827888,bank,3.0963259157449463
 Dagoretti North,Gatina,-1.1655719999999998,36.85526373,162c4ea70759a2fb48a9efe1e135ca8e3ee7481c,KCB ATM,-1.170412,36.827937,bank,3.0833274195768285
 Lang'ata,Mugumoini,-1.1991235,36.8467412,696ad86c2bf695a28fe2e672bf021cbb5f63ec0c,Equity bank ltd-ridgeways mall,-1.225939,36.840021,bank,3.07198518427205
 Kasarani,Njiru,-1.2539022,36.9343299,3066d3812cf85232f34e61036551b7607e07701c,Faulu Bank,-1.2709463,36.9125658,bank,3.071453650353772
 Dagoretti North,Gatina,-1.1655719999999998,36.85526373,0b9d9ebed02afaf3c98e895118799d821b5e747f,Postbank,-1.1706370000000001,36.828120899999995,bank,3.067699825950995
 Lang'ata,Mugumoini,-1.1991235,36.8467412,eece65103e8f887f867e54371829b18a90684916,Co-operative Bank Ridgeways Mall,-1.2257632,36.8397636,bank,3.0601578758105767
 Dagoretti North,Gatina,-1.1655719999999998,36.85526373,d74640525b715f23dd1daa590d38b5e5e58f0ba5,National Bank-Kiambu,-1.171459,36.828542999999996,bank,3.039951826531237
 Dagoretti North,Gatina,-1.1655719999999998,36.85526373,6ece52f44678f3608513d3c8b4dd8dca73ff41f4,Family Bank,-1.1709156,36.82847720000001,bank,3.0347004832923163
 Dagoretti North,Gatina,-1.1655719999999998,36.85526373,f5c6da1d346a062ff1c656b8d28eed5e0c636e89,Ukristo Na Ufanisi Wa Anglicana Sacco Limited,-1.1709040000000002,36.828509999999994,bank,3.0308746052046014
 Dagoretti South,Uthiru,-1.2631329,36.7188955,b160ef61fdccd5234f091aeacf21160206b274cd,"MPESA,EQUITEL,CO-OP SHOP",-1.2535733999999998,36.6933764,bank,3.027612715729272
 Dagoretti North,Gatina,-1.1655719999999998,36.85526373,67d813018f07284e16a08e73fd37b8a5e4ae7e9f,Dimkes Sacco,-1.17093,36.8285516,bank,3.0269090670170162
 Dagoretti North,Gatina,-1.1655719999999998,36.85526373,c66b61a16cd08a844c3becc1495de643aecbc1f9,Family Bank-Kiambu,-1.1710048000000002,36.8285922,bank,3.0241349607274923
 Dagoretti North,Gatina,-1.1655719999999998,36.85526373,6349feeeff600c0a6c0667d96d258b3adb5501d3,K-unity,-1.1716796,36.8287847,bank,3.0191492181443262
 Lang'ata,Mugumoini,-1.1991235,36.8467412,aeacf43e63f4bb974b069749fb07bd9024fdfe00,Absa | Atm | Nakumatt Ridgeways,-1.2254329,36.840196,bank,3.012710234712488
 Lang'ata,Mugumoini,-1.1991235,36.8467412,7c5cdd8753d9ade68fecedf02e3a9db3a53ff7f0,Chase bank (kenya) ltd-windsor,-1.2253040000000002,36.840305,bank,2.9958982501742715
 Dagoretti North,Gatina,-1.1655719999999998,36.85526373,1fe46d0262fa2bd6f3d618bf275425c6f98db3d5,Christian Entrepreneurs Sacco Ltd,-1.1718316999999998,36.8290499,bank,2.9943277046982115
 Kasarani,Njiru,-1.2539022,36.9343299,fb15755339a8429e2c52678597c0a4fad7154f05,DIGITAL AGE ENTERPRISES,-1.2703821000000002,36.91301370000001,bank,2.9936763777572213
 Dagoretti North,Gatina,-1.1655719999999998,36.85526373,0680ee28b50fbe0fdc8fe3479c16c498e6d07e46,Standard Chartered Bank - Kiambu Branch,-1.1721344,36.8293549,bank,2.9694602389746505
 Dagoretti South,Uthiru,-1.2631329,36.7188955,7211dd6441c7fb4e4487ee2cff13d0744aa2aa50,Dottcom Traders,-1.2546173999999999,36.69359470000001,bank,2.9658858692048766
 Dagoretti North,Gatina,-1.1655719999999998,36.85526373,3fcf928d9c24fde2c217f938e43e2995360b3bf1,Standard Chartered Bank - Kiambu Branch CDM,-1.1720518,36.8293903,bank,2.9634041451954847
 Westlands,Karura,-1.2369881,36.83255910000001,a4a84464d5e9f5cd4defbde319d620e583fc1fe8,Utabibu Sacco,-1.2612219999999998,36.8215213,bank,2.959053410508119
 Embakasi North,Kariobangi North,-1.3151376,36.86733961,ea9a6fa190ff09416cd5dc82e874398fcb528f05,PesaPoint POS Mupja Enterprises,-1.32264,36.842017999999996,bank,2.934061294084904
 Dagoretti South,Uthiru,-1.2631329,36.7188955,f17aa2b401f40b2e04f8b4ec146b5f78ec681db1,Chase Bank - Eagle Chemist,-1.254964,36.693785999999996,bank,2.933605160949128
 Kasarani,Njiru,-1.2539022,36.9343299,73a2ad29206cbcf1b9f6ea2d96ce6f2c7c3d7002,Filna Beauty Shop,-1.2679165000000001,36.9120776,bank,2.9218207111651004
 Kasarani,Njiru,-1.2539022,36.9343299,21259c59c34e0d78bc667e3252c3e9defcb4ae4d,Damashimwe Savings and Credit Co-Operative Society Limited,-1.2476544,36.90880080000001,bank,2.919989529814775
 Dagoretti North,Gatina,-1.1655719999999998,36.85526373,5edc72d152d825f924aacfb253d97e1d81a104d6,KCB Kiambu Branch,-1.1722709999999998,36.829968,bank,2.907327468230516
 Dagoretti North,Gatina,-1.1655719999999998,36.85526373,4f6cd18e74fb0dd4948bda4f4c82ddeaa9ef9710,KCB Bank,-1.1723911,36.830011400000004,bank,2.906118011820781
 Dagoretti North,Gatina,-1.1655719999999998,36.85526373,154185eac787b59dd2fe6809b8952fe85f5f52c7,ASA Ltd,-1.1734594999999999,36.8304741,bank,2.890283680284285
 Kasarani,Njiru,-1.2539022,36.9343299,647f2c611d286a9441256c35c85f08e04d261750,Equity Agent,-1.274604,36.918606200000006,bank,2.8885666881070398
 Dagoretti North,Gatina,-1.1655719999999998,36.85526373,e4fdc040fb12af7b0f25bc8cefa47a70fd2bcc59,Pamoja Women Development - PAWDEP,-1.1725302,36.83027,bank,2.8824985977538615
 Embakasi North,Kariobangi North,-1.3151376,36.86733961,657383dfc1ffe1a1c4b64d2d36b637273711cf84,First community bank,-1.3074941999999998,36.84265170000001,bank,2.8712356705013633
 Dagoretti North,Gatina,-1.1655719999999998,36.85526373,b9ae0b325a82dfc29a6be7aa51b96ed7f6fa0533,Post Bank - Kiambu Branch,-1.156919,36.830978,bank,2.864418421768915
 Dagoretti North,Gatina,-1.1655719999999998,36.85526373,891af5c63497c61ad300582c6205fdaa9459d3c2,Coop cash atm - kiambu road,-1.172489,36.830451000000004,bank,2.8618982091065157
 Dagoretti South,Mutuini,-1.3,36.7,29e89039af574206cef2e09b2a60b2c6a561cc71,Equity Bank Agent,-1.277656,36.687340999999996,bank,2.853608840002364
 Kasarani,Njiru,-1.2539022,36.9343299,bc528a1216a46c6d4c45c041ee1fa2c005f92a9b,Kenya Women Finance Trust,-1.2688171999999998,36.9139123,bank,2.809364195630664
 Mathare,Hospital,-1.2616553999999998,36.84871953,7826bca2ce9c77dc570ef601e44811e2fdd481fe,PesaPoint POS Home Choice - Ngara,-1.2779340000000001,36.829390000000004,bank,2.8078395274250227
 Dagoretti South,Uthiru,-1.2631329,36.7188955,36b68249d716da62aa4e1e01a0aaa0f171a00fa8,Faulu Kenya - Kawangware Branch ATM,-1.2809229,36.73660220000001,bank,2.788901227831916
 Dagoretti South,Uthiru,-1.2631329,36.7188955,9696c95f4957cfc7b6ff93118c35cdab0a37291f,Faulu Kenya - Kawangware Branch,-1.2809229,36.73660220000001,bank,2.788901227831916
 Dagoretti North,Gatina,-1.1655719999999998,36.85526373,11948a7b7a3f27ff280c54c93959a941e7f2678d,Jamii Bora,-1.173257,36.8315061,bank,2.774233762941535
 Dagoretti North,Gatina,-1.1655719999999998,36.85526373,a214e4716917eafaa32a272dfd12e279aabd276e,Faulu Microfinance Bank,-1.1734481,36.831756799999994,bank,2.7544204058655484
 Makadara,Harambee,-1.290941,36.89721585,9bf90cf9366f64c56fec0130530288445a9a6e4a,PesaPoint POS Innscor Bakers Inn Embakasi,-1.305092,36.917517,bank,2.7494787566340553
 Embakasi East,Embakasi,-1.324728,36.887724,aa8e884b020595a3574c5d34a296ae2f25305b28,PesaPoint POS G4S Ltd,-1.317717,36.91137999999999,bank,2.741127791581744
 Dagoretti South,Uthiru,-1.2631329,36.7188955,376aee470d31ebb7d0cecefc0fb524e1cdba1416,Post Bank - Uthiru Branch,-1.280165,36.736629,bank,2.731993605793232
 Mathare,Hospital,-1.2616553999999998,36.84871953,1ca1d6a64882fb6d48b5411eb9b8b4add4457eb4,PesaPoint POS Innscor - Parklands,-1.2638770000000001,36.824524,bank,2.699390869251017
 Mathare,Hospital,-1.2616553999999998,36.84871953,95e987b5a68b21628650eb067b1af0a0d2128bf2,PesaPoint POS TSS Poppin Service Station,-1.2759881000000002,36.8293125,bank,2.680568150142144
 Embakasi Central,Spring Valley,-1.2477029,36.78923560000001,7c6c6f166660727d6bb5001db22ec79c58fd4685,Post Bank,-1.2665274,36.8043226,bank,2.6805575133675914
 Makadara,Harambee,-1.290941,36.89721585,727a9386fc295f524aaf9e71c5180c747f435047,wanandege sacco bank,-1.3096809999999999,36.912294900000006,bank,2.672664687027448
 Dagoretti South,Uthiru,-1.2631329,36.7188955,a67f3ee71ef0c21981811587765bf809d9cbd7ca,KCB Agent,-1.2841790000000002,36.73031870000001,bank,2.6608915990399877
 Westlands,Kitisuru,-1.2395542,36.7839651,f764abac2e4b0ee7b3c80e39ba1c7d0f980966a6,Standard Chartered Bank Muthaiga,-1.228647,36.805205,bank,2.652822267835228
 Westlands,Kitisuru,-1.2395542,36.7839651,39aa94d0bad9a00119b9a6a132e232e5fa0ad910,Standard Chartered Bank ATM,-1.2286569999999999,36.80517800000001,bank,2.64964628765882
 Mathare,Hospital,-1.2616553999999998,36.84871953,e2561607d6ec14f6b49bda5656b033d49f0b2aa5,PesaPoint POS Kamae Investments,-1.278508,36.831965000000004,bank,2.6404470114930927
 Lang'ata,Karen,-1.3283746,36.7049676,832e1426d64391461a84619ed37b52a59ab4c0dc,K C B Management Centre,-1.3260021999999998,36.7285872,bank,2.637236821301081
 Roysambu,Kahawa,-1.1869631,36.912022,86fa7788119db8cf3b2c351f5771d92266d9d910,KCB Mtaani Wycliffe Kimutai Githere Kigerea,-1.1825,36.935278000000004,bank,2.630943302586201
 Westlands,Kitisuru,-1.2395542,36.7839651,72385e959ba7cade9e4e86be9f77722af5908f36,PesaPoint POS Abbany Enterprise,-1.2287059999999999,36.804918,bank,2.621478415121889
 Mathare,Mlango Kubwa,-1.2658072,36.8456235,9522e726dd4a5ea7a6a1a10281173ded902b0bdc,PesaPoint POS Logical Links - Muthurwa Market,-1.2856940000000001,36.833090999999996,bank,2.6119614883343263
 Embakasi Central,Spring Valley,-1.2477029,36.78923560000001,2bd4b9755103380f322fc6bdd72b3a3938a8a8bc,KCB Mtaani - Amos Njuguna Ndungu,-1.266252,36.803669000000006,bank,2.611539222587034
 Westlands,Kitisuru,-1.2395542,36.7839651,9e23e53ec23be70374f18e89ddf1cdbd73ff4448,Chase Bank,-1.2290441,36.8048859,bank,2.6012273876824685
 Mathare,Hospital,-1.2616553999999998,36.84871953,f90d9cf632268483a4aff77250f704d2a2b85bc8,PesaPoint POS Nat Mackinon Station,-1.284155,36.842957,bank,2.5809327689740416
 Embakasi Central,Spring Valley,-1.2477029,36.78923560000001,b47c710ddee6e5f4765586593c5999fa410cf8d9,National Bank-Westlands,-1.26284,36.80637700000001,bank,2.5409003905946674
 Embakasi Central,Spring Valley,-1.2477029,36.78923560000001,e06a81f2582efa2ebd3a2f2eb0bc9f0e8589e241,Chase Bank - Lion Bureau De Change Ltd,-1.264522,36.804702,bank,2.5388542851441525
 Embakasi Central,Spring Valley,-1.2477029,36.78923560000001,018f8d58072b3b16715c5e4e0af6641ec9e6a21c,Chase Bank - Pharmart Chemists Ltd - Woodvale,-1.264522,36.804702,bank,2.5388542851441525
 Roysambu,Kahawa,-1.1869631,36.912022,525fe9cac732ebb6f8faf9acb1bd2f5179e68a7c,PesaPoint POS Caltex - Thika Road,-1.184346,36.93464000000001,bank,2.5296628307609805
 Mathare,Hospital,-1.2616553999999998,36.84871953,15942d36a6eb1c6ddaf951c697ee7bfea5229725,PesaPoint POS Total Parklands Jaira,-1.2590704,36.826180900000004,bank,2.5204251098898744
 Dagoretti South,Uthiru,-1.2631329,36.7188955,b6b9246777ad4a009468076e23900093f47c388f,PesaPoint POS Oil Libya Ghaken Fuel,-1.2565198999999998,36.6972364,bank,2.516000208951243
 Mathare,Hospital,-1.2616553999999998,36.84871953,026454851f2546d9d7a1994a0586ad7bb5dc9003,Chase Bank Xpress Parklands Branch,-1.2591408000000002,36.82629759999999,bank,2.506660669951319
 Embakasi Central,Spring Valley,-1.2477029,36.78923560000001,04e8d1b64ed5607a45e2f20ef90185dc8b7e8fae,PesaPoint POS Wacom Technologies - Bandari,-1.2644030000000002,36.804171999999994,bank,2.4895055969023923
 Westlands,Kangemi,-1.2654259,36.7525183,3baf71e72213509623d96c13ac44e08d06aa1918,Equity Bank Agent,-1.248909,36.73759499999999,bank,2.473390576815204
 Kamukunji,Eastleigh South,-1.2778285,36.8486835,ab15ff50bd9da53a44378efada2e6127efa4f222,PesaPoint POS Fay Mobile,-1.285866,36.827979000000006,bank,2.4675360789105176
 Makadara,Maringo,-1.2920714,36.86572592,bf88f67cc0ea4b22c0731b7609cdabd92bccf57a,KCB Mtaani Kondiwa Odhok Charles,-1.2911110000000001,36.843610999999996,bank,2.4592155043917923
 Embakasi Central,Spring Valley,-1.2477029,36.78923560000001,f64333a568f0d189013b19d1189f68dd6fa1fb92,ABC Bank,-1.263919,36.80424399999999,bank,2.4551000221023096
 Embakasi North,Kariobangi North,-1.3151376,36.86733961,db51415d1bf0660fb66c7373d54e9a63650f8a0f,DTB Centre,-1.326368,36.8484825,bank,2.4384900599961647
 Mathare,Mlango Kubwa,-1.2658072,36.8456235,c7c8b52624532586d39bdb89591c4bff75991e06,KCB ATM,-1.276545,36.826525,bank,2.434308516435622
 Roysambu,Kahawa West,-1.1856847,36.90579279999999,d56ff1ce86235737396c868376dfd90fe8aa1ee8,Klassic Chicken,-1.2054433,36.896519500000004,bank,2.4253776563527416
 Makadara,Harambee,-1.290941,36.89721585,da2019e931b2078bdbbff3ffe60d8352b8ec1e1a,PesaPoint POS Nat Samakard,-1.302507,36.915682000000004,bank,2.4208865911077444
 Makadara,Maringo,-1.2920714,36.86572592,1f6f225a79b72173628404ebf34a6b769a181c46,PesaPoint POS Kirui Coke Kiosk,-1.2908110000000002,36.843996999999995,bank,2.4180751682269217
 Westlands,Karura,-1.2369881,36.83255910000001,f5d9a134af46750f3f84eba59c428a20d69f1779,Co-operative Bank Gigiri Square,-1.2361806,36.8109927,bank,2.3976902310330184
 Westlands,Karura,-1.2369881,36.83255910000001,cb7e1138b5e3dc5ce4200fade8ad157cffb95a9e,I&M Bank Gigiri Branch,-1.2361971,36.8110425,bank,2.392093288781778
 Westlands,Karura,-1.2369881,36.83255910000001,c96bf660850bb6823a9db587e75897ea75ac2452,Equity Bank Gigiri Square,-1.2362392,36.8111068,bank,2.3847865848552545
 Lang'ata,Nyayo Highrise,-1.31600475,36.80173345,9f2ac9ed404dd86c730d8cb06770becc81ed0bc1,Pioneer FSA,-1.2996558999999999,36.81548400000001,bank,2.3736699425786227
 Kamukunji,Eastleigh North,-1.2778285,36.8486835,a28865a02039a9e102f1e1465201be319a1b6f54,PesaPoint POS Family Health Options Kenya,-1.283455,36.828127,bank,2.3678154700027445
 Embakasi Central,Spring Valley,-1.2477029,36.78923560000001,4adec620717804f554920c4510b03b8f2506a95f,Transnational Bank Westlands Branch,-1.2631959,36.803844,bank,2.366041181896368
 Embakasi Central,Spring Valley,-1.2477029,36.78923560000001,7ca4cac79c52e331618bf76acbc6880527ce90d6,Chase Bank - Rafiki DTM - Westlands,-1.26324,36.803788,bank,2.3653526798280637
 Embakasi North,Kariobangi North,-1.3151376,36.86733961,a57d77c419009046ebd04c0c6d632deab72c5400,Equity Bank Mombasa Road,-1.327121,36.84981,bank,2.359219798713016
 Westlands,Karura,-1.2369881,36.83255910000001,ea9b5364c838bafa6670e2072b71676d22810dac,Standard Chartered Bank ATM,-1.23556,36.81149,bank,2.3461346185665173
 Embakasi Central,Spring Valley,-1.2477029,36.78923560000001,39a791f9a5695deb88bd18ce11d305f815378279,Equity Bank Agent,-1.2629553,36.803405299999994,bank,2.313217413614459
 Embakasi Central,Spring Valley,-1.2477029,36.78923560000001,29a6e79695cc966806aee6f021564ecfbb27776b,Equity Bank Westlands Prestige,-1.2638466999999998,36.802374,bank,2.3127827961449188
 Starehe,Pangani,-1.2648989,36.8372708,5d78bbe7565b0ad8f6cfa54f6a9ecfa89e9e3b42,KCB ATM,-1.281903,36.825337,bank,2.308314072961832
 Kamukunji,Pumwani,-1.2797575,36.8442693,877abb44a565d0e4ea75dabf78ffb381cf5ff581,IDB Capital Ltd.,-1.2886193000000001,36.8256162,bank,2.2943901784572143
 Kasarani,Njiru,-1.2539022,36.9343299,adff86ae1e33127db427a5e3ff507456418238ba,Kenya Nairobi Saika,-1.2528968999999999,36.913794,bank,2.284241596027736
 Embakasi North,Kariobangi North,-1.3151376,36.86733961,a726f9092476bbf2e6535ab1f59ef9f460427df1,KCB Advantage - Gateway House,-1.325579,36.84966799999999,bank,2.28048341893256
 Embakasi North,Kariobangi North,-1.3151376,36.86733961,a87e83a4d4f223145181a0d01767ce435ba73e66,Kcb Kenya,-1.3260737,36.85009350000001,bank,2.2688815053435487
 Starehe,Pangani,-1.2648989,36.8372708,e1b949b13b91ff79590fd90b2d9c0f8a4bbdd8e2,Bank of Africa river road branch,-1.2813888999999998,36.82531120000001,bank,2.2634674991169645
 Roysambu,Kahawa,-1.1869631,36.912022,8470d16081f16b650b846dae2555bd5497bee639,Equity Bank Kenyatta University,-1.176484,36.929426,bank,2.2571858227415555
 Makadara,Harambee,-1.290941,36.89721585,9677cea30e1cbf2b52f734cf8e0afbf8e1750f2f,Postbank Jogoo Road Branch,-1.304319,36.9125018,bank,2.2569926917651286
 Mathare,Hospital,-1.2616553999999998,36.84871953,814a45c46515f60822c24a957b7bdafaf9fdc1e8,Equity Bank Agent,-1.2578340000000001,36.828918,bank,2.2405263844764822
 Embakasi North,Kariobangi North,-1.3151376,36.86733961,5f3d502c880f1f211c33736e5771ae10c6e0f65e,Ecobank-Plaza 2000,-1.328797,36.852746,bank,2.2209440385402552
 Makadara,Harambee,-1.290941,36.89721585,9ab206bcb79023f3a2d1993f819a93d3bfa11edd,PesaPoint POS Wabcom Technologies - Embakasi,-1.303784,36.912496000000004,bank,2.2177909659370143
 Embakasi Central,Spring Valley,-1.2477029,36.78923560000001,00531deb2d952138358ce3e39b964e4d52706af9,Barclays,-1.2633218000000002,36.8015149,bank,2.207614019946003
 Embakasi Central,Spring Valley,-1.2477029,36.78923560000001,2092a38ab20b69203e05104d3d677fbc457bd538,Credit Bank- Westlands Branch,-1.2581069999999999,36.80604900000001,bank,2.1967963906378483
 Starehe,Nairobi South,-1.314183,36.8235852,dc5c25719c8b4dd598e572f097332ff1ae751993,M-Pesa Gulf African Bank Ltd,-1.3004395,36.8377389,bank,2.1920305099927004
 Dagoretti South,Mutuini,-1.3,36.7,eb20696454f3b103d06e88b491302f20b89660ae,Equity Agent,-1.2851277,36.687317900000004,bank,2.171747312197265
 Embakasi Central,Spring Valley,-1.2477029,36.78923560000001,d9037db169babb6b0a8e05aa0e06a64c4736d915,Commercial bank of africa ltd(westlands),-1.263011,36.80138700000001,bank,2.1717030983219736
 Dagoretti South,Mutuini,-1.3,36.7,6ccfbad034589c66409927cc150aad43df4e2972,Equity Bank,-1.2852326,36.6872894,bank,2.1649534781279054
 Embakasi Central,Spring Valley,-1.2477029,36.78923560000001,49ec1b5771ea79898410362d5a2231f4b97cab01,United Bank Of Africa,-1.2593503000000001,36.80456029999999,bank,2.138677695700872
 Kasarani,Njiru,-1.2539022,36.9343299,d5852f92fd2616d3207a7f683245256d280b611b,Equity Agent,-1.2685383,36.9218946,bank,2.1339991585209765
 Embakasi East,Embakasi,-1.324728,36.887724,daea5f688ab2613c331bf079417684e66e741285,Bank of Africa,-1.3200353,36.90621929999999,bank,2.1198855592708963
 Kasarani,Njiru,-1.2539022,36.9343299,0275ac876d051501662909fae834369b1f8397c2,Equity Bank Agent,-1.2349113999999999,36.9328997,bank,2.1163280926674317
 Kasarani,Njiru,-1.2539022,36.9343299,6b0a75f27f5708ca0afba7c9b7705bb439846c03,#KWA PALOMA ENTERPRISE,-1.2352813,36.9313674,bank,2.0952615316833514
 Embakasi East,Mihango,-1.2692818,36.95299050000001,bfc5fb9faa9ef79f089add488047926514abda19,Chase Bank - Naivas Limited - Utawala,-1.2880200000000002,36.95109,bank,2.0929619087012625
 Embakasi East,Mihango,-1.2692818,36.95299050000001,3fb45e17e8ea7129f8a12efa7d380b1dd7f21d36,Family Bank Agent,-1.2879633999999998,36.9510958,bank,2.0866393101339957
 Dagoretti South,Uthiru,-1.2631329,36.7188955,85d0dd815b220eb41820761877193551d334783a,PesaPoint POS Mt. Moriah - Apec Parmacy,-1.269825,36.70136799999999,bank,2.0844398999368856
 Westlands,Karura,-1.2369881,36.83255910000001,b4da2b54b21b88b7181e72977214c2e7461231ab,UNFCU ATM United Nations complex,-1.23261,36.8143537,bank,2.0802978411579303
 Embakasi Central,Spring Valley,-1.2477029,36.78923560000001,6fed7345a1136e564fc9cb1fc478653b367c9974,PesaPoint POS Pharmart Chemist - Woodvale,-1.262365,36.800808,bank,2.0754927966678904
 Embakasi Central,Spring Valley,-1.2477029,36.78923560000001,6ddda12b90cfa6ed2e01ef5c338f7cb88b0eb7b1,KCB Card Centre,-1.261314,36.802021,bank,2.074947632263968
 Embakasi East,Mihango,-1.2692818,36.95299050000001,ee6943294e543be16cd20dd7fa5bd4f3d5e704b8,"God's Grace Mission Sacco, Utawala",-1.2877348,36.9505975,bank,2.0677538329218184
 Embakasi North,Kariobangi North,-1.3151376,36.86733961,0aa7be3233224af9febf4d229e110920ddc61bff,PesaPoint POS Xris - Xerographics,-1.3269469999999999,36.85297200000001,bank,2.066390611793621
 Dagoretti South,Mutuini,-1.3,36.7,9d33a16be30a0a89a95df69603c96380f3144767,Equity Bank Agent,-1.2878502,36.68596820000001,bank,2.062287664899418
 Roysambu,Kahawa,-1.1869631,36.912022,b36b885df971dbc2102dc0b78b3f01ebc3d279f1,National Bank Of Kenya Kenyatta University Branch,-1.1799316,36.92919020000001,bank,2.0612535942360077
 Roysambu,Kahawa,-1.1869631,36.912022,939834f07f9e3c124dc26e9780758cf2cf6cb54a,National Bank-Kenyatta University,-1.179933,36.929189,bank,2.0610712495801016
 Embakasi East,Mihango,-1.2692818,36.95299050000001,11c08b26e511135a9e7b54d513a09f5066ef30ab,PesaPoint POS Mt. Moriah - Mwongenye Shop,-1.250797,36.953378,bank,2.0545765770983264
 Embakasi Central,Spring Valley,-1.2477029,36.78923560000001,c2baa0cfd97d22b22243184de4f71e1f74c47e5c,"CBA Loop Store, Sarit Centre",-1.2610702,36.8019354,bank,2.0487213959498884
 Embakasi North,Kariobangi North,-1.3151376,36.86733961,94ab7a58569ae71c7124c24d65a1bf6fd0da2f50,Equity Bank Agent,-1.3144139,36.8489693,bank,2.042449237264517
 Embakasi Central,Spring Valley,-1.2477029,36.78923560000001,042b50b8fe47595d28217a2d7963065dcc1b7e63,PesaPoint POS PesaPoint Vending Machine,-1.260681,36.802234999999996,bank,2.0409981496909597
 Embakasi North,Kariobangi North,-1.3151376,36.86733961,57fceeae71f6528f294785fe97771fa426354fcc,PesaPoint POS Tats Enterprises - Eduphonix,-1.3281530000000001,36.854409999999994,bank,2.038431160516164
 Dagoretti North,Kawangware,-1.2784631000000002,36.751643,0668cc27ad19b36add8c843caf1f5c16bab78d9c,"Chase Bank, Lavington Branch",-1.279892,36.76992809999999,bank,2.0376237666436783
 Lang'ata,Karen,-1.3283746,36.7049676,1e9c3d5387d6ba48f716aa58e9cf67f92a191c8d,PesaPoint POS Ramna - Karen,-1.3289739999999999,36.686664,bank,2.0345333834016768
 Roysambu,Kahawa,-1.1869631,36.912022,7798b1bc4f87eb4948e12c794c79142dea1dd140,Equity Bank,-1.1797989,36.9288468,bank,2.031733361652372
 Ruaraka,Mathare North,-1.251788,36.87077217,ba57a6d933b7b3ce9ceb0078117eb95dafb94432,Tembo Sacco Plaza,-1.2336778999999998,36.8682718,bank,2.0315683764616184
 Kibra,Laini Saba,-1.31234835,36.79611435,996517af86029538f78d002e372a68dd6e92c3e3,PesaPoint POS Lucy Wangari Mbugua,-1.296842,36.80546500000001,bank,2.0120588819263445
 Lang'ata,South C,-1.3204427,36.83053678,30d212e341845923b79ff4ea38cc041d383d9428,Kenya Commercial Bank,-1.3045388999999998,36.83912279999999,bank,2.008298344505809
 Westlands,Karura,-1.2369881,36.83255910000001,bdf63a2b5dad96fb8cb7f7a4493e05b965383b9b,KCB UN Gigiri,-1.232497,36.815078,bank,2.0052370083757656
 Lang'ata,Karen,-1.3283746,36.7049676,c57ec3803aa8691bfcd0e306e90c97b6c1242500,PesaPoint POS Sixem Restaurant,-1.343748,36.71435499999999,bank,2.0015382002120616
 Mathare,Hospital,-1.2616553999999998,36.84871953,1531443db7c011eb606620889d3cb8afabacfde2,Diamond Trust Bank,-1.2794763,36.850319799999994,bank,1.9883139353998551
 Lang'ata,Karen,-1.3283746,36.7049676,090c7ec43b13995162f4468e88adc9b4177a2e25,"Cooperative Bank, Karen",-1.3168487,36.718647499999996,bank,1.9875133705722976
 Lang'ata,South C,-1.3204427,36.83053678,0e26f8632959ebdc516ecf5496676957a0f7a7d6,First Community Bank-Industrial Area Branch,-1.3080201999999999,36.8432974,bank,1.978733196299408
 Westlands,Karura,-1.2369881,36.83255910000001,70a79e21c42231776c062bb030d14567834354f3,Standard Chartered Bank Gigiri Branch,-1.2329666000000001,36.8152104,bank,1.9785577379438355
 Kibra,Laini Saba,-1.31234835,36.79611435,d2f487e33f877c3f411af9e496f9ffbb4a2d1e44,Standard Chartered Bank ATM,-1.2954271000000002,36.801474400000004,bank,1.9724127308298005
 Embakasi Central,Spring Valley,-1.2477029,36.78923560000001,72e1788d3b023873668c2af3f8c2e6f278921d07,Barclays Bank,-1.2598232,36.77629349999999,bank,1.9701433791725629
 Dagoretti South,Uthiru,-1.2631329,36.7188955,80cb10f954947e02d2226367dd10d8ff8a363c22,Equity Agent,-1.2808184,36.71968820000001,bank,1.967275393103049
 Embakasi Central,Spring Valley,-1.2477029,36.78923560000001,2973cbac39e96168fa3556290f283804dcbc5688,PesaPoint POS Pharmart Chemist Ltd - ABC,-1.259606,36.776205,bank,1.960969584708124
 Mathare,Hospital,-1.2616553999999998,36.84871953,1a5e3437d8923182d0bf7f7f3d61218923eb0ace,First Community Bank,-1.2791611999999999,36.850810700000004,bank,1.9591577359910015
 Kasarani,Njiru,-1.2539022,36.9343299,f6661e1dbac423ca9f441cb41432106c8816ea73,Smep Microfinance Bank,-1.2364358,36.9349985,bank,1.9423765295988602
 Mathare,Hospital,-1.2616553999999998,36.84871953,936593b9330bc53185a6d74fe5c5851c5cccb543,Gult African Bank,-1.2789553999999999,36.849715,bank,1.92564294763896
 Kamukunji,Pumwani,-1.2797575,36.8442693,748b4e535b0d5a1ecf852cd0f4b1f7eca606d45f,Co-operative Bank,-1.2890897,36.8297688,bank,1.9158975329830867
 Embakasi East,Mihango,-1.2692818,36.95299050000001,2a817f5a7d75264fb64e275e45f66c4849c59ec3,Cooperative Bank Utawala,-1.2787342,36.9673717,bank,1.9120771622442443
 Embakasi East,Mihango,-1.2692818,36.95299050000001,2c11dc14ee30d0ec543b02174f0dceb4bc8f32d9,Equity Bank Utawala,-1.2787654,36.967261799999996,bank,1.9038037566511727
 Embakasi Central,Spring Valley,-1.2477029,36.78923560000001,838b5688d4a600e834b8e300aa62a4094a13f7f6,KCB ATM,-1.257168,36.803297,bank,1.8832891561631224
 Embakasi East,Mihango,-1.2692818,36.95299050000001,04aebcfd85f54245f665cefc0ad001eb9587cebc,Letshego Utawala,-1.2797413,36.9662928,bank,1.8801659269805735
 Lang'ata,Nairobi West,-1.3087022,36.8230975,2e66f7531fc3576b4dd4a5ea93387b4aedb30ec9,Imperial Bank-Industrial Area,-1.301864,36.838539000000004,bank,1.876261811818147
 Lang'ata,Nairobi West,-1.3087022,36.8230975,e3327a278e6c8dc63adb86a606f640dc131330ee,"Bank of Baroda, Industrial Area Branch",-1.3015778,36.838055600000004,bank,1.8407423180062348
 Embakasi Central,Spring Valley,-1.2477029,36.78923560000001,89b492c981a42ab5ceaa19c476a057ee2da7b053,Mayfair Bank Kenya,-1.2576973,36.8023844,bank,1.835066773298568
 Lang'ata,Karen,-1.3283746,36.7049676,e9b812b948a5745a1d67a933cc27c605eb4835b2,Kenya commercial bank ltd-kcb leadership centre,-1.339952,36.693220000000004,bank,1.8326127610266123
 Lang'ata,Nairobi West,-1.3087022,36.8230975,3b1ce2c87002a88e0957ec918dcc2054122198c0,Family Bank-Industrial Area,-1.3007440000000001,36.837539,bank,1.8319868635687373
 Lang'ata,Nairobi West,-1.3087022,36.8230975,1d41e57ddd6d2c74234594d7ebe18ebd317f42b5,M-Pesa Equity Bank Ltd (Enterprise Road),-1.3011528,36.837680799999994,bank,1.8244692299808112
 Dagoretti North,Kilimani,-1.2874422,36.7845225,e0d86dc5309aee7e2e11e1a905b34e62b17b6bcc,PesaPoint POS Kent Pharmaceutical Ltd,-1.295136,36.798893,bank,1.8110357869346263
 Dagoretti North,Kilimani,-1.2874422,36.7845225,82b9322907e63c8ad942b6344a8f277b614412a5,Barclays Bank (Hurlingham Branch),-1.2950747999999999,36.7988593,bank,1.804529639351008
 Embakasi East,Lower Savanna,-1.324728,36.887724,3b5af9e16acb417b4a773eef5f078e976a2b83a5,PesaPoint POS Nippon Business Book Centre,-1.320817,36.903419,bank,1.7969919552642502
 Lang'ata,Nairobi West,-1.3087022,36.8230975,56bedc7766989214acf0b865c0e63006ef171dcf,Habib bank,-1.3042751,36.8384698,bank,1.777251470653772
 Starehe,Ziwani,-1.2788772,36.8360883,f2bc6cd041ec761a4f1c8ca8fbf6efe005234620,KCB Biashara Street,-1.282412,36.820512,bank,1.7745074636146303
 Lang'ata,South C,-1.3204427,36.83053678,82da6cf01c95597c0b8caa440628af9c7115ef54,KCB Industrial Area,-1.3055653,36.8361628,bank,1.7674571123041731
 Dagoretti South,Riruta,-1.2917037,36.7346929,3b49c1dd772cb6e73d8aa496127c63334ac66318,PesaPoint POS Acacia - Hardy Karen,-1.307592,36.734004999999996,bank,1.7672423528142276
 Dagoretti South,Riruta,-1.2917037,36.7346929,fc61900258887250d1d89e5d77df3b441fe61ce5,Equity Bank Agent,-1.307517,36.733389,bank,1.7632153418487813
 Roysambu,Roysambu,-1.2188396,36.88673920000001,31b0cfe9132435a29c47b1ab94455c522b6e0ad8,Equity Bank Garden City Branch,-1.232666,36.87899299999999,bank,1.7610630777531069
 Starehe,Nairobi South,-1.314183,36.8235852,94c9aac3453d189a584d75959a534d5a28ac9099,PesaPoint POS Gazebo Restaurant,-1.3008296999999998,36.8150927,bank,1.7584320270952605
 Embakasi East,Mihango,-1.2692818,36.95299050000001,5a5305971fbeb3e1e4efa17307a18e05fbc2a969,KCB ATM,-1.2819208,36.96239469999999,bank,1.7504920487242492
 Dagoretti North,Kabiro,-1.2878118,36.7515014,877f043e657c4988a5b66412066055211dbfe0d5,PesaPoint POS Caltex - Dennis Pritt,-1.303237,36.74835499999999,bank,1.7494056676834282
 Roysambu,Roysambu,-1.2188396,36.88673920000001,33f02b6bad59886798443cefa5eb9208b86a163a,KCB Garden City,-1.2324781999999999,36.878878,bank,1.7492293024764585
 Roysambu,Kahawa,-1.1869631,36.912022,72ca467d0595986f9bd03ddd895be01c60605da1,Inuka Africa Microfinance,-1.196483,36.924474,bank,1.7415603894175429
 Kibra,Woodley,-1.3056567,36.77600465,a963d95539d3fc4036e29603211e911fca4addfd,Prime Bank,-1.2946713,36.7871682,bank,1.740233820095495
 Kibra,Woodley,-1.3056567,36.77600465,2911b02b2bb04ce100f1d2dfc281083fd46fe279,Co-op Bank ATM - Valley Arcade Branch,-1.2909778,36.7706156,bank,1.737596903341193
 Dagoretti North,Kawangware,-1.2784631000000002,36.751643,49434bd42cdc1303f80ef226877d42f26c6066f7,ASA Limited,-1.2792159,36.7672114,bank,1.7316311619882625
 Lang'ata,Nairobi West,-1.3087022,36.8230975,60c4b77609f66ea49283fad491d316a9d80396b2,PesaPoint POS Upperhill Spring Communication,-1.298614,36.811301,bank,1.724614364422553
 Mathare,Hospital,-1.2616553999999998,36.84871953,6a43cff4c23eacff285ecdd3a5ede5198122ba32,Chase Bank - Happyland Distributors,-1.270594,36.836096999999995,bank,1.7184881443439644
 Roysambu,Roysambu,-1.2188396,36.88673920000001,c6ed26a994b2e1b119360b7e52122accee928e9f,DTB Garden City,-1.2321088,36.878871200000006,bank,1.7141702588058438
 Embakasi East,Mihango,-1.2692818,36.95299050000001,4ab8fe9da51066b9359e29f92fe33cc1db56edd8,Family Bank Utawala,-1.2808312,36.963046999999996,bank,1.7016000319141116
 Starehe,Nairobi South,-1.314183,36.8235852,3ef832291e7150453064374eddb1dc6518d0d097,PesaPoint POS Innscor - Lusaka Road,-1.302154,36.83303799999999,bank,1.699908056078408
 Embakasi East,Mihango,-1.2692818,36.95299050000001,51d663dcc7e141b19d97e9ce9c5829e43c1aecfd,Jamii Bora Bank Utawala Branch,-1.2830133,36.959659,bank,1.6962546156445852
 Lang'ata,Nairobi West,-1.3087022,36.8230975,a261f73cb7aed55c5c858e45e05ba36b834a0700,Stanbic Bank - Industrial Area branch,-1.3049669,36.8378958,bank,1.6956259262620768
 Dagoretti North,Kabiro,-1.2878118,36.7515014,9fb9628cbd28a89bf55ebbddb27472bbf5f72e27,Standard Chartered Bank Junction Branch ATM,-1.2980909999999999,36.762657,bank,1.6854643143356776
 Kibra,Woodley,-1.3056567,36.77600465,f095c2f74bf8215a862151069f13e143bc940888,Methodist Sacco Ltd,-1.290498,36.776272999999996,bank,1.6847760526026794
 Dagoretti South,Riruta,-1.2917037,36.7346929,0e831c00d2ca9de7f09d90c0497a25338971479e,PesaPoint POS Xris Anu 2,-1.305983,36.739783,bank,1.6845416852406023
 Dagoretti South,Riruta,-1.2917037,36.7346929,50549e1c4a1c207e67289b7eed47b0f141893307,PesaPoint POS Xris Sife - An University,-1.30609,36.739246,bank,1.6767954628830082
 Westlands,Kangemi,-1.2654259,36.7525183,2f58a5dc45c003d9db98b6dd1592483e5c02b893,PesaPoint POS Brightstar,-1.261989,36.767210999999996,bank,1.6764162285253592
 Embakasi Central,Spring Valley,-1.2477029,36.78923560000001,b6f0dc71b732adb99ef7624b452fe7b04d9f9b3c,PesaPoint POS Oil Libya - Fuel Zone Ltd,-1.259319,36.77992499999999,bank,1.654158309337017
 Starehe,Nairobi South,-1.314183,36.8235852,871934e4144a7699e055ff6c68e893f67bdf55a7,PesaPoint POS Oil Libya - Bunyala Road,-1.299512,36.826024,bank,1.6526770041881993
 Mathare,Hospital,-1.2616553999999998,36.84871953,af690d90a537b4ccdbfa1842a347db9849622f3c,National Bank-Eastleigh,-1.276435,36.85000799999999,bank,1.6486110645595684
 Mathare,Hospital,-1.2616553999999998,36.84871953,c0697a446f26efe17f862cb872ef3d9660b538eb,National Amanah,-1.2763646999999998,36.85002709999999,bank,1.641015096092239
 Kasarani,Njiru,-1.2539022,36.9343299,2db6a9961c038ebabaad26bdb91b812acd815b97,Equity Agent,-1.2580228,36.92020040000001,bank,1.6351870642563566
 Dagoretti North,Kilimani,-1.2874422,36.7845225,256323b079a183845d9af694977b38e4845667d8,Ecobank,-1.2906153999999999,36.7701566,bank,1.6344983409668945
 Lang'ata,South C,-1.3204427,36.83053678,d9c2095ba8726b4f4b2f4fc69c53a4a6c5a0df29,PesaPoint POS Danken Pharmacy,-1.307669,36.8233,bank,1.6313486637181422
 Makadara,Maringo,-1.2920714,36.86572592,434a28ea01ca6a1d86a37b375fe60f9ed21c1cbe,Equity Bank Agent,-1.283147,36.85406700000001,bank,1.631332911974481
 Kamukunji,Eastleigh South,-1.2778285,36.8486835,c50719fc7c1e7a4ade284a1d088e747031e82018,PesaPoint POS Alca System - Burma,-1.2915940000000001,36.84421200000001,bank,1.6083349688251949
 Embakasi Central,Spring Valley,-1.2477029,36.78923560000001,398ea3560ccba29a7e95b3d11eed4921257c26d1,Ecobank Kenya Head Office,-1.2601639999999998,36.78196320000001,bank,1.6032141759766767
 Lang'ata,Nairobi West,-1.3087022,36.8230975,ec60998caf18f5c82d17a04b4176cc30352c52f8,PesaPoint POS Sheebeen,-1.29966,36.81194,bank,1.5956680104985483
 Westlands,Kitisuru,-1.2395542,36.7839651,7a743ff42b211b16733921b05e709974efbd14f5,Githurai Kingdom Sacco,-1.2438042999999999,36.7703525,bank,1.5843776407847021
 Embakasi Central,Spring Valley,-1.2477029,36.78923560000001,884c7c52011c74e71b5f9f4c2ed53e55f93d696a,Stanbic Bank - Waiyaki Way,-1.260429,36.795565,bank,1.579367943514936
 Embakasi South,Kwa Njenga,-1.3166386,36.884663,ce83ebb62475730c7b215a61e21a9503754f7cfb,Co-op Kwa Jirani Habil Omuyoma Malenya,-1.3158,36.8988,bank,1.5733235013785922
 Ruaraka,Utalii,-1.25571935,36.8612155,a9769392968fad754fa0135d73195f7b713e07b2,PesaPoint POS Tumaini Self Service - Pipeline,-1.2439209999999998,36.85339000000001,bank,1.5731579215806055
 Kamukunji,Eastleigh South,-1.2778285,36.8486835,57617db096574c960ced8824e098e7a90df570aa,KWFT Microfinance,-1.2846436,36.8363509,bank,1.5654944132127315
 Embakasi North,Kariobangi North,-1.3151376,36.86733961,6753412ffff5c36530c7bd7b96c139324d924356,PesaPoint POS Eastleigh Mattress,-1.304771,36.85801500000001,bank,1.5492662456388517
 Embakasi North,Kariobangi North,-1.3151376,36.86733961,b7775ddec32654b64764cc89987eff082d2a839b,PesaPoint POS Caltex - Likoni Road Station,-1.306101,36.85676999999999,bank,1.5450721228105273
 Roysambu,Kahawa,-1.1869631,36.912022,c3eca1f69e5022109415a26252973d78b3ffb788,Croplife Farmers Sacco - Githurai Branch,-1.2006126,36.909866799999996,bank,1.5355855123077946
 Roysambu,Roysambu,-1.2188396,36.88673920000001,4dd320ad06b9e9166fcaaca79fe0fd300a617147,Equity Bank Agent,-1.213898,36.873837,bank,1.5350202312981571
 Dagoretti North,Kabiro,-1.2878118,36.7515014,ad2e90f8265523046592a6aeae521cebe6806386,Chase Bank Express,-1.2988182,36.75974860000001,bank,1.5282127403287755
 Dagoretti North,Kabiro,-1.2878118,36.7515014,17076b27a18a0752b0c3da04a9d0d2a4d30e1d4a,PesaPoint POS Xris Anu 1,-1.301392,36.75359599999999,bank,1.5269372719751022
 Mathare,Hospital,-1.2616553999999998,36.84871953,c3ab6ca5e2747799c7c98d735e14600c8bc2e2a0,Equity Bank Agent,-1.27491,36.852264,bank,1.5246492480000349
 Starehe,Ziwani,-1.2788772,36.8360883,bb829357f44b2f2a3ac2f68dbbafc04c5b29e695,Family Bank-Tom Mboya Street,-1.281807,36.822757,bank,1.5164346334648553
 Kibra,Lindi,-1.31516185,36.79284123,abb5c946ae8e8315a1a57841c52f641a254f0593,Equity Bank Agent,-1.3275549999999998,36.78716449999999,bank,1.5147225067799834
 Kibra,Woodley,-1.3056567,36.77600465,ea4507fb393b2145aabe00cc515bc5c6f89eef96,Equity Bank Agent,-1.292243,36.778107,bank,1.5087866827872585
 Lang'ata,South C,-1.3204427,36.83053678,fb6c7ade0e72ab0a3b330b427042a160402e5051,Helberg Bank,-1.3220132,36.843965600000004,bank,1.5020556000219167
 Makadara,Harambee,-1.290941,36.89721585,2447ba8bc5993532fe19f18aa3f93f3018513b20,PesaPoint POS Caltex Donholm Tassia,-1.301089,36.88830499999999,bank,1.5005780494298029
 Makadara,Harambee,-1.290941,36.89721585,2370218acab9d397920d6513eef6a873f9964273,PesaPoint POS Caltex - Outering Road,-1.301081,36.888307,bank,1.4997634310197825
 Starehe,Nairobi Central,-1.2832533000000002,36.8172449,f76f36aad6c4ee86a0316b756cfb47c10949c1b6,M-Pesa National Bank of Kenya,-1.2966758,36.8158451,bank,1.4996619314845796
 Dagoretti North,Kabiro,-1.2878118,36.7515014,2be2d9c587488ba515731d46ada7035cdb48424d,Family Bank,-1.2998741000000005,36.7574336,bank,1.4936808281906426
 Kibra,Laini Saba,-1.31234835,36.79611435,87d16cfca4364ab61ee72e4e61430bbe2ab8daaf,PesaPoint POS Family Health Options Kenya,-1.3026149999999999,36.805282,bank,1.4856731549068731
 Embakasi South,Kware,-1.3112904,36.87875837,e6899567dc94d442b1bf5bbe914b4c7345af1b90,PesaPoint POS Macnut Farm Product,-1.301821,36.888189000000004,bank,1.4849245981721462
 Dagoretti North,Kabiro,-1.2878118,36.7515014,955d66d38e5749750757357ce1ce15bbf1cb4475,Co-operative Bank,-1.3003586999999999,36.7560707,bank,1.4838117964304147
 Lang'ata,Karen,-1.3283746,36.7049676,ea4bbfc3a887ef05b383a802c8dd62482121f1cf,Investments & Mortgages Bank Ltd - Karen,-1.3254716,36.7179973,bank,1.4830496772211983
 Lang'ata,Nairobi West,-1.3087022,36.8230975,18f78655257ccf8850ce3b9acf65250b2e56081a,Equity Centre,-1.3011131999999999,36.81215529999999,bank,1.4795196432096192
 Westlands,Karura,-1.2369881,36.83255910000001,73c254af9479fa28ed8967576a63b06e918eda35,Equity Bank Ridgeways,-1.22596,36.84001,bank,1.4788797056831828
 Embakasi South,Kware,-1.3112904,36.87875837,05ee486f954c2e46f8c91aa0b789a62c959be468,Co-operative Bank,-1.3018651,36.88802859999999,bank,1.4689073968030044
 Lang'ata,Nairobi West,-1.3087022,36.8230975,dc92ac1242c9321dbefb78c6512301f26ad57871,Equity Bank,-1.3011188999999999,36.8122941,bank,1.4665120281105335
 Embakasi Central,Spring Valley,-1.2477029,36.78923560000001,b3e876cb9c220828351d8e05753d7aaf43350373,KCB ATM,-1.2607396999999998,36.79102320000001,bank,1.462265203030116
 Embakasi Central,Spring Valley,-1.2477029,36.78923560000001,f4a6823b45808b3af72d2790a55d307848c9425e,Equatorial Commercial Bank-Card Centre,-1.260483,36.78621500000001,bank,1.459300007483883
 Lang'ata,Nyayo Highrise,-1.31600475,36.80173345,a37bfc9e625264d4f40ab609ff386626067a6343,PesaPoint POS Carnivore,-1.32907,36.800634,bank,1.4570062109909718
 Ruaraka,Babadogo,-1.2433103,36.8910881,05120708e18baf86b29239856d93a2991c7ca9c2,PesaPoint POS Traron Enterprises - Ngumba,-1.2324760000000001,36.883784999999996,bank,1.4518419885506697
 Embakasi Central,Spring Valley,-1.2477029,36.78923560000001,567f576546646b89f016103f00281f56b846476e,Spire Bank-Head Office,-1.2604184999999999,36.7862391,bank,1.4517091304187584
 Starehe,Nairobi Central,-1.2832533000000002,36.8172449,465d6499d2e6b6ad7b9f785c9c0fa2a803fa133a,East African Development Bank,-1.296216,36.81577979999999,bank,1.4496483880796414
 Dagoretti North,Kilimani,-1.2874422,36.7845225,9a421d20c4657727cad293d61ba3ece84b60a66d,PesaPoint POS Haven Agencies,-1.2764,36.77757500000001,bank,1.4496345755760236
 Embakasi South,Kware,-1.3112904,36.87875837,4b4ffc2e7ff052223f0415415da48f9f4777ffdf,Equity Bank Donholm,-1.3021438,36.887991299999996,bank,1.4440406215428532
 Lang'ata,Karen,-1.3283746,36.7049676,e2c68416af0a30f1404d90b1121b549eb6c1cfd7,KCB ATM,-1.3388083999999998,36.6972542,bank,1.4417535786791025
 Kibra,Laini Saba,-1.31234835,36.79611435,9077c0842e49c7d13fe83dacb7ca67fb2a83d6ed,Co-operative Bank,-1.2994119,36.797017,bank,1.4410579109584871
 Ruaraka,Lucky Summer,-1.2393083,36.898786,b9f6990d2b57f263f3d9efdf3d0f1cfcb695cd8c,Equity Bank Agent,-1.2437901000000002,36.9108814,bank,1.4331113949095606
 Starehe,Ziwani,-1.2788772,36.8360883,05623a2ed2c0a8a086301514bc51e169c380ed18,M-Pesa Barclays Bank,-1.288384,36.827676000000004,bank,1.4105035143220332
 Dagoretti North,Kabiro,-1.2878118,36.7515014,a1d44dd55ae20e4fae146d6d9e35102ed1bab173,Daraja Microfinance Bank,-1.2986908000000001,36.7579734,bank,1.4065915051881344
 Lang'ata,Nairobi West,-1.3087022,36.8230975,d42586fb5b5ce80a9df786dda1a4ff3c38ac586a,Citibank N.A. Kenya,-1.2972059,36.8181816,bank,1.389368328734014
 Lang'ata,Nairobi West,-1.3087022,36.8230975,5e58f6c2c61c97984beb2da0cff8e9140d94419e,African Development Bank,-1.3003353000000002,36.8138609,bank,1.3847258273570728
 Makadara,Harambee,-1.290941,36.89721585,2d900c188a8323b5eeb4fd583009021b12f14440,Jamii Bora Bank Ltd,-1.3008243,36.8896547,bank,1.3826990576313989
 Lang'ata,Karen,-1.3283746,36.7049676,7fe4f6950024c87444ff877158a1303f21187c8a,World Vision - Agency - (ATM),-1.322816,36.716085,bank,1.3809434747178937
 Makadara,Maringo,-1.2920714,36.86572592,42ea98a4232b15aac0f179230f69c3b104007faf,Equity Bank Agent,-1.298614,36.855226,bank,1.3745309336763964
 Mathare,Hospital,-1.2616553999999998,36.84871953,839f3eacedb1aa57a69c1c1ba9eef9ef2e849a49,Chase Bank,-1.2740008999999999,36.84810700000001,bank,1.3735818305574028
 Roysambu,Roysambu,-1.2188396,36.88673920000001,01693d090028a460461ac7c31bad4875d02e152f,PesaPoint POS Jeit Pharmacy,-1.209339,36.878839,bank,1.372953094453789
 Embakasi Central,Spring Valley,-1.2477029,36.78923560000001,0ef50770f10fc5e11c851dfcb3f10dd76a003a92,Barclays Bank Headquarters,-1.2589805,36.7843404,bank,1.3661420628166174
 Kibra,Woodley,-1.3056567,36.77600465,8bfa319397e911576ccf5cff887dac48f2f00127,KCB Custody Services,-1.299236,36.765547999999995,bank,1.3633127921272767
 Embakasi East,Utawala,-1.285877,36.98408679999999,058b00e1b18e0d336d8dfe0aed20350c4ae847a2,Coop ATM,-1.290232,36.9726527,bank,1.3593586135859332
 Makadara,Makongeni,-1.2873101,36.87210716,b1f79a5985ab4afd87b19fcecf604f654e2aa44f,PesaPoint POS Kent Pharmacitical Ltd - Gulf Jogoo,-1.2902639999999999,36.883903000000004,bank,1.3509677897374546
 Embakasi West,Umoja 1,-1.2778669,36.8881172,d1344c448d0ca34211215bb241c7fa5e41007e8f,PesaPoint POS Alca System -Buruburu,-1.272437,36.877272999999995,bank,1.347422360219661
 Embakasi North,Kariobangi North,-1.3151376,36.86733961,f20b26291207cccc24d3045277aed0a140d59fe6,KCB Mashariki,-1.3096294,36.85653780000001,bank,1.347128645345124
 Starehe,Ziwani,-1.2788772,36.8360883,d6489a52adfce5da0d015fe23628be4959ef07bf,PesaPoint POS Logic Links - Cyber CBD,-1.287609,36.827749,bank,1.341595306820578
 Westlands,Kangemi,-1.2654259,36.7525183,7b5f47c51b69ad55e932d1405ac13872ad2e89cf,Chase Bank - Frawaki Investment - Waraku,-1.2627629999999999,36.76424400000001,bank,1.3358891651778808
 Mathare,Hospital,-1.2616553999999998,36.84871953,456f99371eb5d1edaf8bd13bfaefc3c6d07616a9,PesaPoint POS Nat Botanuic Investments,-1.272126,36.84308499999999,bank,1.3212485002587897
 Embakasi West,Umoja 1,-1.2778669,36.8881172,692ee4cb1ddcfe8a2ea89f08c3ab18e26197b3c4,PesaPoint POS Southend Grocers - Kariobangi,-1.266543,36.884584999999994,bank,1.3181377749654188
 Embakasi West,Umoja 1,-1.2778669,36.8881172,888c2d548fd796c94b587e03a9920ba55fb2b503,PesaPoint POS Logical Links - Kariobangi South,-1.266586,36.88474000000001,bank,1.3085356636162542
 Ruaraka,Babadogo,-1.2433103,36.8910881,00225dc30478ae7aa3c8dbc12a5748f1801e1cdd,PesaPoint POS Express Supermarket,-1.233688,36.884327,bank,1.3067471125197905
 Starehe,Ngara,-1.277803,36.8300722,567e122f37193c59ac5cfeb8b7e66ecf4f3f99b0,Family Bank,-1.2821373999999999,36.81929,bank,1.2910846956572666
 Embakasi West,Umoja 1,-1.2778669,36.8881172,1624caf07442d6b66766001126180ba601554584,PesaPoint POS East Side Mini Shop,-1.272925,36.877659,bank,1.2851278825309114
 Starehe,Nairobi South,-1.314183,36.8235852,c78012c6fe11629dbe33396a24b06bbfd395ff53,PesaPoint POS West Breeze Hotel,-1.302711,36.823049,bank,1.2762183215931435
 Embakasi West,Umoja 1,-1.2778669,36.8881172,5f9a46c96d32ceeb1e18846b5bac2f257e298bd4,PesaPoint POS Bivolex Electrical,-1.266913,36.884689,bank,1.2754466185364337
 Makadara,Makongeni,-1.2873101,36.87210716,e0d181e5c96b272c6e2e2259fbbf6807144786fc,PesaPoint POS Victory Mini Shop,-1.290848,36.88300200000001,bank,1.272633412983756
 Dagoretti South,Mutuini,-1.3,36.7,814ef554fd173021ac96bd0a507dd9c6a9625f1b,PesaPoint POS Alca Systems - Dagoretti,-1.311099,36.69750599999999,bank,1.2641164658016002
 Mathare,Mabatini,-1.2602912,36.86361626,e8dfd7aa70520e3c3e11d5e97a43a25a6c93b638,KCB ATM,-1.271412,36.861308,bank,1.2621272045741343
 Kibra,Makina,-1.30854575,36.78652379,b5c337903671d8be897546b9fee30fb8f51c25ee,KCB ATM,-1.299665,36.793513,bank,1.2557210324848804
 Dagoretti South,Mutuini,-1.3,36.7,f759c4563f15ef6473b466da32be8f7e12cbb20d,KCB Kenya Ltd.,-1.311233,36.698809999999995,bank,1.2552497924439554
 Westlands,Parklands,-1.2630616,36.8106288,fc6f63e579ee819aeaafd5d8f52c7620b6903b48,Prime Bank,-1.2609008999999998,36.82169619999999,bank,1.2527923871362598
 Embakasi South,Imara Daima,-1.3285901000000002,36.8743999,cca6c840fde91306656656da3e7f61c5dc9b4fb7,Guardian Bank,-1.3302615,36.8632534,bank,1.2521742401425249
 Kasarani,Ruai,-1.2677339,36.9911112,b842305c7b72db5c8f76b2121e69038e0090334a,PesaPoint POS Ashtom Retail shop,-1.2733,37.00089000000001,bank,1.2501421459398618
 Kibra,Makina,-1.30854575,36.78652379,1b332247fdbb9f692ab2a6eafcbc66e59653d826,PesaPoint POS Xris Ebony Berbers&Spar,-1.2990110000000001,36.792451,bank,1.2475004808350445
 Embakasi East,Lower Savanna,-1.324728,36.887724,2587e7c0aea12e45961bfe5da5e134c92fba5010,"Co-operative Bank, Embakasi Junction Branch",-1.3251110000000001,36.8988959,bank,1.2418762694866503
 Makadara,Harambee,-1.290941,36.89721585,f2c1a167978aa9a8996bf908d530f37613d2610b,PesaPoint POS Smart Shop,-1.2928,36.886199,bank,1.2412489742213355
 Lang'ata,South C,-1.3204427,36.83053678,427ac95cbca5060a3173e4fe49e153216118397c,Chase Bank - United Caterers Ltd,-1.3114940000000002,36.837052299999996,bank,1.229974009422493
 Embakasi West,Umoja 1,-1.2778669,36.8881172,b3435b7249548595fd168d50b554703c96f995fd,PesaPoint POS Conner Shop,-1.274684,36.87764,bank,1.2165439962693083
 Embakasi South,Kwa Njenga,-1.3166386,36.884663,88ec21eabb78f4180dd5ec2519ec789f45be7cae,PesaPoint POS Batian - Tassia,-1.311812,36.894439,bank,1.211294167601524
 Embakasi West,Umoja 1,-1.2778669,36.8881172,8aa3f282d2f89cf20cee2beee0ad07c47696e2d5,PesaPoint POS Tats Enterprises - Kean Company,-1.27241,36.87871,bank,1.2083002316481242
 Roysambu,Githurai,-1.2062932,36.9206391,870752d5453c80d9e680d42e458fe3e003524200,National Bank ATM,-1.1970136,36.92627020000001,bank,1.2061366332046983
 Embakasi South,Imara Daima,-1.3285901000000002,36.8743999,dfaa5dfffeeac8d1f96f30df2157d9847426bac1,PesaPoint POS Bill Investment Ltd,-1.3315,36.86395799999999,bank,1.2042704424420558
 Lang'ata,Nairobi West,-1.3087022,36.8230975,ea6304d673d66bc8c3c846577a1f2b00854f93a0,Victoria Commercial Bank Ltd.,-1.300794,36.815695,bank,1.203584105966286
 Mathare,Hospital,-1.2616553999999998,36.84871953,0eb32e39397f53d15c4f69a0ecbd5de4200027ff,Chase Bank - Medyievas International,-1.265219,36.838555,bank,1.1966822193864477
 Embakasi Central,Kayole South,-1.2659842,36.9169455,8d250ba81283e9d6fb1f297f593e9959d07a8abd,KCB ATM,-1.276325,36.914297999999995,bank,1.1861685930533352
 Embakasi Central,Kayole North,-1.2659842,36.9169455,8e4bf183bc6be95ed22f52889661e2b09168c639,PesaPoint POS Fotune 100 - Kona Mbaya,-1.27588,36.91307800000001,bank,1.180633367227681
 Lang'ata,South C,-1.3204427,36.83053678,d072a641c887ae144b486d8fbe908c7455c89c49,Ecobank-Industrial Area,-1.310341,36.8337368,bank,1.1775019355946688
 Roysambu,Zimmerman,-1.2103969,36.89522120000001,17687d3aced7768f349210cd6208bad1550ff376,PesaPoint POS Cleanshelf - Kahawa,-1.2007495000000001,36.899535,bank,1.1743193863850043
 Ruaraka,Babadogo,-1.2433103,36.8910881,5198c489375bf8c06f2983f4de633a33cd1a28d8,PesaPoint POS Oil Libya Electro Systems,-1.243487,36.880528999999996,bank,1.1732692178658115
 Embakasi South,Kwa Njenga,-1.3166386,36.884663,474e5f5a46a71a37bf047e176daa0d931ca76038,PesaPoint POS Tats - Duramed Pharmaceutical,-1.314295,36.894911,bank,1.167917092441349
 Embakasi West,Umoja 1,-1.2778669,36.8881172,4acc046479f23509c47c96ece20891a579a1fa3c,PesaPoint POS Juaglo Enterprises,-1.271917,36.879498999999996,bank,1.1635702238899155
 Dagoretti North,Kabiro,-1.2878118,36.7515014,a9d13ee977aac71bb2ee037983b6a646fb690796,PesaPoint POS Top Up Africa - Dagoretti,-1.2980129999999999,36.753714,bank,1.159954508595282
 Starehe,Ngara,-1.277803,36.8300722,b556a037bb23dab5e303c986adbede028dc9b131,Family Bank Cargen Branch,-1.2875205,36.82635689999999,bank,1.1560555704696789
 Embakasi Central,Komarok,-1.26725495,36.90524096,f9344edb4e42f15c27ba6a8b4dc62996c0c10d12,PesaPoint POS Fotune 100 - Kioi Soweto,-1.2754450000000002,36.91153,bank,1.1473875002503908
 Embakasi Central,Komarok,-1.26725495,36.90524096,bb06dd4e63c491eb7bc41e48953a217a9e539758,PesaPoint POS Bungoma East Pharmaceuticals,-1.2754450000000002,36.911509,bank,1.1459682888009457
 Roysambu,Roysambu,-1.2188396,36.88673920000001,cb705adedbb431d732fc57211e583857daf1c3b7,PesaPoint POS Sears Chemist,-1.227596,36.881503,bank,1.133693138751059
 Starehe,Nairobi Central,-1.2832533000000002,36.8172449,2765c22187f0745a2e2bfe2cebf5dcf0721c2697,PesaPoint POS Moon Livestock - Crown Moi Avenue,-1.287727,36.826413,bank,1.133398506578176
 Lang'ata,South C,-1.3204427,36.83053678,8d9a7038ae2fe9f66d0cb4c5d41e1157001581e0,PesaPoint POS Nasus Enterprises Kenyatta Market,-1.311796,36.835591,bank,1.1129005860702867
 Lang'ata,South C,-1.3204427,36.83053678,7978b04f62bb4b1a46d8137e46bee9751d4b0634,PesaPoint POS Gilyd Electrical - Shiru Market,-1.3219969999999999,36.82067800000001,bank,1.1088021129212091
 Makadara,Harambee,-1.290941,36.89721585,51e4b4afa87c3f8002212f5e3ab345c82d38b5dc,KCB ATM,-1.2955152,36.8883665,bank,1.1067660304024098
 Embakasi West,Umoja 1,-1.2778669,36.8881172,93e6fee4729e2da3deb7e07f51c1ed431668cb66,PesaPoint POS Wabcom Technologies - Buruburu,-1.272533,36.87975399999999,bank,1.1020953952107937
 Embakasi Central,Kayole Central,-1.2659842,36.9169455,e524b1dfd1187481be2d7385b53ebb608be0197a,Equity Bank Agent,-1.2577423,36.922431,bank,1.1001107458519606
 Embakasi South,Kwa Njenga,-1.3166386,36.884663,fce25cf979539a58b3b408951ba9017ecf36f02b,PesaPoint POS Batian - Pipeline,-1.316054,36.894535999999995,bank,1.0987708459538852
 Lang'ata,South C,-1.3204427,36.83053678,e8a365f323661b777321187a3e528d41d977356f,PesaPoint POS Nasus Enterprises,-1.314542,36.838451000000006,bank,1.096822468856108
 Dagoretti South,Riruta,-1.2917037,36.7346929,92c7209ef8309dc83e2f271f37eef9c7d67c4def,Postbank Uthiru Branch,-1.2821365,36.7369926,bank,1.0934240696621391
 Dagoretti South,Riruta,-1.2917037,36.7346929,85e91516a032738b227035c5a623327caed53e23,Co-op Bank ATM - Kawangware Branch,-1.2821365,36.7369926,bank,1.0934240696621391
 Starehe,Ngara,-1.277803,36.8300722,b8c017dc073ab634ce6a6e19abad8ab3e73817d8,PesaPoint POS Xris Aston Computers Tom Mboya,-1.287287,36.82757700000001,bank,1.0897581570470494
 Makadara,Makongeni,-1.2873101,36.87210716,4c5f53bc4185dbe657bd4b005ac3f69b44830194,National Bank ATM-Buruburu,-1.2792379999999999,36.877559999999995,bank,1.0824142198630142
 Embakasi South,Kwa Njenga,-1.3166386,36.884663,f53ff0068d32116ef74a8662f8eacb4a07c3eff8,PesaPoint POS Tumaini Self Service - Outering,-1.3100370000000001,36.89176700000001,bank,1.0775207351184897
 Starehe,Nairobi Central,-1.2832533000000002,36.8172449,006d51533fee559953cccb44c9cae223eafa8612,PesaPoint POS Sears - Kenya Cinema,-1.2870489999999999,36.8261393,bank,1.0744016833874417
 Makadara,Harambee,-1.290941,36.89721585,f55b06434f5a5b45794d6acc365807572f91741f,PesaPoint POS Kamindi Selfridges Donholm,-1.298453,36.891172,bank,1.0713038350136743
 Westlands,Parklands,-1.2630616,36.8106288,90311854e0740ee3fa87f0a213dab07f5ac0ba01,Diamond Trust Bank,-1.2580604,36.81886079999999,bank,1.0701817452274824
 Kibra,Lindi,-1.31516185,36.79284123,f7bae55e64a9dab93119ded98b49020ddbff8310,PesaPoint POS Limitless Technologies Ltd,-1.3241530000000001,36.796275,bank,1.069490751760402
 Mathare,Mlango Kubwa,-1.2658072,36.8456235,8d6626a418c7fc6ed8e9dac85bbddb373584fc63,KCB ATM,-1.2654809999999999,36.836009999999995,bank,1.068655612420922
 Embakasi South,Kwa Njenga,-1.3166386,36.884663,9f4ff610e62acf5182546d695ba91b99490e5dd2,PesaPoint POS Top Up Africa - Outering Road,-1.31097,36.892346999999994,bank,1.0609151447373149
 Starehe,Ziwani,-1.2788772,36.8360883,94fc5ad7e58ad5e1dda10dec95b14240538bb2c3,Family Bank-Ngara,-1.276419,36.826885,bank,1.05832519369878
 Embakasi East,Utawala,-1.285877,36.98408679999999,dac5d64fecb395a89385871539e1e681eda91242,KCB Connect Agent,-1.2890507,36.9751833,bank,1.0501450473908691
 Starehe,Nairobi Central,-1.2832533000000002,36.8172449,d27cb9fd807b00036ce771d011e5d41c061643fe,Co-operative Bank - Parliament Road,-1.2914921999999998,36.82182470000001,bank,1.0474298214596514
 Makadara,Harambee,-1.290941,36.89721585,18f1d4b6af51be4f73ec422f17d4e0add4192300,PesaPoint POS Surfworld Technologies,-1.298088,36.891081,bank,1.0465648767548728
 Embakasi West,Umoja 1,-1.2778669,36.8881172,c2b6363be10c7cbe78c5f6506dbdfee0c3456131,PesaPoint POS Mwea Traders,-1.285925,36.883265,bank,1.0451967474763966
 Starehe,Ngara,-1.277803,36.8300722,3dcb306b2af0fe17e52825bff5359714995fe9da,Family Bank,-1.2865115,36.8265294,bank,1.0447127164822527
 Westlands,Parklands,-1.2630616,36.8106288,5d539901bc1ddb1f7d51d37d30d9617a1f3d8253,Diamond Trust Bank,-1.2572113999999999,36.80333020000001,bank,1.0392939555366183
 Kamukunji,Pumwani,-1.2797575,36.8442693,2c7e60930634873acb83e85d3590ed8077653292,Century Deposit Taking Microfinance Limited,-1.285295,36.83678370000001,bank,1.0345386508546872
 Dagoretti North,Kilimani,-1.2874422,36.7845225,48007a9ba8aa7ec7d3193f775a5affd1fe0a33a5,Juhudi Kilimo,-1.2934421,36.7916282,bank,1.0333091913770072
 Westlands,Parklands,-1.2630616,36.8106288,fa7efaff432a9c1af3143da650c2bd1bc93b2f92,PesaPoint POS Sisi - Agip House,-1.263003,36.801361,bank,1.0296556971408413
 Kibra,Makina,-1.30854575,36.78652379,217e8b2823cf1dd889cf91a41eeea0a2bddd6a9c,Standard Chartered Bank ATM,-1.3000399999999999,36.79009,bank,1.0248787178122076
 Makadara,Harambee,-1.290941,36.89721585,dad0d4622f080bae2d9d5d051511449a25790d2c,Equity Bank Agent,-1.295783,36.889386,bank,1.022835778514653
 Kibra,Laini Saba,-1.31234835,36.79611435,5a14f1174ec2045123c24cf48acd0fac913f5dec,PesaPoint POS Sound Entertainment,-1.306347,36.803008,bank,1.0155266771037326
 Ruaraka,Lucky Summer,-1.2393083,36.898786,bb901d59172440bdc243bd45a78adefe7479218f,Co-op Kwa Jirani Lynn Communications Ltd,-1.2425,36.9073,bank,1.0102070381329225
 Westlands,Mountain View,-1.27113135,36.74300262,b38baa306d2289b8739c60c28741bca64e58291f,KCB Mtaani Jennifer Kabura Mwangi,-1.2749190000000001,36.734786,bank,1.0052113507948686
 Westlands,Parklands,-1.2630616,36.8106288,12f58f92c34a70b527a88692abe84d95d2385292,Standard Chartered Bank,-1.2720544,36.8098282,bank,1.0032763863722538
 Dagoretti North,Kawangware,-1.2784631000000002,36.751643,55374ab896bf35a788a06e162140cbbb8ffb81b5,PesaPoint POS Setellite Supermarket,-1.280278,36.742841,bank,0.9984604970956948
 Dagoretti South,Riruta,-1.2917037,36.7346929,2bc2c21391109a92741c4a73e13d613f2f8a203d,PesaPoint POS Mt. Moriah - PC. TTI,-1.284206,36.729773,bank,0.9964688260699132
 Makadara,Makongeni,-1.2873101,36.87210716,60f1f61788bee2091dabbfee728086a2f0d73ec8,PesaPoint POS Mark G Shop,-1.280203,36.877536,bank,0.9937367913150962
 Lang'ata,Nairobi West,-1.3087022,36.8230975,004d7fb30f2fdc4cf2b2d693e3402070982c0a22,Co-operative Bank,-1.2999212,36.8215539,bank,0.9907439708093964
 Makadara,Makongeni,-1.2873101,36.87210716,b17c960e6fcd69561705c8848669aa12705805a3,Standard Chartered Bank ATM,-1.287593,36.880969,bank,0.9850261651137642
 Starehe,Nairobi Central,-1.2832533000000002,36.8172449,1a146ade489f1015ebc0a3209bf8d68c0e70b90b,PesaPoint POS Rangechem Pharma - Old Uchumi,-1.286821,36.825317999999996,bank,0.9806163088771858
 Embakasi Central,Spring Valley,-1.2477029,36.78923560000001,a6a94bf814ac1354e7a75ce636772e79fe7a786d,PesaPoint POS Innscor - Creamy Inn,-1.253559,36.795819,bank,0.9790016310864372
 Embakasi South,Kwa Njenga,-1.3166386,36.884663,09156d49e8086de333e9b879e7ef4cf07a8ba231,PesaPoint POS Tassia Outering Road,-1.310262,36.89072700000001,bank,0.9777355771035414
 Dagoretti North,Kawangware,-1.2784631000000002,36.751643,85202d5a3cb7c788641f967444db308e69c91e34,PesaPoint POS Mt. Moriah - Bei Rasmi,-1.280524,36.743109000000004,bank,0.975373117990192
 Dagoretti South,Uthiru,-1.2631329,36.7188955,097f71c6ce721e268ad463de6b71cdee3ab27ea8,Equity Ndumbuini Branch,-1.2548516,36.7217535,bank,0.9734975408500516
 Makadara,Makongeni,-1.2873101,36.87210716,44ad20844f4a1efcaffacc031dc9e3e21f3fba21,Equity Bank Buru Buru,-1.282729,36.879552200000006,bank,0.9712310852893918
 Westlands,Parklands,-1.2630616,36.8106288,3b44682673e5258bb0eadcf5014a5cf813b1f973,Standard Chartered Bank - Head Office,-1.2717108999999998,36.8094185,bank,0.9705142177097322
 Makadara,Makongeni,-1.2873101,36.87210716,a49a15802ff9f6cb4761be6a0fc86a8fec773269,Co - operative Bank,-1.2831242,36.87977410000001,bank,0.9705120285563916
 Lang'ata,Karen,-1.3283746,36.7049676,be88ef4e7d7d8fc444df1ab06f38b9de5d046412,Stanbic Bank - The Hub Karen,-1.3198492,36.703072999999996,bank,0.9704858277097884
 Starehe,Nairobi Central,-1.2832533000000002,36.8172449,b23b8c530e5e4b2677a33aa29aa39fd2d14d8554,KCB Milimani,-1.29014,36.811913,bank,0.9677552997291622
 Embakasi South,Kwa Njenga,-1.3166386,36.884663,63e40e65114b97b88f87ada3156ffa16b38ffaa0,PesaPoint POS Xris Pharmore Pharmacy - Avenue Park,-1.3134270000000001,36.89272199999999,bank,0.9638311566850222
 Starehe,Ziwani,-1.2788772,36.8360883,feac0460442dd6401008ff7722e9fc84e72387b8,Co-operative bank Naccico branch,-1.2873999,36.8374736,bank,0.9595092698563448
 Lang'ata,Karen,-1.3283746,36.7049676,d6611f1e0e35cb80b05ffbc50cef6d0cb6ee91b4,Absa | Atm | Karen Hub,-1.3197661,36.70447470000001,bank,0.9581865153334552
 Ruaraka,Babadogo,-1.2433103,36.8910881,2141faa1dcd40128694fa7993bac7cee6dc857b4,KCB ATM,-1.2457340000000001,36.88282,bank,0.9572482094467007
 Embakasi Central,Komarok,-1.26725495,36.90524096,f451dbcdde7a1161136acd361d49bfc91dcedcc5,Equity Bank Kayole,-1.2737532,36.9108938,bank,0.9570068923498982
 Makadara,Makongeni,-1.2873101,36.87210716,6be73f98123ed453867452fec93b0fef1a6dca30,Co-operative Bank of Kenya,-1.283462,36.879809,bank,0.9565565817392676
 Westlands,Parklands,-1.2630616,36.8106288,1c22030eb40394eddfde93b6b4dd84d69d6cdf94,Standard Chartered Bank Westlands Branch,-1.2632216,36.802027100000004,bank,0.9557979994672828
 Dagoretti South,Waithaka,-1.2833,36.7166,a01e01d708de19b5a704f9da833bd83c228c5ece,Equity Bank Agent,-1.275167,36.71382,bank,0.955095863140074
 Lang'ata,Karen,-1.3283746,36.7049676,7578cf7cde81939f32b473ab9ac2076e996e44e1,Diamond trust bank (k) ltd-karen hub branch,-1.31982,36.704432000000004,bank,0.9524912983144648
 Kasarani,Ruai,-1.2677339,36.9911112,6fe06f4ec26f2126cc2ea7087d2ad29af9c6d0ea,PesaPoint POS Quick Mart - Ruai,-1.27197,36.99853,bank,0.9491678950716252
 Embakasi West,Umoja 1,-1.2778669,36.8881172,712ee0f06598a563f0c99d286bc54355fab8e33a,Chase Bank - Power Point General Suppliers,-1.285677,36.884725,bank,0.9461892305612286
 Makadara,Makongeni,-1.2873101,36.87210716,24fa14f798254712c7b5b78916e618827c7f2509,KCB Buru Buru,-1.2883975,36.88055039999999,bank,0.9457702290621448
 Kibra,Makina,-1.30854575,36.78652379,348e5d62529ccd7e73a2925b18beb2d94dd718ba,Nic Bank,-1.300106,36.7869884,bank,0.9392874828655312
 Starehe,Nairobi Central,-1.2832533000000002,36.8172449,25bf4e83d34dec8948d0b0a27e252c8c625f582f,Kencom Sacco Society Ltd,-1.2860271,36.8252078,bank,0.9368174796115548
 Makadara,Makongeni,-1.2873101,36.87210716,c8c45845350ad13e27b119a69c10d27ee2687513,Stanbic Bank-Buruburu,-1.2826375,36.87912339999999,bank,0.9365945917417718
 Lang'ata,Karen,-1.3283746,36.7049676,b633239540b7827cba98f55efaaff57f1382b466,Post Bank - Karen Branch,-1.320302,36.707382,bank,0.936311245956238
 Dagoretti North,Kabiro,-1.2878118,36.7515014,513eb20fbb9115672dc34a72130729e4808e9c7c,Unaitas Sacco - Kawangware Branch,-1.2883763000000001,36.7431092,bank,0.9344564316606966
 Dagoretti North,Kabiro,-1.2878118,36.7515014,dc09ce48becbe740bd50235bb69499b98c0b86d3,Co-Operative Bank,-1.2884018,36.74312929999999,bank,0.9324233928240764
 Embakasi Central,Komarok,-1.26725495,36.90524096,e8e313339c318480e1c3e0b20c2d2cdfca255393,Pioneer FSA Savings and Loans,-1.2726678999999999,36.911627100000004,bank,0.9301562253651392
 Starehe,Nairobi Central,-1.2832533000000002,36.8172449,91780ba15700166a4aeb50f3cd866276587b2059,KCB Corporate - Moi Avenue,-1.2859459999999998,36.825152,bank,0.928020721944333
 Mathare,Huruma,-1.25764595,36.87259835,1bf5aefd9f24e46eefd09b34c0b06ce5ac288386,PostBank,-1.2620958,36.8796403,bank,0.925521115348695
 Starehe,Nairobi Central,-1.2832533000000002,36.8172449,9a07dfb1cc82be8a1c0a2661292a9f1787516c9d,KCB Corporate - Kencom House,-1.285882,36.82512,bank,0.922379247617923
 Roysambu,Githurai,-1.2062932,36.9206391,5ac36832e5edddf1aa96fdf005679d8234832d8b,Post Bank - Githurai Branch,-1.2017129999999998,36.913719,bank,0.9220362982096644
 Embakasi Central,Komarok,-1.26725495,36.90524096,5f1ba4b516596dd19718bff139ba7c5537b7a6d3,Pioneer FSA,-1.2727469999999999,36.911460999999996,bank,0.9219534758407912
 Dagoretti South,Riruta,-1.2917037,36.7346929,2289aac60f431d77fb53a3cd65de74e707bdbc9b,Equity Agent,-1.2839357,36.7318224,bank,0.9202436453485764
 Starehe,Nairobi Central,-1.2832533000000002,36.8172449,c39d0c9bb18533dcaddffc550910c7aaf494a66f,Bank of Africa Kenya Ltd,-1.2874847,36.82436369999999,bank,0.920103583765166
 Lang'ata,Nyayo Highrise,-1.31600475,36.80173345,0d52d751b1a25daabd8940eabc92fc4511caae85,National Bank ATM-Uchumi L,-1.324201,36.80289500000001,bank,0.9199051828256836
 Kibra,Makina,-1.30854575,36.78652379,82b04c3e2b511081ef061d66db0f0fe8fcbe7163,PesaPoint POS Pharmart Chemist Ltd - Prestige,-1.300727,36.783814,bank,0.9195360196450764
 Dagoretti North,Kabiro,-1.2878118,36.7515014,276a2eac0ea6af8dcf2851d5599fd21e00b7bdfe,Cooperative Bank Kawangware,-1.2883582,36.74326110000001,bank,0.917484256409826
 Dagoretti North,Kabiro,-1.2878118,36.7515014,83b0235de020397b66aaf1bb808e5c6f8839d670,PesaPoint POS Mt. Moriah - Kabira Self Selection,-1.295648,36.748945,bank,0.9159425733072768
 Kibra,Makina,-1.30854575,36.78652379,7d87bda98fc194e7ef0833b726c14b7bf7f46e07,Faulu Kenya HQ,-1.3004432,36.785150200000004,bank,0.9132367576365582
 Kibra,Laini Saba,-1.31234835,36.79611435,207fc8c444b661a574a7d08d86d12f13dc4334c0,K - Rep Bank Kenyatta Market,-1.3068978999999998,36.80225120000001,bank,0.9119619079604864
 Kibra,Makina,-1.30854575,36.78652379,a587c7161bcbc889ad2063b8fc1edcc9855b012d,Faulu Kenya,-1.3004961000000002,36.78508239999999,bank,0.9087384378942146
 Roysambu,Roysambu,-1.2188396,36.88673920000001,16dffdd1020c093ea61d82c861537a0f1fb8b562,PesaPoint POS Xris Enterprises USIU,-1.216161,36.879042999999996,bank,0.9053775065677904
 Dagoretti South,Riruta,-1.2917037,36.7346929,1efc15adb053a64447dc3211b40a52df42894b36,Equity Bank Agent,-1.290741,36.72660800000001,bank,0.90455574358394
 Dagoretti North,Kilimani,-1.2874422,36.7845225,dd56c7825e507f726a0a1fa81b28aa069ceb9115,PesaPoint POS Barricom - Kanu Complex,-1.295428,36.786072,bank,0.9039652819098634
 Kamukunji,Pumwani,-1.2797575,36.8442693,8361a99efe8c4cd9a8a61475fd0f589f3047d821,KCB Gikomba,-1.284914,36.83799000000001,bank,0.9027802672449702
 Lang'ata,Karen,-1.3283746,36.7049676,aa021170a30af98df65d2934824e5a92d859bcc1,NCBA The Hub,-1.320324,36.70413399999999,bank,0.8994043957688902
 Lang'ata,Karen,-1.3283746,36.7049676,0aa9c22b8dd5e50de38170956374c92b728adf92,NCBA Karen Hub 2 - (ATM),-1.320324,36.70413399999999,bank,0.8994043957688902
 Embakasi Central,Komarok,-1.26725495,36.90524096,542e7a77645c8fd06480eaff1274ed7303c374b8,PesaPoint POS Plan B Bar & Restaurant,-1.275156,36.90697,bank,0.8987727391271642
 Starehe,Ngara,-1.277803,36.8300722,3d0fe6ec0d8539644345347f92c564490e58d0af,Postbank - Kenya Post Office Savings Bank,-1.2826915,36.82370960000001,bank,0.8914970395460516
 Dagoretti North,Kawangware,-1.2784631000000002,36.751643,a67ed23ec35b08e7178daf0b1505cfcb3219aec3,PesaPoint POS Top Up Africa - Kawangware,-1.2819399999999999,36.744412,bank,0.8914291123872019
 Dagoretti North,Kabiro,-1.2878118,36.7515014,5f62911fc63d90893176c6338c9396ec2d90a997,PesaPoint POS Mt. Moriah - Citizen Shop,-1.295509,36.749256,bank,0.8909860742063122
 Mathare,Mlango Kubwa,-1.2658072,36.8456235,052ff41b782378183fd2d44033e179ed0adbdd6c,Postbank Eastleigh Branch,-1.2721919,36.85047160000001,bank,0.890783649235548
 Embakasi Central,Komarok,-1.26725495,36.90524096,741295b6ca0f8b0325f5cac68f86b26e4fdd0411,PesaPoint POS Mt. Moriah - Mama Fred,-1.2680120000000001,36.89726100000001,bank,0.8905394989121179
 Embakasi Central,Komarok,-1.26725495,36.90524096,37d3a942c6f6433e3b4628d887412dc4c902dede,Rafiki Microfinance Bank - Kayole Branch,-1.27241,36.91137459999999,bank,0.8902335691238831
 Ruaraka,Utalii,-1.25571935,36.8612155,80e817ccb1290f76e8fe8a2b39f674d762734c7c,Ardhi Sacco Ltd,-1.248314,36.85820820000001,bank,0.8881583477638391
 Kibra,Makina,-1.30854575,36.78652379,0c0ab0e402cb596c4d073ec31b1be713187ec58c,PesaPoint POS Dove Chemist Ltd,-1.3005659999999999,36.786861,bank,0.8875416215542159
 Starehe,Ngara,-1.277803,36.8300722,6bf549aa57d09882526525243c9d9464bea204c1,https://www.sc.com/ke,-1.2843813,36.825615600000006,bank,0.8829055426254047
 Roysambu,Githurai,-1.2062932,36.9206391,3690bb43958a232bf1fc0fb2a9518b8990d0ceb3,Co-op Kwa Jirani Damaris Wairimu Thotho,-1.1988,36.9232,bank,0.8799492928802177
 Roysambu,Githurai,-1.2062932,36.9206391,e25adcba1eb0c890518c8f8778c01f9d34db0052,Co-op Kwa Jirani Grace Wanjira Mwehia,-1.1988,36.9232,bank,0.8799492928802177
 Roysambu,Githurai,-1.2062932,36.9206391,2c59ab1351c4451f8422a449faaa2b75047cd96c,Co-op Kwa Jirani Regina Wanjiku Migwi,-1.1988,36.9232,bank,0.8799492928802177
 Embakasi West,Umoja 1,-1.2778669,36.8881172,91e1683410e66d8161dc05b7e8316b7103ac8ac9,Chase Bank - Fair Deal Solutions,-1.2847654,36.884263399999995,bank,0.8780547192228789
 Kibra,Makina,-1.30854575,36.78652379,1c91caea8610fb3cfda57573f1dc343e320b5adc,PesaPoint POS Arata Services - Prestige Plaza,-1.3006950000000002,36.787258,bank,0.8762203601951161
 Kibra,Woodley,-1.3056567,36.77600465,e090e308f27efcbcb3077a7fab8b14bbce020aad,Jamii Bora Bank-Ngong Road,-1.300465,36.781936,bank,0.8758214850189835
 Roysambu,Githurai,-1.2062932,36.9206391,06b59aeddb0103802ce26871dc01b28f9c6fb67a,Co-op Kwa Jirani Sophia Kenyambi Nyanchama,-1.198839,36.923161,bank,0.8744513902027777
 Roysambu,Githurai,-1.2062932,36.9206391,1d54664bd9d56c415f9098c05af19bb3cac9ccdf,Co-op Kwa Jirani Lydia Njeri Karere,-1.198839,36.923161,bank,0.8744513902027777
 Roysambu,Githurai,-1.2062932,36.9206391,2cb9e1f16b3c5bcaf799e931b8d884892c6ebb0a,Equity Bank Agent,-1.205661,36.928482,bank,0.8741776262194616
 Kibra,Woodley,-1.3056567,36.77600465,e3f27499e974e6399229b11dae1b536f7d42a78c,PesaPoint POS Xris Quick Pay Solutions,-1.300083,36.770457,bank,0.8737758634206015
 Dagoretti North,Kilimani,-1.2874422,36.7845225,6d6955653d69df4e33b6bbe62f0d16424c3a08b3,PesaPoint POS Barricom - Complex,-1.29498,36.786738,bank,0.8730529294223041
 Lang'ata,Karen,-1.3283746,36.7049676,f77da335d86154ae4558f1cc593aa016110aa57c,Equity Bank Karen Supreme Centre,-1.32054,36.70480999999999,bank,0.8707968501629402
 Embakasi South,Kwa Njenga,-1.3166386,36.884663,cbc882d3f4b8056467b681006597ffc20d1b95ba,PesaPoint POS Tats - Kimya General Shop,-1.3226719999999998,36.879778,bank,0.8625806153943747
 Embakasi West,Umoja 1,-1.2778669,36.8881172,520bd7bf2b117c6fb9ecb297a831ce2f36160a55,PesaPoint POS Oil Libya - Josco Ltd,-1.283517,36.882806,bank,0.8616201884230272
 Kibra,Laini Saba,-1.31234835,36.79611435,7573510f8a3f639ab8a170d554b140a571763144,Housing Finance,-1.3066616000000002,36.80137209999999,bank,0.8605463284482022
 Dagoretti South,Waithaka,-1.2833,36.7166,d371c8862ff03fd5a005bc643cd6fdc6e9e67299,PesaPoint POS Logical Links - Uthiru,-1.280219,36.709495000000004,bank,0.8604006893064673
 Kasarani,Ruai,-1.2677339,36.9911112,86714cf46bb067aebdcb9cfb655d78208e36e874,PesaPoint POS Esmiga Investment,-1.264269,36.984196000000004,bank,0.8593512726525723
 Dagoretti South,Riruta,-1.2917037,36.7346929,333a2fa253ad222752c6819941bd7f3a76bec841,Caritas Microfinance Bank,-1.2845517,36.73756039999999,bank,0.8562368822888444
 Embakasi Central,Komarok,-1.26725495,36.90524096,cdf86c79314143da682ffba13e32bf2453476762,Family Bank,-1.2723836000000002,36.9109672,bank,0.8541233549644004
 Dagoretti North,Kilimani,-1.2874422,36.7845225,93ec799f8a17a1a14f0f830c289aa7c94690b7b1,Jamii Bora Bank,-1.2928289,36.7899874,bank,0.8526021680257984
 Westlands,Parklands,-1.2630616,36.8106288,9fcc0cb24088840bfadd9545f98214dce955dade,Spire Bank-Westlands,-1.2639690000000001,36.803013,bank,0.8520882304343913
 Lang'ata,Karen,-1.3283746,36.7049676,e72b53b64735acdda95e1db7a0e51cff8833daa8,Chase Bank - The Hub Karen,-1.3207726,36.70431479999999,bank,0.8478804222128709
 Kibra,Woodley,-1.3056567,36.77600465,cd251e67b1c669f0895825050879d89486c0c992,Waumini Savings & Credit Society Ltd,-1.2995945,36.7806092,bank,0.8458744984809985
 Dagoretti North,Kilimani,-1.2874422,36.7845225,35936c5c7ffbb2f41a86ea95de800b6b9061171b,Jamii Bora Bank,-1.2929618,36.789733399999996,bank,0.8434220162097505
 Lang'ata,South C,-1.3204427,36.83053678,ea6143e0b04acfccacfd3a6d82d3327d9c7b0d9a,PesaPoint POS Tucha Wholesalers,-1.313504,36.827553,bank,0.8392984742294993
 Lang'ata,South C,-1.3204427,36.83053678,424c0cf3e163e00d7279afcbecd0a97731781d4b,PesaPoint POS Innscor Kenya Ltd,-1.3202459999999998,36.83807,bank,0.8371930598651641
 Embakasi Central,Komarok,-1.26725495,36.90524096,84b07dca5f973f0ed1bd40686bcd06ab5e031229,KCB Mtaani Benson Katheru Mwaniki,-1.259814,36.904094,bank,0.836637167872787
 Mathare,Huruma,-1.25764595,36.87259835,432e21e632929f97f84e1bc22d6eab8dbccf1ed8,Jamii Bora,-1.2609226999999998,36.8793654,bank,0.8353470654649919
 Kibra,Woodley,-1.3056567,36.77600465,5e1108f9aa914f26c707075cd650aec38fcfa2d3,ABC Bank,-1.300611,36.781559,bank,0.8337637831995746
 Mathare,Huruma,-1.25764595,36.87259835,01be7afc77980dd411aaeb1a096b16e3abe8a914,Co-Operative Bank Kariobangi,-1.2608691,36.8793708,bank,0.833309608531009
 Dagoretti South,Riruta,-1.2917037,36.7346929,a2931cf3a9426dc2bc279611b8e6e1f8864bcee9,Jamii Bora Bank-Kawangware,-1.284831,36.737464,bank,0.8234447316404822
 Embakasi South,Imara Daima,-1.3285901000000002,36.8743999,bb7202c701f9c0b3b13854f05d495f8a448cda06,National Bank-Sameer,-1.32991,36.86711,bank,0.8230476872416712
 Kasarani,Ruai,-1.2677339,36.9911112,10d4018f308aa41c9a168eaabe1630515983d11a,Eagles4cus Sacco Ltd,-1.2719448999999998,36.99718010000001,bank,0.8207173053849905
 Westlands,Parklands,-1.2630616,36.8106288,6c68e2361c4346fc50efb275342306452178accc,PesaPoint POS Westlands Medical Centre,-1.270404,36.81002400000001,bank,0.8186870162059254
 Dagoretti South,Riruta,-1.2917037,36.7346929,49f5ef711a59ec959fcca5e0fe87874961440e6e,Jamii Bora Bank,-1.284905,36.7374816,bank,0.8165634715834904
 Embakasi South,Kwa Njenga,-1.3166386,36.884663,0470c77c0bad8c294e2c68284c65f0b2309b4ec9,Co-op Kwa Jirani William Ndungu Muchai,-1.317,36.891999999999996,bank,0.8160983965199308
 Embakasi South,Kwa Njenga,-1.3166386,36.884663,a6eb5247a69727ed1af8ab118f3918f5538cd9cf,Co-op Kwa Jirani Samuel Waiganjo Nyoro,-1.317,36.891999999999996,bank,0.8160983965199308
 Embakasi South,Kwa Njenga,-1.3166386,36.884663,95f33451f4c9ffb8c8ac453347b0824b057acf3d,Co-op Kwa Jirani Joseph Kairu Ndungu T/ A Simba Housing Agencies,-1.317,36.891999999999996,bank,0.8160983965199308
 Dagoretti South,Riruta,-1.2917037,36.7346929,98fb82d2076f012811bad03d6152d6f4b65a60e0,Equity Bank Kawangware,-1.2850214,36.7377313,bank,0.8156942186669908
 Mathare,Mlango Kubwa,-1.2658072,36.8456235,6e0f66309c79bc8e1bdb975082ceb20951fab1c9,PesaPoint POS Home Choice Pangani,-1.271981,36.841675,bank,0.8143189878994553
 Ruaraka,Mathare North,-1.251788,36.87077217,ccc0ebb692806ee632bb5b8a1130ca66384799e8,Barclays Bank,-1.2452566,36.86749929999999,bank,0.8117898967258373
 Mathare,Kiamaiko,-1.25377765,36.87573249,f10ef746691cbfab534b74b2bcf977c94d6b52f6,Co-op Kwa Jirani Caxton Mwangi Mundia,-1.2578,36.8818,bank,0.8088220966137888
 Makadara,Makongeni,-1.2873101,36.87210716,762508b365fa67ea5fb13e94d6ce83c09d501a5a,PesaPoint POS Rangechem Pharmacy - Buruburu,-1.286729,36.879343,bank,0.8064701287289335
 Lang'ata,Karen,-1.3283746,36.7049676,0685d288fe9199a81bf0cd84ab59e4409427d785,Commercial Bank of Africa - The Hub Karen,-1.3213454,36.70366370000001,bank,0.7944388608791493
 Lang'ata,Nyayo Highrise,-1.31600475,36.80173345,b2dc5cd37cc3ffa1283cb2fff351d54ed8310608,KCB Advantage - Westgate,-1.322563,36.798916999999996,bank,0.7931159699806526
 Starehe,Ziwani,-1.2788772,36.8360883,04ec0b6f2adbc296cb437c2947f09c7edd5c9741,Diamond trust bank,-1.2846383,36.831933299999996,bank,0.7892673191741169
 Starehe,Nairobi South,-1.314183,36.8235852,29e78d84a9911c4574614727863c263cf1d9ea4d,Standard Chartered Bank ATM,-1.312484,36.816697999999995,bank,0.7880894549864416
 Ruaraka,Babadogo,-1.2433103,36.8910881,8ea8c975d6998cb56fae13a7907067b7481c3fee,PesaPoint POS Acacia Jubilee Insurance - Baba Dogo,-1.244398,36.88408,bank,0.7879186944746721
 Mathare,Kiamaiko,-1.25377765,36.87573249,bd18acd6f51149bb296e72d2490999e894ed115f,Family Bank-Kariobangi,-1.2598608,36.8793547,bank,0.7867062129286714
 Embakasi South,Imara Daima,-1.3285901000000002,36.8743999,ee0d2f62a76ba91fad4334f14861918598e3462a,Gulf Bank,-1.3299691999999999,36.8674709,bank,0.7848857333444142
 Ruaraka,Mathare North,-1.251788,36.87077217,6865f267db9cf42f317732bec65b779e70cff200,Barclays Bank,-1.2459612,36.86682090000001,bank,0.7822822543302959
 Westlands,Parklands,-1.2630616,36.8106288,1035de91630f25e8cd7c54391642202ee72bc103,Ecobank-Westlands,-1.2593889999999999,36.804637,bank,0.7808250565194021
 Mathare,Hospital,-1.2616553999999998,36.84871953,d2870f6f1cf880ab00beb811b6c19a319161105c,PesaPoint POS Mt. Moriah - Mobile Expert,-1.268023,36.851652,bank,0.7789983003622546
 Embakasi North,Dandora Area 2,-1.2484935,36.89734979999999,a965283e917e97f1ef0d819bcde830f78c83aa3e,Postbank Dandora Branch,-1.2482209999999998,36.904351,bank,0.7784137109341279
 Ruaraka,Korogocho,-1.2514893,36.8903648,31b5eaf639d2bbe6c53f09fa11c11f3cdb83af60,Post Bank,-1.2579511,36.893044,bank,0.7773162372094687
 Embakasi East,Upper Savanna,-1.324728,36.887724,60d4ffcc57cb5b395e33ea64f164a0aadab64e2e,"NIC Bank, Even Business Park, North Airport Rd",-1.3282664,36.89371060000001,bank,0.7726228547825017
 Dagoretti North,Kilimani,-1.2874422,36.7845225,b7d900a024c743f2a2a452d2cff7b52798bca448,Fidelity Bank-Kilimani,-1.288492,36.79138100000001,bank,0.7708378080724866
 Kasarani,Njiru,-1.2539022,36.9343299,00cfddc30d9654125898fbd6f66c5d9741bd862f,SUNDA BANK AGENT,-1.2521864999999999,36.92761410000001,bank,0.7700900443414967
 Roysambu,Githurai,-1.2062932,36.9206391,9177f019a7db327076982743e1b182830d6bb0d7,Postbank Githurai Branch,-1.206415,36.913793,bank,0.7607254366634901
 Roysambu,Githurai,-1.2062932,36.9206391,6ef42c68d29771d6d60f98c0bccff7d496f228bf,Family Bank,-1.2064151,36.913794,bank,0.7606145515821049
 Starehe,Nairobi South,-1.314183,36.8235852,1130e2b9d6a95de806ee8ed2385189ef31a5d385,PesaPoint POS Rangechem Pharmaceutical - Tmall,-1.3121180000000001,36.817127,bank,0.7532829393394885
 Mathare,Kiamaiko,-1.25377765,36.87573249,719995fc43ff37c1fb65ec092319b113b5fa1127,Faulu Kenya,-1.2595174999999998,36.8793386,bank,0.7532254377446187
 Mathare,Huruma,-1.25764595,36.87259835,ba54896f211e2fd37b6f876b9965276084ed5dd2,PesaPoint POS Magson 2 Investments,-1.2602042,36.8788682,bank,0.7523480926443588
 Lang'ata,Nyayo Highrise,-1.31600475,36.80173345,84fd2a621e773fe83511545ce0cbb7922d38d8b1,Chase Bank - Montana Trading & Ventures Limited,-1.3227659999999999,36.801613,bank,0.7514638262336992
 Westlands,Parklands,-1.2630616,36.8106288,18a8604a1f15f9b30a015863ec97cdf1c91c8803,Paramount Bank,-1.2640258999999998,36.80396079999999,bank,0.7485122237781002
 Roysambu,Githurai,-1.2062932,36.9206391,156b6d25ff80fecc785f4c3610cbc1d9472c2f16,Southern Star Sacco - Githurai Branch,-1.2063266000000001,36.913931899999994,bank,0.745182415849683
 Kasarani,Mwiki,-1.2322833999999998,36.9275102,6a4a0d1b0110f1cf22e45feb4703fccea9c6aec4,PesaPoint POS New Season Super Market,-1.226577,36.924061,bank,0.7409179312651915
 Mathare,Kiamaiko,-1.25377765,36.87573249,c568d7d51b5bd932f6064999943e6d034f97fafa,Co-op Kwa Jirani Patrick Ndegwa Gatungu,-1.2544,36.8823,bank,0.7329107431173301
 Westlands,Parklands,-1.2630616,36.8106288,10ffecbb8393601dfe64cfffe33d46dc9e40089a,Bank of India,-1.2588472,36.805675799999996,bank,0.7225824200730651
 Kasarani,Njiru,-1.2539022,36.9343299,9401beb1947dac25e0334c2fb312112f4b337544,Advance Acceptances Limited,-1.2504354,36.939825299999995,bank,0.72191736903438
 Dagoretti North,Kilimani,-1.2874422,36.7845225,2f139aab2800af3b3a0a2526a4dcb84e5d3fdcbc,PesaPoint POS Arata Services Limited,-1.2928110000000002,36.788181,bank,0.7219015354422196
 Dagoretti North,Kilimani,-1.2874422,36.7845225,db02890574e3d3da2ca4a7833ca401f08267eb37,Barclays Bank Yaya Center,-1.2930532,36.787757899999995,bank,0.7197084417428832
 Starehe,Ngara,-1.277803,36.8300722,c3a37649f295a9215f97196ff1b29ed7b66d480b,KCB River Road Branch,-1.2813290000000002,36.82463900000001,bank,0.7196380140363087
 Kamukunji,Pumwani,-1.2797575,36.8442693,3c7fb7f40107fdf0c30975b5f3aaf2c8f8e89a05,PesaPoint POS Mt. Moriah - Gikomba,-1.285174,36.84072800000001,bank,0.7190833530005196
 Starehe,Nairobi Central,-1.2832533000000002,36.8172449,0350b66c39210d63e9a140900ab462fadb0e8b1f,PesaPoint POS Tats Enterprises,-1.285882,36.82314,bank,0.7171212961723783
 Dagoretti North,Kabiro,-1.2878118,36.7515014,1862a978f3f4a35f9622e3b7a303231397dd8220,Equity Bank Agent,-1.2903851999999998,36.7456064,bank,0.7146288723652309
 Embakasi East,Embakasi,-1.324728,36.887724,0da503e549e05991f8cb54ebf595f52d04e78cc7,PesaPoint POS Tats - S.M Shop,-1.323364,36.881446000000004,bank,0.713737633776084
 Starehe,Nairobi Central,-1.2832533000000002,36.8172449,1ef2000497b59c4473e2eefbed26a154b4e496dc,Fidelity Commercial Bank Ltd.,-1.284634,36.8234924,bank,0.7108359328887537
 Dagoretti North,Kilimani,-1.2874422,36.7845225,743698761e43370d702d84705bd3d42091cd2508,Standard Chartered Bank ATM 2,-1.292827,36.787954,bank,0.7095083437006141
 Dagoretti North,Kilimani,-1.2874422,36.7845225,3cb85619010c0d1337bc0f0d93ef305204675d56,PesaPoint POS Uvacorp,-1.292693,36.78814800000001,bank,0.7090138275774982
 Dagoretti North,Kilimani,-1.2874422,36.7845225,856cdde1e8ae9b1344edcbb0ba13b261a98d47fc,M-Pesa Family Bank,-1.2929878000000001,36.7876752,bank,0.7088367546858109
 Westlands,Parklands,-1.2630616,36.8106288,900b1ef4ecb9042943d7dbeeedf0f8f9b65e9c15,Postbank - Westlands Branch,-1.2654481000000002,36.804770399999995,bank,0.7028127573121427
 Dagoretti North,Kabiro,-1.2878118,36.7515014,d5dac78bb2490fe7dd572851483ad844516df935,Chase Bank - Mediator Star Connectionz,-1.286175,36.745458,bank,0.6956056934488062
 Kasarani,Ruai,-1.2677339,36.9911112,4a47783ed06610566079fe7c4f3be0dbc12ab0af,Equity Bank - Ruai,-1.2707912000000001,36.996562,bank,0.6943650347033768
 Embakasi West,Umoja 1,-1.2778669,36.8881172,bfa83a511f15140e78044694a6abda1d424ffacc,The Co-operative Bank,-1.2840457,36.887288700000006,bank,0.6927618243165864
 Westlands,Parklands,-1.2630616,36.8106288,0228d06473dcb1c8116e974e3f8d49638d7aa20b,Fidelity Bank Westlands,-1.2632274,36.804480700000006,bank,0.6832907366863679
 Lang'ata,Karen,-1.3283746,36.7049676,e370259952ce8a34f6acb28eead7850fe3e8df3a,Ecobank-Karen,-1.323231,36.708271999999994,bank,0.6793175061984879
 Lang'ata,Karen,-1.3283746,36.7049676,f5c8143ea075d583debf8e9fb0579569cb914179,Co - Operative Bank,-1.322877,36.70745219999999,bank,0.6703851138775955
 Lang'ata,South C,-1.3204427,36.83053678,e74f726cdb22f79bb1dbf721d3b97db9d55b55e1,Co-operative Bank of Kenya,-1.3189496,36.8363237,bank,0.6639669968372329
 Westlands,Kangemi,-1.2654259,36.7525183,90d315f67a069e6887e960b09f23be194a70ce83,Equity Bank Kangemi,-1.2647331,36.7465881,bank,0.6633164232523358
 Westlands,Kangemi,-1.2654259,36.7525183,a142b4ce04250ce56d9003206feb5e17fae6464a,Chase Bank - Frawaki Investment - Kangemi,-1.2646190000000002,36.746611,bank,0.6623865231574554
 Embakasi South,Imara Daima,-1.3285901000000002,36.8743999,f1f57d35c51bb5c5778774af25a5ae73b34fd5cf,Equatorial Commercial Bank,-1.3297353,36.86856030000001,bank,0.661115631385269
 Embakasi South,Imara Daima,-1.3285901000000002,36.8743999,2b1f26724d67082aaf68ee22df9189e06a9a9116,Spire Bank-Mombasa Road,-1.329739,36.868565999999994,bank,0.660573586065307
 Dagoretti North,Kileleshwa,-1.2723271,36.7996878,7fa378beb04efe5fa00d2bb74ca7d89714ad05b3,Victoria Commercial Bank Ltd,-1.2691886000000001,36.79464249999999,bank,0.6601684294181125
 Starehe,Nairobi Central,-1.2832533000000002,36.8172449,60c871a94f1374ae3b946be90de1ff956ee4268c,NIC Bank,-1.2858133,36.8225537,bank,0.6548164032205229
 Westlands,Parklands,-1.2630616,36.8106288,ad669266f82e0a1b19e911979f3014533730d62c,Habib Bank,-1.2647638,36.80500049999999,bank,0.6532780053176472
 Lang'ata,South C,-1.3204427,36.83053678,96ed97333610c7c8e4fadf738c12626a4a1b9433,Coop Bank - Mombasa Road Branch,-1.3189323,36.8361994,bank,0.651098012863629
 Lang'ata,Karen,-1.3283746,36.7049676,2f9528869c72432049003f20d88603189a6bbe55,Standard Chartered Bank Langata,-1.322737,36.70653699999999,bank,0.6502882892376349
 Lang'ata,Karen,-1.3283746,36.7049676,ac83f2d466f2101114ea7b0ac6dcac71949a4881,KCB,-1.3227771000000002,36.706653100000004,bank,0.6495963545809735
 Dagoretti North,Kilimani,-1.2874422,36.7845225,c075b6a9261e7a023156a324798a206f1aef4351,Family Bank-Kilimani,-1.2927053,36.7870649,bank,0.6494950884054429
 Embakasi Central,Kayole North,-1.2659842,36.9169455,9a7d41b4900e17882828ee4bb1df7866c3e35248,Co - Operative Bank,-1.2705642,36.9133533,bank,0.6467632363451886
 Kibra,Laini Saba,-1.31234835,36.79611435,a19865f8ea7dec305f23de33d1f55c2f030404ff,PesaPoint POS Jei Super Market,-1.307795,36.799735999999996,bank,0.6464625397938889
 Lang'ata,Karen,-1.3283746,36.7049676,f14fe9d474a50328f08529059afe139ec4eefe9c,Post Bank,-1.3228465,36.706527200000004,bank,0.6382775397563123
 Embakasi Central,Kayole North,-1.2659842,36.9169455,ede5316353c89e948b83fa0eb7d98a3fc14034da,Equity Bank Agent,-1.2660552,36.922672399999996,bank,0.6362959772919015
 Kasarani,Kasarani,-1.2208721000000002,36.9012224,316a2e7e72ae7228946f2c1b1a8c1b82916f6190,KCB Kasarani Branch,-1.2187615,36.8959174,bank,0.6343375720133255
 Lang'ata,Karen,-1.3283746,36.7049676,668f0776dd9e4b242892864b66931eff8f5dfae6,Imperial Bank,-1.3233915,36.70773629999999,bank,0.6334412295624662
 Lang'ata,Karen,-1.3283746,36.7049676,2aaf245f35e521c4e479ffc625e21169510ee724,Standard Chartered Bank,-1.3229215,36.70662279999999,bank,0.6332622356221368
 Westlands,Parklands,-1.2630616,36.8106288,875e070efcbcd8dcca5de8f054820747d9515477,PesaPoint POS Innscor - Westlands Road,-1.263341,36.804944,bank,0.6323332365363556
 Starehe,Nairobi Central,-1.2832533000000002,36.8172449,40c13b2cc916e4257de3857b7dc79887b4410328,Sidian Bank,-1.2826620000000002,36.822902299999996,bank,0.6319469907534299
 Embakasi North,Dandora Area 2,-1.2484935,36.89734979999999,e67f37d43e61b97c87457f8f946ce0335b339fe8,PesaPoint POS Mt. Moriah - Ell Pharmaceuticals,-1.253998,36.896097,bank,0.6273234575910585
 Kibra,Woodley,-1.3056567,36.77600465,6c3cb934cdc628e53302e83a174baf589fb5a805,bidiicreditkenya,-1.3002863000000002,36.777701799999996,bank,0.6258625677693707
 Mathare,Kiamaiko,-1.25377765,36.87573249,f8dd69945eadb1d29c8fc4d1bb5779c773479d3c,Equity Bank,-1.2581062,36.8793206,bank,0.6247237361625659
 Starehe,Nairobi Central,-1.2832533000000002,36.8172449,ae3701043b42838f94065877a35412e7987439b2,First Community Bank-Head Office,-1.285566,36.822368,bank,0.6244949369200374
 Roysambu,Githurai,-1.2062932,36.9206391,40404b39202c40f0cf12f953286988700bcbadae,Equity bank githurai,-1.203829,36.915607,bank,0.6225299110165289
 Lang'ata,South C,-1.3204427,36.83053678,8c668f5e1bcec70d1e617ad1febd904b3ee4e729,KCB ATM - Capital Center,-1.3163856000000005,36.834395,bank,0.6220827269542606
 Lang'ata,South C,-1.3204427,36.83053678,26c77922a04e3468a48aee48d6082a18b193069b,PesaPoint POS Aquapet - Capital Centre,-1.316526,36.834497,bank,0.6188738823761311
 Starehe,Ngara,-1.277803,36.8300722,3603d3631c9b18839ca127a67f43e95ad42754bd,PesaPoint POS TSS Poppin Service Station River Road,-1.28304,36.828344,bank,0.6128159889025415
 Lang'ata,Karen,-1.3283746,36.7049676,cea77cb684cbeab9fa46d3abd50094bf5f01a555,Standard Chartered Bank - Karen Crossroads ATM,-1.323776,36.70795560000001,bank,0.6093719075391044
 Lang'ata,Karen,-1.3283746,36.7049676,75527b36f3b68895df2996631cfcc920cdaa910d,Equity Bank,-1.3239922,36.7082553,bank,0.6087446615393244
 Lang'ata,Karen,-1.3283746,36.7049676,022c15d153378065f67f55b4736a07776ee672f0,Kcb quick serve atm - karen,-1.3237325,36.70787639999999,bank,0.6087149151823009
 Lang'ata,Karen,-1.3283746,36.7049676,87f6a4c9da44a7da015161d6c990b99f7de6f0a6,I and m bank atm-karen office park,-1.323721,36.707817999999996,bank,0.6063850316186232
 Lang'ata,Karen,-1.3283746,36.7049676,ce72908bfde2edef257de97a63a1ecd42f3a7368,KCB Advantage Karen,-1.3237450000000002,36.707832,bank,0.604928919436101
 Lang'ata,Karen,-1.3283746,36.7049676,1ea7a3e732340f504ebb3c5d1cf7170963fa5d27,KCB Karen Branch,-1.3237450000000002,36.707832,bank,0.604928919436101
 Embakasi East,Upper Savanna,-1.324728,36.887724,e0f0f3d0cc146c29851a5c80b46fe3429c4c308e,KCB ATM - Embakasi- Airport North Rd,-1.3286425,36.891470899999995,bank,0.6020791462212893
 Lang'ata,Karen,-1.3283746,36.7049676,e66ce81efbdf594a8b01775374e2a5d17d2e2eb9,Diamond Trust Bank,-1.3243032,36.708540899999996,bank,0.6019036122091124
 Mathare,Kiamaiko,-1.25377765,36.87573249,6bb882e4008b1c326307842c3d1715591f4ca259,Barclays Bank Kariobangi,-1.2578589,36.8792911,bank,0.6016603861557349
 Dagoretti North,Kilimani,-1.2874422,36.7845225,dc07161de5d530ecf4b4d5bfa2736e3b5b7165f7,Equity Bank,-1.2924128000000001,36.786666600000004,bank,0.6015318428639899
 Lang'ata,Karen,-1.3283746,36.7049676,22074edf018452568810b87d658f2f58f2cc4da8,Barclays Bank Karen,-1.3232469999999998,36.70664420000001,bank,0.5994761065888922
 Embakasi West,Kariobangi South,-1.324728,36.887724,c4f82a8d09c6f6bef9811c1261431de91f0e0b76,PesaPoint POS Pharmart Chemist Ltd - Embakasi,-1.3298493999999998,36.88926560000001,bank,0.5943271252385396
 Starehe,Ngara,-1.277803,36.8300722,6053887d3fec83b6533e5a5103a68be46a67f240,Consolidated Bank,-1.2817253999999998,36.8264478,bank,0.5934012854511675
 Kibra,Woodley,-1.3056567,36.77600465,c3701294663a9863ab0ac3108da6e30e948084e0,PesaPoint POS Innscor - Ngong Road,-1.300561,36.777564,bank,0.5921672991202984
 Embakasi Central,Kayole South,-1.2659842,36.9169455,8fe38cc462e895918c5ab4f56ef9bb8baa2d37dc,Co-op Kwa Jirani Lynn Communications Ltd,-1.2712,36.918,bank,0.5913275725589047
 Embakasi North,Dandora Area 3,-1.2484935,36.89734979999999,bd01072cb4da89c0075e4885c6660118d81d1f4e,Equity bank agent,-1.2473325000000002,36.902529,bank,0.589689274826617
 Lang'ata,Karen,-1.3283746,36.7049676,178f6da3b2dce3d9a93f828713ff54e7dacd7e06,Equity bank-karen,-1.3239865,36.707951,bank,0.5896056987865312
 Lang'ata,Karen,-1.3283746,36.7049676,0b8347cf9cd89ab7b447afc5733e5ba6add34abd,"I&M Bank Karen Connection Branch, Office Park Karen",-1.3261319999999999,36.709731,bank,0.5849347808100401
 Embakasi North,Dandora Area 1,-1.2484935,36.89734979999999,650e2a3407ab2b054ce03f9487ba74b5c9c1adcc,PesaPoint POS Mt. Moriah - P & L Super Market,-1.253296,36.899454999999996,bank,0.5826789051161414
 Embakasi West,Kariobangi South,-1.324728,36.887724,52dee910b8fcbb723374e1b05983f6773f633fa3,Standard Chartered Bank ATM,-1.329695,36.889379999999996,bank,0.5818113816674098
 Starehe,Nairobi Central,-1.2832533000000002,36.8172449,4a7edd4ea4e2900af239204f54c5a59311041ff2,PesaPoint POS Aquapet & Stationers Ltd,-1.278626,36.819643,bank,0.5791304770436986
 Roysambu,Githurai,-1.2062932,36.9206391,200d8641963d1a59461a20d3da76a3d74f5c0b8c,Chase Bank - Jotbathah Enterprise,-1.203475,36.916275,bank,0.5772005583053619
 Dagoretti North,Kilimani,-1.2874422,36.7845225,422f765813cc7aa1274ffe7109262921e4263f86,PesaPoint POS Cleanshelf Supermarket,-1.292527,36.785203,bank,0.5700841423270081
 Lang'ata,South C,-1.3204427,36.83053678,d2aa599aac2120b11e82345c198bd01815b68b80,Prime Bank,-1.316669,36.83398779999999,bank,0.5681965656944855
 Lang'ata,Karen,-1.3283746,36.7049676,003abcc4c748c8e0130bb6482af835f7735fd861,Postbank Karen Branch,-1.323684,36.706987,bank,0.5674732157669282
 Embakasi North,Dandora Area 2,-1.2484935,36.89734979999999,a5cb30fbc88a9512c3ba17eba86c41fe4ae6feac,PesaPoint POS Mt. Moriah - Bilijoh,-1.253526,36.898213,bank,0.5674002516705046
 Kasarani,Mwiki,-1.2322833999999998,36.9275102,1a1667aaa03905e8722dd3e70fc57f81980c008d,Equity bank agent,-1.2302455,36.9228441,bank,0.5657073007762325
 Lang'ata,Karen,-1.3283746,36.7049676,ba3f7a6151db26ec0e6decaaca2723dc5ffcfca4,Standard Chartered Bank Karen CDM,-1.3241334999999999,36.707693,bank,0.5601714927454299
 Embakasi North,Kariobangi North,-1.3151376,36.86733961,17cf1ae651a05f9d3672e4d3c8d46e14281405ff,PesaPoint POS Wabcom Rechnologies - Imara,-1.3200450000000001,36.866222,bank,0.5592913432218882
 Lang'ata,Karen,-1.3283746,36.7049676,fcf82ad529e145cbba7caa1b13b981fa545c8fa2,Karen Co - Operative Agent,-1.3236288,36.7065383,bank,0.5554965914802927
 Lang'ata,Karen,-1.3283746,36.7049676,5d0b10e25d61078c0ede7ac4f84a1f06e5d04ea5,Standard Chartered Bank ATM,-1.324158,36.707642,bank,0.5548282195032401
 Lang'ata,Karen,-1.3283746,36.7049676,023fcc8587054cb3b16a1556598ad2c98046f8f3,Standard Chartered Bank Karen Branch,-1.3241757,36.7076527,bank,0.5538074835320064
 Lang'ata,Karen,-1.3283746,36.7049676,dfeae19871b6ad4e62afee070a6e48ad5668ceff,NCBA Karen 1 - (ATM),-1.326054,36.709379,bank,0.5537911310113021
 Lang'ata,Karen,-1.3283746,36.7049676,465e78727da25491906376d173cab920afc89f28,NCBA Karen,-1.326054,36.709379,bank,0.5537911310113021
 Embakasi North,Kariobangi North,-1.3151376,36.86733961,eca78610b15ec5cd3b16032339e41b32bfa9d640,PesaPoint POS Kajos - Industrial Area,-1.3190790000000001,36.86429100000001,bank,0.5536634828482767
 Roysambu,Kahawa West,-1.1856847,36.90579279999999,dc470b394b94ae55caf6dc8d9dc36b655fdc46bf,Equity bank atm-kahawa west,-1.1836440000000001,36.901277,bank,0.5505819254803124
 Westlands,Kangemi,-1.2654259,36.7525183,b8592139fc5db331e32f50971468d8901fb9bd7c,Family Bank - Kangemi,-1.2692739,36.7495519,bank,0.5398705547483356
 Dagoretti North,Kilimani,-1.2874422,36.7845225,d569603e37defa816cb4b448b7f6128e86b1ed02,PesaPoint POS Tigoni Stores Ltd,-1.291143,36.787659999999995,bank,0.5390981877880905
 Ruaraka,Mathare North,-1.251788,36.87077217,42e92e4a741d7aa72867c53f5bbcf00c1097c043,Stanbic Bank ATM-Ruaraka,-1.2470071000000005,36.871562,bank,0.5384758797365227
 Embakasi West,Umoja 1,-1.2778669,36.8881172,5f73444447763e734e3c9640029b14a0343d4fb0,Chase Bank - Umoja Cycles Solutions,-1.282477,36.886772,bank,0.5336514643974357
 Ruaraka,Mathare North,-1.251788,36.87077217,51c3fba0814e18d6dae2b26a932ff90f4db4bb91,CFC Stanbic Bank,-1.2470419,36.8714546,bank,0.5328325143823517
 Makadara,Maringo,-1.2920714,36.86572592,c4a7ff13883227e09e2463efebb1ee9128b86204,Equity Bank Agent,-1.2936159999999999,36.86119099999999,bank,0.5322512381327313
 Roysambu,Zimmerman,-1.2103969,36.89522120000001,569c681ada417d749f5a1701a36635f0a9e998a7,PesaPoint POS Sears - Zimmerman,-1.2151530000000001,36.89563,bank,0.5304700172448391
 Mathare,Hospital,-1.2616553999999998,36.84871953,419df86331a03716e79ea25184e67d725ee73b64,PesaPoint POS Logical Links - Mathare,-1.266049,36.850440000000006,bank,0.5243209523944213
 Roysambu,Githurai,-1.2062932,36.9206391,cd0091cbda6c55218987145337a35b4bacf3a4f2,Kingdom Sacco Offices,-1.2061461000000002,36.9159375,bank,0.5226057697203945
 Embakasi Central,Spring Valley,-1.2477029,36.78923560000001,82718227d4d2acca2de025c7d60f7509150ea611,PesaPoint POS Pharmart Chemist Ltd - UKAY,-1.244055,36.792188,bank,0.5214565256291736
