constituency,ward,clat,clon,place_id,place_name,place_lat,place_long,place_type,distance_km
 Lang'ata,Karen,-1.3283746,36.7049676,19038c8c703aae9b02ab6f95c5d6ba1834fdbf51,morgars,-1.3465638,36.66387329999999,gym,4.9928062540103335
 Lang'ata,Karen,-1.3283746,36.7049676,d96b626429fa29367789cd9badc46be6a4a5481f,Betty kaveni/Natasha kaveni,-1.3628652,36.733459,gym,4.9708011947904325
 Dagoretti South,Mutuini,-1.3,36.7,6cb54556e2faa5feffc5c847de2fe295664fa950,Edds Place,-1.277743,36.66167069999999,gym,4.924442633779141
 Dagoretti South,Mutuini,-1.3,36.7,0e7e7cbe6bb4b4eaa4eaf7e0b6a8f351e1cc30fb,The Cloisters,-1.2785318,36.66157949999999,gym,4.889847345408669
 Dagoretti South,Uthiru,-1.2631329,36.7188955,db7c5794f31f651a3672f0b4797cbe8913e75e62,Wazito Camp Gym,-1.219747,36.713549,gym,4.857715795147988
 Lang'ata,Karen,-1.3283746,36.7049676,acfa01c17a348b05556af7ea7da44d47abe34ec4,Bumblebee Tennis Academy,-1.3472537,36.7441875,gym,4.835899505938814
 Dagoretti South,Uthiru,-1.2631329,36.7188955,c0cba06f034b3aaac6ad56c2a92efff572143756,Body Poa Gym,-1.2199669,36.7137739,gym,4.830456738475368
 Dagoretti South,Uthiru,-1.2631329,36.7188955,394275b054cffa074199d9bdb0b97e22e5c73741,Fit n Fine Gym,-1.2457457,36.6792789,gym,4.806771340327089
 Dagoretti South,Uthiru,-1.2631329,36.7188955,64de3e56a90d787edb318220c087e7da9c16b8ed,Excuisite Styles Gym & Aerobics,-1.220328,36.712775,gym,4.8050560623526986
 Dagoretti South,Uthiru,-1.2631329,36.7188955,84121775f1c6acb5fa73cea5a2e1dae9c97c7f0f,Kariango kinoo,-1.2471951000000001,36.6790986,gym,4.762909425540029
 Lang'ata,Karen,-1.3283746,36.7049676,ef3fd7f9cc42a7a1918556afc211f62e0ef6d8ae,AliGator Gym,-1.3419913,36.666338700000004,gym,4.5504292242085835
 Dagoretti South,Uthiru,-1.2631329,36.7188955,30d5923f37ff743f9183b59cb27380df0b694615,WOLOWORLD OF FITNESS GYM,-1.2489252,36.6830636,gym,4.28252438781205
 Embakasi East,Utawala,-1.285877,36.98408679999999,6b121416dd5cd5fbc298ea38bbb139dcaf3095e1,Silver Springs Fitness Centre,-1.2986925,37.01983370000001,gym,4.218991859298654
 Roysambu,Kahawa,-1.1869631,36.912022,c0dd38fb9c962dd2b60d3208814aea93c35e114e,Kings Fitness Centre,-1.1611479999999998,36.9368103,gym,3.9766975853575133
 Roysambu,Kahawa,-1.1869631,36.912022,dac3502c1167fd2f73b7888421018abca021c813,Kings Fitness & Recreational Centre,-1.1611113000000002,36.9366354,gym,3.966218108677915
 Lang'ata,Karen,-1.3283746,36.7049676,b94f22f04b364e7b7433a38ab91f650391e69dba,ABBÊ INDOOR CYCLING STUDIO,-1.3630136,36.69737720000001,gym,3.9405452787433104
 Westlands,Karura,-1.2369881,36.83255910000001,7e8089ea193eab0def3a7ccb1f3e2c0a73ebe4b8,Pilates Pasc,-1.2173382,36.803920100000006,gym,3.858994076289965
 Westlands,Kangemi,-1.2654259,36.7525183,501813adde1780b6dd044e94efa297a2ac227603,Kitisuru horse stable,-1.2311187,36.7557998,gym,3.829783356365088
 Lang'ata,Karen,-1.3283746,36.7049676,fc0a4405ab438b9e985358179d5efed81f3bd50a,RyanCliffe,-1.357443,36.687796999999996,gym,3.751422278234098
 Westlands,Kitisuru,-1.2395542,36.7839651,2674f7b3a2b6d5ac615dfd464273a3d0488a13c6,Physiq & Tone Gyms,-1.2065952,36.7844289,gym,3.662935066811908
 Lang'ata,Karen,-1.3283746,36.7049676,d68c232b242eb360c77cbab4acd7ff66cd84e8a1,BIG FIVE KINYOZI EMBUL BUL,-1.334709,36.6745626,gym,3.4504114130001136
 Westlands,Kangemi,-1.2654259,36.7525183,8b5f9495243a01921feee81f57d589d8da706a6f,Core Vibrations Health Studio - Power Plate Center,-1.2351238000000002,36.7492799,gym,3.386490211757794
 Dagoretti North,Gatina,-1.1655719999999998,36.85526373,186d924675b8b69a5a2705be1436f5a882b021ce,Raha Gym,-1.1724605,36.8258805,gym,3.353081801682189
 Dagoretti North,Gatina,-1.1655719999999998,36.85526373,1b5420919c7fce14f67cf341326ea8352626ec1d,Reymark Hotel Gym,-1.1690029,36.82697019999999,gym,3.166505565875354
 Roysambu,Githurai,-1.2062932,36.9206391,a51005fd5373b4f364aff12b308005ce1d6a9ec3,Evolve Fitness,-1.1952716,36.9464106,gym,3.1141892647652942
 Roysambu,Githurai,-1.2062932,36.9206391,cd52c8f9cf1a08b4c902abc91ac2cefcca7d4d5c,Evolve Barber Cutz and Trimz,-1.1953617,36.946399,gym,3.1090787208297512
 Dagoretti South,Uthiru,-1.2631329,36.7188955,b6bf7123e72ff9ca576affc46e0f3b046c8e4313,KARIANGO,-1.2526258,36.69302529999999,gym,3.1022499051720565
 Dagoretti North,Gatina,-1.1655719999999998,36.85526373,aac38ea98e033855dd387b470296010a4059324c,Extrim Fitness Gym,-1.1710795,36.8278972,gym,3.101462221864224
 Dagoretti South,Uthiru,-1.2631329,36.7188955,6de3b2033908b3cd2335f6ed9ef523cb08084317,Way Of Life Gym,-1.2549578000000001,36.692755700000006,gym,3.042863543128404
 Dagoretti North,Gatina,-1.1655719999999998,36.85526373,33cc77c452eee760979e301d5ee1b6d4c39db9c9,Sache fitness,-1.1715337,36.82858820000001,gym,3.036847907842989
 Makadara,Harambee,-1.290941,36.89721585,98c52334cca60db92f766db89bf90d9358c8dacc,Total Body Fitness Gymnasium,-1.3115165000000002,36.9139136,gym,2.944337988326076
 Dagoretti South,Mutuini,-1.3,36.7,2fc207f17f511ecab26f4abd5bb262673ad22290,Olympus Fitness Centre,-1.2772734,36.6864502,gym,2.9400995429047883
 Makadara,Harambee,-1.290941,36.89721585,7e6808eed5299fb5d86d04e444c18c8527648265,Total Fitness Connection,-1.3114976999999999,36.913870700000004,gym,2.939713797312047
 Westlands,Kangemi,-1.2654259,36.7525183,99d3ad9855c14fc8b89bc684b9da3777765ed7d6,Ascend Sports Limited,-1.239702,36.746354600000004,gym,2.939447411132351
 Dagoretti South,Uthiru,-1.2631329,36.7188955,5fff7ea04e52080d9aec6347eea627ea04e84a44,NicKo Gym & Fitness Studio,-1.2376653,36.72578920000001,gym,2.93189058825298
 Dagoretti South,Uthiru,-1.2631329,36.7188955,eff47255d67e5aae795c243ca8a26efe6ee0f06f,Firm and Fit gymnasium,-1.2557152,36.6936258,gym,2.9259297858537043
 Makadara,Harambee,-1.290941,36.89721585,4d32d2fa087fdedeaa58c6b1a54ea4482221e58c,Jamii Fitness Center,-1.3113013,36.9137785,gym,2.9163128788106167
 Westlands,Karura,-1.2369881,36.83255910000001,cf74b8b7ac485875720ae3a4224727dbed1db841,Naturopathy Yoga & Acupuncture Centre,-1.260546,36.821027,gym,2.914574294393226
 Westlands,Karura,-1.2369881,36.83255910000001,e8483c68a760fe9da6d732adc791586eecdcac76,Arvind Pathak Naturopathy & Yoga Centre,-1.2605218,36.8210234,gym,2.9123350513102233
 Dagoretti North,Gatina,-1.1655719999999998,36.85526373,831ee2d30eec06fc1fb6c1a5d56f8a660ce95382,Geba Gym Equipment and Supplies,-1.1698226999999999,36.829502700000006,gym,2.9008199646147066
 Dagoretti South,Uthiru,-1.2631329,36.7188955,e451d4d8cac38a8f028cca788ab731ddd4bf4b54,Imagelift Gym And Fitness Centre,-1.2557399999999999,36.69407100000001,gym,2.8777179103778234
 Westlands,Kitisuru,-1.2395542,36.7839651,addd5b747af1c5780223f080cdc7d5d22e09da79,FitPay Head Office,-1.2275359,36.8063369,gym,2.8215824272000747
 Westlands,Karura,-1.2369881,36.83255910000001,6f0c85c4edfbfd3647155e14f6912b4b6c97da24,The Body Bar,-1.2581584,36.81855059999999,gym,2.82075433103077
 Westlands,Karura,-1.2369881,36.83255910000001,5e18670dd0a927ae5efd09b2f656fcc2949eac2c,Smart Gyms Diamond Plaza 2,-1.2584925,36.8193674,gym,2.8033006448971407
 Dagoretti South,Uthiru,-1.2631329,36.7188955,dcc8b9b054458e26b099e6d29f810c1e93309619,Classic Villa Resort,-1.2385865,36.7245485,gym,2.799089039581592
 Lang'ata,Karen,-1.3283746,36.7049676,36fdd5d3b2c25a7bb3c28518874da627be821a11,Waziri Palace,-1.3500126000000001,36.7178445,gym,2.7978978267105346
 Westlands,Kitisuru,-1.2395542,36.7839651,9863e40ad2592c8ecbc7ba3b13f44947743d140e,CrossFit Kwetu,-1.232892,36.807274,gym,2.6933500869048084
 Westlands,Karura,-1.2369881,36.83255910000001,20d0b5a3200eac88e72e35429af414c34425414a,Yoga Fitviva Africa,-1.2519981000000002,36.81391479999999,gym,2.6594588149704905
 Lang'ata,Nyayo Highrise,-1.31600475,36.80173345,4a15828b3f75d12684171d8987337626cb6410e4,fit and slim,-1.2923816000000001,36.8051885,gym,2.6530394206872026
 Westlands,Karura,-1.2369881,36.83255910000001,39f53523277c110c0aad9b832d4897707162e399,Fitviva Yoga and Fitness,-1.2510572,36.8133295,gym,2.6473509904500516
 Westlands,Karura,-1.2369881,36.83255910000001,c19a9c75ae78af97472f8d174172c9ee4ad705cf,Yoga Fitviva,-1.2519321,36.8140547,gym,2.642756234216514
 Lang'ata,Mugumoini,-1.1991235,36.8467412,c1e06d254f533f453a6d766c362e49ad0c09e7c2,Kencom Sacco Runda Ridge,-1.1976941,36.8234984,gym,2.587174569850789
 Roysambu,Kahawa,-1.1869631,36.912022,3b4a55e73685bd330d3b1ad097af33027ea4766e,KASALANI GAMERS,-1.174758,36.931501000000004,gym,2.554028297291658
 Westlands,Kitisuru,-1.2395542,36.7839651,7119b11766f9fff01363ddfe13b0b8b5e7888716,NAIROBI ORGANIC SPA,-1.2308192,36.8051158,gym,2.5424213166371143
 Dagoretti South,Uthiru,-1.2631329,36.7188955,edd9843778ee9fd497769066f2e43a3084e435ae,New Way Of Life Gym,-1.2576671,36.6967326,gym,2.5360675459820485
 Westlands,Kitisuru,-1.2395542,36.7839651,94b8b1909124e8f93014ec686fc1aeb24e4fb619,Children's Play area,-1.2297732,36.80444200000001,gym,2.52128340580491
 Westlands,Karura,-1.2369881,36.83255910000001,030b333fab803326c890ef40cf2ffc6f32260794,Gigiri Gym,-1.2377348,36.8104813,gym,2.454229057303088
 Lang'ata,Nairobi West,-1.3087022,36.8230975,b68a6edc1b9dfaf254cf3629fa344c3b97e5e16e,Marcos Fitness & Beauty Parlour,-1.2870298,36.825993800000006,gym,2.4297479297536397
 Lang'ata,Mugumoini,-1.1991235,36.8467412,98c6b984e36509203e5ded50845209033bcbeb2e,KIST Games Ground,-1.1814051,36.8342789,gym,2.407041790699864
 Lang'ata,Nairobi West,-1.3087022,36.8230975,7b26b270f2e0d93f183c7dd0340b1e04dac9ef70,Marcos Fitness Centre,-1.2872686000000002,36.825844599999996,gym,2.4012846140696418
 Lang'ata,Nairobi West,-1.3087022,36.8230975,3702caf8012d0fd373134efe8c96e8590f293e67,Mukombero,-1.2878651,36.82858579999999,gym,2.394457948653636
 Westlands,Kitisuru,-1.2395542,36.7839651,067569d7d09de442fa8b0834e1a4f5b737dc83d6,Yoga for Wellness Africa,-1.2250491000000001,36.7682259,gym,2.378196254078744
 Makadara,Maringo,-1.2920714,36.86572592,563c35c098018fabc73ac99c308bd8bc40c12859,Kaloleni Social Hall,-1.2961688999999998,36.844722,gym,2.3774779429310207
 Embakasi Central,Spring Valley,-1.2477029,36.78923560000001,46d2991e2e77e02310335a833fea571341a3b7ff,Bustani Day Spa,-1.2355348,36.806413,gym,2.3388792423817444
 Makadara,Harambee,-1.290941,36.89721585,0137f66addc3e0b7d2e15f5d2ec9437fadf38690,GYMHouse,-1.3081638,36.9089,gym,2.3125613499271376
 Lang'ata,Nairobi West,-1.3087022,36.8230975,2c6142cd23c6726a49587cb1875d897e9287da9e,NAIROBI ZOEZI INSTITUTE,-1.2883969,36.827563899999994,gym,2.310343468900365
 Dagoretti South,Uthiru,-1.2631329,36.7188955,60de4d6941c1623feee941f3b290e905955b4000,fridah's Fitness Studio,-1.2646069,36.69834999999999,gym,2.28843516880066
 Lang'ata,Mugumoini,-1.1991235,36.8467412,cd1b27824083cf82112a912d279e837f95c196e5,Kigwa Conference Hotel Gym,-1.2150548,36.83386360000001,gym,2.2762082991779087
 Dagoretti South,Mutuini,-1.3,36.7,e449a6fe016311bd9cec99fb444aa20bf2775b32,Meeting point for MALO Stables forest rides.,-1.289016,36.68310499999999,gym,2.238953457449795
 Dagoretti North,Kawangware,-1.2784631000000002,36.751643,31e194aedf36c9a3eece6c5e4b84643d834ca87b,Kids gymnastic and events company,-1.2814370000000002,36.771553999999995,gym,2.2366098038536832
 Dagoretti South,Mutuini,-1.3,36.7,9504514ff0c727c001cd10e1d8fde25567d40099,Masera Nick,-1.2869501,36.6854092,gym,2.1749965562301683
 Embakasi Central,Spring Valley,-1.2477029,36.78923560000001,3b5f9a4aec8a01542423e825cc25076d80257c9e,Fitness - One,-1.26483,36.779972799999996,gym,2.1636484119957675
 Lang'ata,Karen,-1.3283746,36.7049676,83f19b3880849c97d082ccaf4dcaef89b7132305,Dupdup's Hacienda,-1.3453563,36.7144005,gym,2.1585443414361642
 Roysambu,Kahawa,-1.1869631,36.912022,3a3b79ae00654a49c65eb7273217b41c6eab93fa,Department of Sports and Recreation and KU Warehouse,-1.182195,36.9307408,gym,2.1461205589165293
 Dagoretti North,Kawangware,-1.2784631000000002,36.751643,9e83cf0a12601fd088412c390ac99852d249c2bd,Spin Fitness Boutique Gym,-1.280075,36.77086170000001,gym,2.1426482386206045
 Westlands,Karura,-1.2369881,36.83255910000001,1a80603ac6ebf18484d1b287ba9552ea8eff519f,UN Recreational Centre,-1.2357588,36.8133402,gym,2.1395706522036355
 Kibra,Laini Saba,-1.31234835,36.79611435,6953b53f3e2b3a9ac1bd3b305e0b4a3bd769a752,DR MAJOR GACHIRI,-1.2953108,36.8050361,gym,2.1370561862232798
 Dagoretti North,Kawangware,-1.2784631000000002,36.751643,e6f1092d9e7d59a88188151ed143e3d16d32b6f5,TipwaTipwa,-1.2799796,36.7708024,gym,2.135220485195115
 Westlands,Karura,-1.2369881,36.83255910000001,a0c2dc1d5a2e206b2bb4316e30dd41864089aa82,BMF Kenya,-1.2446187,36.8150032,gym,2.1267940395277622
 Dagoretti North,Kawangware,-1.2784631000000002,36.751643,fb6ccdb2afca82233c33f80fc33819e10fba28cf,Bikram Yoga Nairobi,-1.2798273999999998,36.7706731,gym,2.119623935936116
 Roysambu,Githurai,-1.2062932,36.9206391,86265ddea7769334d1b17b8d8ddeaa148c8a65ee,Githurai Kimbo Catholic Parish,-1.2083961,36.93957669999999,gym,2.116913462181289
 Embakasi Central,Spring Valley,-1.2477029,36.78923560000001,322a510fd28fd0f9124ad93efe19cda567e2e972,Doctore Athletics,-1.260593,36.77523,gym,2.1149346636267
 Embakasi Central,Spring Valley,-1.2477029,36.78923560000001,d2aa21837f71e21f7563ba41e45f81438a03f8f1,BODY by Alison Caroline,-1.2607203000000002,36.7753494,gym,2.114845122441348
 Roysambu,Roysambu,-1.2188396,36.88673920000001,e297aa96421dfd43abfe080d95aa8f04cf159173,Estelle gym,-1.2107308,36.86952429999999,gym,2.1142183539934485
 Kibra,Laini Saba,-1.31234835,36.79611435,ab8f237c20426dbe5354008a412d87d86470d848,DR MAJOR GACHIRI,-1.2952233,36.80409119999999,gym,2.0992487817697008
 Embakasi East,Lower Savanna,-1.324728,36.887724,d938eb9b2a43c35b99869bf717c7c7959173da02,Fedha Superfit Gym And Areobics,-1.332522,36.9048931,gym,2.094836457521968
 Embakasi North,Kariobangi North,-1.3151376,36.86733961,89c505d9744c7b48d7b0f1dee913ab428acf99f0,Muscle health and fitness centre,-1.3269255,36.8526253,gym,2.094790710252346
 Embakasi East,Mihango,-1.2692818,36.95299050000001,a88c6348070e8a0fe24d91ccfd63f50bf6e17fa2,Utawala Gym & Aerobics(Jambo Plaza),-1.287972,36.950664,gym,2.0929714734845333
 Embakasi North,Kariobangi North,-1.3151376,36.86733961,3b53740f7e93d22a09de5fc8860bffe5c8fa3ae6,Muscle Health & Fitness (K) Ltd,-1.3268955,36.8526944,gym,2.086716579128
 Embakasi North,Kariobangi North,-1.3151376,36.86733961,c052fb5927375c9473f7e0e227979a33ba3a3e41,Muscle Health,-1.3268955,36.8526944,gym,2.086716579128
 Embakasi North,Kariobangi North,-1.3151376,36.86733961,6adce5e6c4c83b7244b431222243d818d34bf471,Muscle Tone Gym,-1.3271081,36.852892,gym,2.0846412192371035
 Lang'ata,South C,-1.3204427,36.83053678,510fc0e635dd6ae8e40f11714e72d92067d8fa0e,B-Active Gym and Spa,-1.3262704,36.848333000000004,gym,2.080440828197184
 Dagoretti South,Uthiru,-1.2631329,36.7188955,9b2a63bfc733d3295bb143dcee561b87e6313dc2,FITNASIUM GYM 87,-1.2581136999999998,36.70093370000001,gym,2.072006554872073
 Embakasi North,Kariobangi North,-1.3151376,36.86733961,adcb950520799cecce07bf0f09ec81e6d008b4a6,Home Family Keep Fit,-1.3268212,36.8528223,gym,2.0704693000195173
 Lang'ata,Karen,-1.3283746,36.7049676,f882b9cd15c37baeab9eb2c2280768484ee816fc,Kcb gym,-1.316866,36.6903289,gym,2.068913385943969
 Lang'ata,Karen,-1.3283746,36.7049676,270f1d952f5607af6316f2b574ca939290f03820,Smartgyms,-1.316866,36.6903289,gym,2.068913385943969
 Roysambu,Githurai,-1.2062932,36.9206391,98e0722ae577c12a448ffd713fb63f28f21470e1,KELCO PRO GYM,-1.1914403999999998,36.9317616,gym,2.061847105715756
 Lang'ata,South C,-1.3204427,36.83053678,adaac74792c04c05560e9be27c8a8dadbbb55164,Serene Gardens Langata,-1.3320427,36.816390500000004,gym,2.0326178618744484
 Ruaraka,Mathare North,-1.251788,36.87077217,2bb04cebe2471f82824947243e221bddd60ec086,FEEL FITNESS CENTER,-1.2340776000000002,36.8663515,gym,2.0284257102305765
 Lang'ata,South C,-1.3204427,36.83053678,ef297950c570b8c20406ca33a786e47760443b2e,Serene Gardens,-1.3315264999999998,36.8162011,gym,2.0133352693012685
 Kibra,Lindi,-1.31516185,36.79284123,05e9edc68a30741e4ee22a267d0f81d762860631,Langata Outdoor Training,-1.3297591,36.7822883,gym,2.00143924783908
 Dagoretti North,Kawangware,-1.2784631000000002,36.751643,507a9c3b11fa1c41abe93054f5d03d24d1956aa6,Zarnash Gym,-1.2771622,36.76959069999999,gym,1.999177811177904
 Roysambu,Githurai,-1.2062932,36.9206391,f9e67e0c43c4c2e9ccfd47d79bb02ff0760629a2,Galaxy Gym and Health Club,-1.2158579999999999,36.93575,gym,1.9870049520896893
 Roysambu,Kahawa,-1.1869631,36.912022,08ca2520eb58339bf887b67074f7aa8f72a3bb3d,Kenyatta University Gymnasium,-1.1834069999999999,36.92954390000001,gym,1.986410678559224
 Embakasi North,Kariobangi North,-1.3151376,36.86733961,2f27ed38762eecf1f5cf0d08222aa4585769d5db,Life Fitness,-1.3289851000000001,36.8561402,gym,1.9788798509612784
 Ruaraka,Mathare North,-1.251788,36.87077217,0630eb82b74d22f88685a777a5d488f9a3500c19,Nugabest Roasters,-1.2340795,36.87228169999999,gym,1.974992415090252
 Embakasi Central,Spring Valley,-1.2477029,36.78923560000001,3f44adb6302fea737e588aa21316b9639f64e16c,Nadiano Wonder Fitness Center,-1.2640547,36.7823255,gym,1.9726128966966867
 Roysambu,Roysambu,-1.2188396,36.88673920000001,05e665205c2a6069688421e6acba67b64e65cea9,Marurui Gym and fitness center,-1.2065426000000001,36.874049600000006,gym,1.9633956368671903
 Kibra,Makina,-1.30854575,36.78652379,52018e08a5db0b7a824460af29d003ecb037acdb,Savannah Fitness Exchange,-1.2947899999999999,36.7974723,gym,1.9534918554090333
 Embakasi Central,Spring Valley,-1.2477029,36.78923560000001,c0f1c64ff382e15a428603c9459e32e287cdfeb9,Prime Serviced Residence Westlands,-1.2639207000000001,36.78249080000001,gym,1.9517806665442048
 Embakasi South,Kwa Njenga,-1.3166386,36.884663,4368c31e916e890a366d565093676c087db8b2f5,Fedha Superfit Gym And Areobics,-1.3097386,36.90052719999999,gym,1.9220168924115182
 Roysambu,Kahawa,-1.1869631,36.912022,3c7cfc748df79535a189c35c43f5294de04c8532,KU Staff Health and Recreational Centre,-1.1842879,36.92909090000001,gym,1.9195373451853253
 Lang'ata,Nyayo Highrise,-1.31600475,36.80173345,49b9335b80204d414b5ca75e07298acbfaf89694,Evolv Fitness,-1.3292700000000002,36.81270780000001,gym,1.9129633851696135
 Ruaraka,Babadogo,-1.2433103,36.8910881,01de4779ef421c52083b6e5aa0df182f2d568db5,KBL Gymnastics,-1.234243,36.8766527,gym,1.8940209078256884
 Dagoretti North,Kawangware,-1.2784631000000002,36.751643,7ff9e9a2ba0841faa6025fc9036fa7f75739d477,Jaffery Sports Club Ground,-1.2769218,36.768611299999996,gym,1.8929002827306483
 Dagoretti North,Kabiro,-1.2878118,36.7515014,059b90575c3c0816897898a4430a0bed17c5ec56,Tuzidi Fitness,-1.2890424999999999,36.7684831,gym,1.8915666917312104
 Embakasi Central,Spring Valley,-1.2477029,36.78923560000001,3218709f9fdffcabb0da6f6f1a5d88efb1da2771,Best Western Plus Westlands,-1.2600696000000002,36.8007925,gym,1.8807190883663851
 Ruaraka,Mathare North,-1.251788,36.87077217,42506c4cfb1666f8811299284736ddd820d8992b,NEISA 1,-1.2349124,36.86963770000001,gym,1.8795336907907023
 Makadara,Harambee,-1.290941,36.89721585,fa5a6b399009cf94403ce4eb250d0ef3d787b793,Vm Gym And Fitness Center,-1.3071356,36.901844,gym,1.8716380065782443
 Embakasi Central,Spring Valley,-1.2477029,36.78923560000001,66ef5910499b67888799f352848dd75489008213,Sports Planet,-1.2573083,36.8030646,gym,1.8707792384652842
 Lang'ata,Nairobi West,-1.3087022,36.8230975,4d37c6ae8f05417d787d17cad62a61bcf2968295,Fit Madadi Gym,-1.2920658999999999,36.82194619999999,gym,1.8531300913335844
 Lang'ata,Nairobi West,-1.3087022,36.8230975,73b3c87cfd84e5df4e4b3eb6aa3e9875f2d539ff,Muscle Health & Fitness (K) Ltd,-1.2920658999999999,36.82194619999999,gym,1.8531300913335844
 Roysambu,Kahawa West,-1.1856847,36.90579279999999,dd35c29a054053049296d7a5124d918a7e071e55,Barstazz Health and Fitness Center - GYM,-1.2009515,36.899199700000004,gym,1.8479050433260116
 Kibra,Woodley,-1.3056567,36.77600465,48ae9770420d25ad013f6900c2eeb3e806e39eac,MDA Studios,-1.2901653,36.770039600000004,gym,1.8446335026904648
 Embakasi Central,Spring Valley,-1.2477029,36.78923560000001,577ec17297eae41de1401ddf149f5a75676770bc,King's Gym & Spa,-1.2636368,36.7846194,gym,1.8434321250378192
 Westlands,Kitisuru,-1.2395542,36.7839651,93f278cbe7aade20fc41b93317a161966f791287,Fitness Wheel Gym And Aerobics,-1.223249,36.7809448,gym,1.842726296515808
 Embakasi Central,Spring Valley,-1.2477029,36.78923560000001,33bc4a277a4566b6fa53e0ad09f6977031dc2bea,Ignite Fitness Westgate,-1.2564046,36.8032775,gym,1.83541685574572
 Embakasi Central,Spring Valley,-1.2477029,36.78923560000001,b39f81e4f9f9f9ac72a2679fe10c73c143a0ccc2,Reform Cycling and Strength Studio,-1.2595199,36.800701600000004,gym,1.8295112943274157
 Kibra,Woodley,-1.3056567,36.77600465,82145c37fe89c00fd3c817d2e8f17a9bb3e253b5,The HIIT Box Ke,-1.2907232,36.7691572,gym,1.8255422013314693
 Ruaraka,Mathare North,-1.251788,36.87077217,fe07de5fedc14ae80fda12b63c5b09a3cb2a0d2c,Dael cycle shop,-1.2356546,36.87381799999999,gym,1.8244811538842207
 Dagoretti South,Mutuini,-1.3,36.7,f4e74fd9b12ba63c87c880ef93e06e1c453d71e3,Betty Charz Toneyt,-1.3138454,36.6912675,gym,1.8188977704282032
 Dagoretti North,Kilimani,-1.2874422,36.7845225,f38d9e97f573c365cb9791ebf96bc66ad53b9bcd,Total Lifestyle Change,-1.2952523999999999,36.79885549999999,gym,1.8135188685774504
 Embakasi Central,Spring Valley,-1.2477029,36.78923560000001,9d08eef460272ad31f951b5b968592f59626b1f5,School Pavilion and Gym,-1.2616615,36.78084920000001,gym,1.8094652651079408
 Embakasi East,Mihango,-1.2692818,36.95299050000001,fbc8bd48abd733891d6cc8a665961fe367365993,Sauna N Spa,-1.2712544,36.96896229999999,gym,1.787920470101516
 Kibra,Woodley,-1.3056567,36.77600465,bcf690d63c0bc03e34d98e7afb2e5c66a5edb2b4,Westgate Villas & Gym,-1.292699,36.7668672,gym,1.7617871680496335
 Kamukunji,Pumwani,-1.2797575,36.8442693,71a55109b777f2fceee0986f830eff159fdb59eb,S Base sports,-1.2954837,36.8427114,gym,1.7561255830399047
 Kamukunji,Pumwani,-1.2797575,36.8442693,f0ce9c259b40389a50972f0684e2e2a6d8e58411,Black mamba Handball club Gym,-1.2955364,36.844906099999996,gym,1.754858696946786
 Dagoretti South,Riruta,-1.2917037,36.7346929,0f55ed8d2989ea017ae7faf7ab9dac2b4af9cbfd,Maxfit Gym And Fitness Centre,-1.3053611,36.7423636,gym,1.740568355274985
 Lang'ata,Nairobi West,-1.3087022,36.8230975,1f3a6c4bcb583d9394e69d2e4ad951df81045d76,Flex Fitness Place,-1.2960493999999998,36.8139754,gym,1.7332064943354542
 Embakasi Central,Spring Valley,-1.2477029,36.78923560000001,418a1a68fd2a1898390e3b97e8ea738dfb4c76d6,Revive Health Club,-1.2585343999999998,36.8002718,gym,1.7181712495828596
 Westlands,Kitisuru,-1.2395542,36.7839651,ab6bd75f4061d34afb2459afd2465d7675666403,Space Of The Heart,-1.245284,36.76978139999999,gym,1.6995726870970689
 Dagoretti North,Kabiro,-1.2878118,36.7515014,c7be742ecd8c68c01c887863272964a80836432c,Forever Living,-1.2981364,36.7625425,gym,1.6795750640160276
 Westlands,Kangemi,-1.2654259,36.7525183,603d7c032df72234def95374af345fd7015fabaf,Gym,-1.2587829,36.76602159999999,gym,1.671981005400047
 Embakasi South,Kwa Njenga,-1.3166386,36.884663,e2e5c27d241db9e01ef22cf6bfaac503f3db8e67,mozay,-1.3106876,36.89819650000001,gym,1.6425245044820864
 Embakasi South,Kwa Njenga,-1.3166386,36.884663,9dfdaea8d01d33d310ed1fc5714f3f00f90a8837,Nameless Fitness Gym,-1.3121185,36.8986559,gym,1.6336885796947505
 Starehe,Pangani,-1.2648989,36.8372708,219f0b5a8eb11ee79d6b197a9c6bea8132dcc3e9,STEP UP AND MOVE,-1.2597472,36.8236395,gym,1.6190062377912129
 Embakasi East,Utawala,-1.285877,36.98408679999999,d7ee8a4891e47da0e07056bbe7b910da08e0525f,Shalom Apartment,-1.2852172,36.96961839999999,gym,1.6090692682602752
 Dagoretti North,Kabiro,-1.2878118,36.7515014,4bb66b06081a3e632318f7f9a52430bf2f1027b0,Smart Gyms Junction,-1.2977751,36.7619112,gym,1.6010353285626993
 Embakasi East,Utawala,-1.285877,36.98408679999999,72189a500dc9acf86796e58811ace57d2acb3ca4,Minnies Apartments,-1.2846574,36.96992120000001,gym,1.5795827647511615
 Embakasi Central,Spring Valley,-1.2477029,36.78923560000001,9b2ff5f89187fe3c7a2e0d70a9ec0a35fac70fbf,Saffro,-1.2610447,36.784379,gym,1.5777374685115038
 Dagoretti North,Kabiro,-1.2878118,36.7515014,6d457ac55893b5eae93d88555eeae9ca7a795058,Lavish Spa,-1.2972616000000001,36.761925899999994,gym,1.5633278525150207
 Embakasi Central,Spring Valley,-1.2477029,36.78923560000001,d3feba51daea4b93026d7c3aea470f31e6556eb0,Planet House,-1.2542144,36.776852399999996,gym,1.5544420939638328
 Embakasi Central,Spring Valley,-1.2477029,36.78923560000001,2b4a56577995e14d96c8e1b5df11b4307fa1f744,Level 24 Gym and Fitness Centre,-1.2616018,36.7893599,gym,1.5445785740517737
 Dagoretti North,Kabiro,-1.2878118,36.7515014,2e419057823afda684b7fb65e6b177af143aa83a,House of sweat fitness,-1.3007454999999999,36.7466222,gym,1.5360812908144157
 Embakasi Central,Spring Valley,-1.2477029,36.78923560000001,2708aa532d345059909246c937da26ed961ebf73,"VLCC Slimming | Beauty | Fitness, Nairobi",-1.2605329,36.7842846,gym,1.5281604587206217
 Kibra,Sarangombe,-1.31226715,36.77745932,0b2fe0af27ed480cf8158a801c63ef9d66e14346,Parlisa Health And Fitness Studio,-1.325979,36.777953000000004,gym,1.5247176355504284
 Kibra,Sarangombe,-1.31226715,36.77745932,bdbaf9b675854e106b74537f0796282ab89977ce,Parlisa Gym Quincy Mall,-1.3259658,36.77795379999999,gym,1.5232549369198376
 Embakasi Central,Spring Valley,-1.2477029,36.78923560000001,a62aaf4c4c7ba7261a76c2d4406027ae555586be,Gigiri serenity spa,-1.2506205,36.775843200000004,gym,1.5227933258071884
 Lang'ata,Karen,-1.3283746,36.7049676,0213ad9b636475139580cfdc40fa20f235a39bbb,Yoga Eka Taka,-1.3157501,36.69982,gym,1.5149808633394926
 Westlands,Karura,-1.2369881,36.83255910000001,9dd266fe2f23be17ce2a43838d8e84791b7d091a,WAWA Fitness Center,-1.2404088,36.84574310000001,gym,1.5132523893856724
 Roysambu,Githurai,-1.2062932,36.9206391,c15c39620d0b88d5eed592e69cf4fb3d9a18ddb5,Joash Apartments,-1.2191749,36.916267100000006,gym,1.5116447529624926
 Dagoretti North,Kabiro,-1.2878118,36.7515014,c08c3fdf95d77ab2176966b872b47e3f1f43a7c0,Body World Gym,-1.3012544,36.75358350000001,gym,1.5116137338156406
 Embakasi Central,Kayole South,-1.2659842,36.9169455,b930087c88d699556a453771873316a52213bca9,Rollin Power Gym,-1.2790017,36.913129100000006,gym,1.5074277586352811
 Kibra,Sarangombe,-1.31226715,36.77745932,629be411028a081994050d1be1a4754722ba35f0,Gym Aerobics Zumba Taekwondo,-1.325821,36.777931,gym,1.5070844015184772
 Embakasi Central,Spring Valley,-1.2477029,36.78923560000001,26195291d824d9626dc2713ac98b010d209a6695,Power Vibe Studio/ Westlands branch,-1.260254,36.784195000000004,gym,1.5029670207460033
 Kibra,Woodley,-1.3056567,36.77600465,f3a1ad6744ad92693df31f3b05a98a2a9543ffc3,24 Farasi,-1.293094,36.771029,gym,1.5014881948867953
 Kibra,Sarangombe,-1.31226715,36.77745932,9eb22abeeb423411e21e1889284f264dd5e801ae,Langata Pilates and Fitness Centre,-1.3240958999999999,36.78293730000001,gym,1.4485179242274622
 Makadara,Harambee,-1.290941,36.89721585,5ee03ead37fbd5a66e790b018bc29d3cd6b33215,Texas gym,-1.3006148000000002,36.8886217,gym,1.4377891379697532
 Makadara,Harambee,-1.290941,36.89721585,a6ece074b9b783945deeacdabf85b55f52021a81,Get Fit Gym & Aerobics,-1.3017538,36.8901821,gym,1.4333199589683316
 Ruaraka,Lucky Summer,-1.2393083,36.898786,a1f5f8594d347c77def4f99f2fca0f612964c425,Ceragem Masager,-1.2454581,36.9101036,gym,1.4310908288150566
 Dagoretti South,Waithaka,-1.2833,36.7166,cf7db432d0e2096c64ab33f18c15facccbd0d58e,Kenkana Gym,-1.2790848,36.72876410000001,gym,1.4302767709937416
 Dagoretti South,Waithaka,-1.2833,36.7166,1e575534ea804d5a0f23caf9cefd988724b9decf,Karakan Sports Club Gym,-1.2790685,36.7287493,gym,1.4293181951630036
 Roysambu,Kahawa West,-1.1856847,36.90579279999999,46c72f8ffb0e36c5a4d28584d000d06a53c97af2,KIZURI APARTMENTS,-1.1857652,36.8930799,gym,1.4124482772161202
 Makadara,Harambee,-1.290941,36.89721585,09dc6763883ef4dc8c5b06e88ca40549d15e38b8,Ochako-D,-1.3003132,36.8886564,gym,1.4103036087533136
 Embakasi Central,Spring Valley,-1.2477029,36.78923560000001,74cf6763895587aa466b3c6a40c6bd400f8a982b,Desmond Tutu Conference Centre,-1.2600817,36.786764500000004,gym,1.4027233788128608
 Lang'ata,Karen,-1.3283746,36.7049676,c7a0200f0d8545a9159224bfd5830cf0be313657,Sugar mumiies dadies,-1.3162436000000002,36.701507299999996,gym,1.4018002991707597
 Starehe,Landimawe,-1.2694542,36.83557186,641a7f5c577aa9d85a818446899661322564a54e,Moksha Yoga Studio,-1.2649229,36.8238387,gym,1.3974061230898156
 Lang'ata,Karen,-1.3283746,36.7049676,762593830188153315fc52e7ea6bbbc3d6e04038,Salmer Fitness Centre,-1.3288129,36.71753270000001,gym,1.3967722479627256
 Kibra,Laini Saba,-1.31234835,36.79611435,5d21d60061687b48e442fd98b17446e03992ac41,游泳池,-1.299986,36.7977566,gym,1.3858298852921038
 Kibra,Lindi,-1.31516185,36.79284123,31e18bfc2ffbb246d2975561227225eabab68d32,Fiesta,-1.3249749,36.785221299999996,gym,1.3804962759807708
 Makadara,Harambee,-1.290941,36.89721585,5d543bce416c19722e230514bcaa27194aba46da,Prestige Apartments,-1.3000121,36.905662799999995,gym,1.3772313658582565
 Kasarani,Njiru,-1.2539022,36.9343299,8889fdbb5b2a3339873c146e07fb4a36b4c8a52f,Nyuliah Court,-1.2570316000000001,36.94631099999999,gym,1.3757584829813234
 Kibra,Laini Saba,-1.31234835,36.79611435,5988bac87f549ed804d236440e4887ef98fe2ff9,Mimosa Court Apartments,-1.3003464,36.79885769999999,gym,1.3680980109008147
 Embakasi East,Upper Savanna,-1.324728,36.887724,afd53db9598d9be2b53671dafd2bce6dba4416d1,Smart gym,-1.3237858,36.89996160000001,gym,1.3635672175606866
 Roysambu,Kahawa,-1.1869631,36.912022,1f1ff9c2f5af0a06b4ca01aeacbccbaa600062f5,Barstarrz Gym & Fitness Centre,-1.1989923,36.909920299999996,gym,1.3569867990258426
 Lang'ata,Nyayo Highrise,-1.31600475,36.80173345,99651017b1974a3cb9cba77bc676c74cc892fb4d,HQ gym and spa,-1.3271108,36.796670299999995,gym,1.3563010085278957
 Dagoretti North,Kabiro,-1.2878118,36.7515014,2827631ab3442a1d2bffe4aebebf25a81a3e8bef,AVFitness Kenya,-1.2928993999999998,36.7624216,gym,1.3384648284859766
 Roysambu,Githurai,-1.2062932,36.9206391,bb1f27267fdceaf7b0dac2ba2555b53426c215c8,Wendani Gym,-1.1956081,36.926161900000004,gym,1.3365504970831092
 Roysambu,Githurai,-1.2062932,36.9206391,a9abbdb9099dc69881c7674e94091138757779c9,Jesse residence,-1.2174268,36.9251494,gym,1.3348469438004298
 Dagoretti South,Riruta,-1.2917037,36.7346929,95c33b4c6a454b1cc453f51abbed33d38e964a1e,Hawk Fitness Gym,-1.303205,36.73776220000001,gym,1.32278881314386
 Starehe,Pangani,-1.2648989,36.8372708,193b6c0f4683e992358a87823ced66bbf70a02b6,Fit 4 Life Gym,-1.258928,36.8270141,gym,1.318603869734983
 Kasarani,Mwiki,-1.2322833999999998,36.9275102,79354ca56c60279e5ff81858c0074ea28b20e79a,Beauty Spot Gym,-1.2226073,36.920699299999995,gym,1.3148218214775131
 Makadara,Maringo,-1.2920714,36.86572592,b11b94cac85bfd639f0bc0714e5a81feee290925,george foods,-1.2952317,36.854369399999996,gym,1.3096381326367017
 Makadara,Maringo,-1.2920714,36.86572592,155ed504947674eb98767dd8ce17fc7cd2a3c86d,Daniel Nuga Best,-1.2952317,36.854369399999996,gym,1.3096381326367017
 Lang'ata,South C,-1.3204427,36.83053678,c0c14e10eb4616e5e25054ecbfa14f997058494c,Jogis Health Centre,-1.3108621,36.8369594,gym,1.2816353629593051
 Makadara,Maringo,-1.2920714,36.86572592,c61a61e622583baeaeeebca3036b0e4b7dda5a6d,Flex And Tone Fitness Centre,-1.292451,36.854217,gym,1.279300416268541
 Lang'ata,South C,-1.3204427,36.83053678,b216eb6b02de92d86b21d0d73c31b0d0df5351b5,Curves Health & Fitness Centre,-1.3108616000000002,36.836910100000004,gym,1.2786404941030571
 Westlands,Parklands,-1.2630616,36.8106288,ced2e615e382239b5f93e2054f3823d4e928f87b,Zen Cycle,-1.2566587,36.801072399999995,gym,1.2780729238082942
 Starehe,Pangani,-1.2648989,36.8372708,be6f6332145d982cbee5157785063f0ae542806d,City Park Stadium Parking Lot,-1.2605697,36.82667679999999,gym,1.271498115911372
 Ruaraka,Babadogo,-1.2433103,36.8910881,a3ffdc587f44618fe4a61396cfb4df3b2af5502b,Blaklite Fitness Centre,-1.233747,36.8848385,gym,1.2694358232297032
 Lang'ata,Karen,-1.3283746,36.7049676,92d825d4c986f0b3583a097cfe5b564dff6d723b,Pema residency,-1.3262345,36.7161749,gym,1.2675874057594012
 Lang'ata,South C,-1.3204427,36.83053678,fdc30a338e56d8df5e672f6edb43209aad89ab28,Tulia Beauty And SPA,-1.3107824,36.8365591,gym,1.2649270446310314
 Kibra,Woodley,-1.3056567,36.77600465,4c8bf20e5d1298b3d7fe0cdbb1066730351e0dad,Senses Health Club and Spa,-1.294332,36.7753467,gym,1.2605796272662566
 Lang'ata,Karen,-1.3283746,36.7049676,b9f5cea04b02250d343408a530e896e75dceea46,Laban's gym,-1.3188708999999998,36.7111534,gym,1.2600040349520871
 Embakasi South,Kwa Njenga,-1.3166386,36.884663,dc51f8e27abba40bcf59587ed6c95cf56d43fcc0,The Classic Touch,-1.3136031000000001,36.895558799999996,gym,1.2565994328965793
 Dagoretti North,Kilimani,-1.2874422,36.7845225,15edac33a6360856ced2c5752e515416ede15440,Kenya High School Gymnasium,-1.2766438999999998,36.7813193,gym,1.2516192599685374
 Roysambu,Githurai,-1.2062932,36.9206391,be5941f52cefe00e8911123f950054d614de114a,Nuga Best Wendani,-1.1961341,36.92534620000001,gym,1.2441763723535004
 Embakasi West,Umoja 1,-1.2778669,36.8881172,1f407ae6b0c6e0f82909c62fa26eefae83007fe9,Camp Nou Fitness Centre,-1.2728318,36.8781263,gym,1.2430170599395975
 Makadara,Harambee,-1.290941,36.89721585,7a4556a31ff9a6a583e2cfa141ec8f7fe56660fe,Drushi Wellness Concepts Gym,-1.2922496,36.886126899999994,gym,1.2405005959484965
 Starehe,Nairobi Central,-1.2832533000000002,36.8172449,aa45d1e24d7a0fd242ca451ac5ac77661d294ebc,Mobicare Kenya,-1.2930568999999998,36.8119401,gym,1.2386201459071422
 Dagoretti North,Kilimani,-1.2874422,36.7845225,6e069d36d6ca52b3e92d04551b94deb4dcaf982b,Taj Court,-1.2773348,36.7890209,gym,1.2293521836908
 Kibra,Laini Saba,-1.31234835,36.79611435,a318cad0aa9397842e0e4b9d7c807a5a92acb442,Royal Nairobi Golf Club,-1.3013827,36.7973871,gym,1.22673533850426
 Embakasi Central,Spring Valley,-1.2477029,36.78923560000001,b059d1b1ea6a4495d0b49352556445257ec669b2,Clarence House Hotel Nairobi,-1.257778,36.793706,gym,1.224811321754222
 Kibra,Woodley,-1.3056567,36.77600465,66c58873168eb02494698f7f50daaa02f7a9fc7b,Melon Park Apartments,-1.2948438999999998,36.77468419999999,gym,1.2104954771952965
 Lang'ata,South C,-1.3204427,36.83053678,1fa54a81f825e95523bc28f8eca7f4d9be7b5879,Maisha Fitness center,-1.3190893,36.8412673,gym,1.2015634791051044
 Embakasi East,Utawala,-1.285877,36.98408679999999,b4dd02ef39c50adce949b24f92c0f83b7b9494d6,Jambo Plaza-Mihango,-1.2925722,36.9755982,gym,1.201208283288535
 Westlands,Kitisuru,-1.2395542,36.7839651,28f407430ba639098f9c5b7161aa848a7db80470,AER Aerial + Flow Arts Sanctuary,-1.2351301000000001,36.7938242,gym,1.2006099826958585
 Lang'ata,South C,-1.3204427,36.83053678,71e13020aa114dbfdb68f5e166af6928d8a91cbf,Maisha Fitness Center,-1.3189855,36.8411383,gym,1.188862358122083
 Kamukunji,Eastleigh North,-1.2778285,36.8486835,b7220d8074280222da58a374e9e5bc749fa7d550,Lady Dekorky Saloon And Kinyozi,-1.2839652,36.857418599999995,gym,1.1860904023549914
 Westlands,Kitisuru,-1.2395542,36.7839651,1e552bd74b5f3e039a181b8407864cef719de195,Maxwell Ltd,-1.2372367,36.7735471,gym,1.1857358615893498
 Embakasi West,Umoja 1,-1.2778669,36.8881172,ef0c1f895d046bc4c1f3761840602410d15e17bb,GOLD'S GYM UMOJA 3,-1.2684986,36.89316770000001,gym,1.1826343793667564
 Embakasi Central,Spring Valley,-1.2477029,36.78923560000001,0f787adb2b6c0aaef9958f83563487c1326024f5,MOM3NTUM Fitness,-1.2582983,36.7886333,gym,1.17931493550973
 Roysambu,Githurai,-1.2062932,36.9206391,0835e3c06ed463f1b887961f8156cc2c157a715d,Just Train Gym & Aerobics,-1.1964015,36.9244528,gym,1.1780501285880751
 Lang'ata,South C,-1.3204427,36.83053678,ac40ad1b7268cc6f806dbe53192296dbaa31fbc6,The South Fitness Centre,-1.3112122,36.8356723,gym,1.1737347197396002
 Mathare,Mabatini,-1.2602912,36.86361626,d97f9aaeb28d4e36b7832b485690f828d88f0841,Sina Makosa Stadium,-1.2706772,36.865181899999996,gym,1.1671789132359185
 Lang'ata,South C,-1.3204427,36.83053678,5ae30a970ae9a70be1e79a802defe46930701900,Rented Abs Fitness Studio,-1.3115233999999998,36.835970399999994,gym,1.1605131708859877
 Lang'ata,Karen,-1.3283746,36.7049676,9bef579efde3f6a762ee695e0a052cc73ade3322,ABBÊ INDOOR CYCLING STUDIO,-1.3386827,36.7061702,gym,1.1532537778643297
 Embakasi East,Upper Savanna,-1.324728,36.887724,d93b1e5a532f0033ddf81f103288d5765d56ad37,Alma Plaza,-1.317965,36.8954907,gym,1.1442526630150225
 Roysambu,Zimmerman,-1.2103969,36.89522120000001,76aeec36db230156ceea72f7a757913a8e10789b,Barstarzz Health and Fitness Center-Gym,-1.2010589,36.8991353,gym,1.1251199014824351
 Embakasi West,Umoja 1,-1.2778669,36.8881172,d6b356b703bc6e2e50d44e6105887b241281d52f,Metalic Curves,-1.2695232,36.88244299999999,gym,1.1211965941532671
 Embakasi East,Utawala,-1.285877,36.98408679999999,23f87a76832e984a54891dd216b7e1dbecc65126,Deluxe Gym Utawala,-1.2959614,36.9841848,gym,1.1206829818877426
 Kibra,Woodley,-1.3056567,36.77600465,192aabc24c64436668ac05aa313f0edbbaf9b344,Ignite Therapy,-1.298457,36.783029,gym,1.1176319313821963
 Starehe,Pangani,-1.2648989,36.8372708,bc1d83b831889669f3b90290ad713d39115060d3,RacingSportGym Parklands,-1.2580236999999999,36.82994420000001,gym,1.1163590776965477
 Embakasi South,Kwa Njenga,-1.3166386,36.884663,51847ef864c8875721a55760f72b30d719566461,Health & Soul Fitness Centre,-1.3136845,36.89421949999999,gym,1.1112805222035929
 Dagoretti North,Kileleshwa,-1.2723271,36.7996878,37cee76009a7df336946392b5850c90115d654c4,Muscle 'n' Motion,-1.2650736999999999,36.7928051,gym,1.111029683215813
 Starehe,Nairobi Central,-1.2832533000000002,36.8172449,6d717c505ddef3079e7d6d4a3eaa10ef5b832ed3,Old Nation House 1st Floor,-1.2920658999999999,36.82194619999999,gym,1.1098777741554735
 Westlands,Kitisuru,-1.2395542,36.7839651,6d09294bd7285beed8cffb910d95b13460803955,Zuberi Pilates Studio,-1.2316398000000002,36.79002929999999,gym,1.1078853321238418
 Embakasi West,Kariobangi South,-1.324728,36.887724,edde75bdadfc46768e291d7665ccfbcd7dadce32,Universal Fitness,-1.3183336,36.895373600000006,gym,1.107765264532707
 Kibra,Makina,-1.30854575,36.78652379,377570910073007eca6684fb700e51bb5fde8cf1,Marjolein Blokland,-1.2994861,36.79068290000001,gym,1.107725628509714
 Embakasi South,Kwa Njenga,-1.3166386,36.884663,8f423cc3104524488d9424d8e9ebd7e268ef4aad,Heart and Soul,-1.3133507,36.8940599,gym,1.1060466900097554
 Kibra,Woodley,-1.3056567,36.77600465,d1fa5dd42b83f35aadd696e8bde17451617a8481,Westside apartments,-1.2960385,36.778458799999996,gym,1.1030505095014658
 Embakasi East,Lower Savanna,-1.324728,36.887724,65156c4a4f35b265591e3392404567fc87a018fd,The Blaks House,-1.3181502,36.8951589,gym,1.10297366980442
 Makadara,Makongeni,-1.2873101,36.87210716,17dcfda7aa08a09611405f18ef2e9e2191613b48,Power Flex Gym & Aerobics,-1.2793305,36.877930400000004,gym,1.097650260861731
 Embakasi Central,Komarok,-1.26725495,36.90524096,ee916ba6a2c12797547cdf93f760e6f375036d6f,Universal Gym,-1.2748802,36.9114393,gym,1.091885256330636
 Makadara,Maringo,-1.2920714,36.86572592,c00f50dffbcfd8cc3cf95fadf6723f121d5afd34,Bahati Sports Geound,-1.2903245,36.8560842,gym,1.088613399519367
 Embakasi East,Utawala,-1.285877,36.98408679999999,5d97eb602719c7f7a039c3c70100f0b866cee6a3,BMI Fitness Center,-1.2825360000000001,36.9932929,gym,1.088073127427008
 Roysambu,Roysambu,-1.2188396,36.88673920000001,af6ce90e2eb6e4e580c784f446e8486cbf0b8cbe,Tae Kwon Do Gym,-1.2227531,36.87776679999999,gym,1.0875674795733536
 Westlands,Parklands,-1.2630616,36.8106288,6fb30dcfe4f6e8457e7ddad4a30d92e15bc5f817,The Concord Hotel & Suites,-1.2545608,36.815443,gym,1.0855560697873416
 Lang'ata,Nairobi West,-1.3087022,36.8230975,6034fab789f7f3f95e0fd57de7fdd214b00b75d7,Strathmore University Gym,-1.3108823,36.81360300000001,gym,1.0822654196697232
 Starehe,Ngara,-1.277803,36.8300722,73b595b6f20b4cfc7a9bc6e4e58814cea431091c,The Scent Culture Perfume Shop,-1.2873603999999998,36.828324200000004,gym,1.0796756581548823
 Westlands,Parklands,-1.2630616,36.8106288,40a0ca37d2473545cb4a7253e88b9a68fc2af230,Workout Express Ltd,-1.2580087,36.81889170000001,gym,1.0761035672569756
 Lang'ata,South C,-1.3204427,36.83053678,94b7cf0fa34b2695f8238f5785bdc1d0edd83ced,Fitness 360 ke,-1.3234853000000002,36.839723,gym,1.0750982163651472
 Makadara,Makongeni,-1.2873101,36.87210716,48e987e17f95b8d725539e24bc79e96c0116d753,Power Flex gym,-1.2792350000000001,36.877289399999995,gym,1.0661606646855863
 Westlands,Parklands,-1.2630616,36.8106288,ae4415a823998d2d24f8e8008698dcccdabff640,Diamond Plaza 1,-1.2580079,36.8187062,gym,1.058624630757949
 Starehe,Pangani,-1.2648989,36.8372708,a4a0ce0bd9979526c9550a620ec05539ea117d05,Gosh Massage And Fitness,-1.2581083999999998,36.8306297,gym,1.0553593779604364
 Makadara,Maringo,-1.2920714,36.86572592,614f98c4a32dc9f0a709486d0eb3a5db95c8ca20,Bahati Volleyball Ground,-1.2907428,36.85635910000001,gym,1.0510457972504823
 Lang'ata,Karen,-1.3283746,36.7049676,0a622db2d1765b3c6100524eb8c02f9885b97f18,Karengata Stables Horse Riding,-1.3377428,36.7061135,gym,1.0487970747148572
 Embakasi Central,Spring Valley,-1.2477029,36.78923560000001,b3da9a835e85f7d54c85acfaac2eedfb24a2ad4a,Japheth's Powered Fitness,-1.2548381000000002,36.79541469999999,gym,1.0487888410564614
 Westlands,Parklands,-1.2630616,36.8106288,6e1330bf17c69b4380ecb461c6850ae43a095d4f,Cloud Hotel & Suites,-1.2580078000000001,36.818543299999995,gym,1.0433333907915736
 Makadara,Harambee,-1.290941,36.89721585,d1bed8821ac67c26a7d8b5bc765a2bca617205f9,Ochako D,-1.2979243999999999,36.891031700000006,gym,1.036458818116684
 Embakasi East,Embakasi,-1.324728,36.887724,a00d5195fb9fd8056953f4b30578cc7f139034b8,Digital Fitness Centre Gym,-1.3199283000000002,36.89567720000001,gym,1.0320695186113718
 Westlands,Parklands,-1.2630616,36.8106288,20f4ef4bf5aed52363af7d18323b74e25b2d185b,Africa Yoga Project,-1.2583213,36.8186128,gym,1.031632813151355
 Dagoretti North,Kileleshwa,-1.2723271,36.7996878,0860f1876a1c6a0d46e7827a9f907163518f8ad2,PAUKA COURT,-1.2752086999999999,36.790937400000004,gym,1.0235297489025037
 Dagoretti North,Kileleshwa,-1.2723271,36.7996878,f99b2d950d234bcbdc6632ac47ded8e63d6dc6e5,Enzyne Creation Limited,-1.2760732,36.80809779999999,gym,1.0228726600454925
 Dagoretti North,Kileleshwa,-1.2723271,36.7996878,8908d1bd04c6a49e6ed9fa9e68edae473176a49a,Joja fit fitness,-1.2633653999999999,36.80173789999999,gym,1.0215832631974122
 Embakasi West,Umoja 1,-1.2778669,36.8881172,4a68b2f3378da358d9e1dda5b4fb7354358471e1,Kariobangi South Flats,-1.2711303999999999,36.8818867,gym,1.0195712976926563
 Roysambu,Githurai,-1.2062932,36.9206391,95c7c0b8f80a0cc9d3343aa15b06bfe05bbb83a4,Ken Ben And Nyamu Dam,-1.2103852,36.912431,gym,1.0190082550000594
 Westlands,Kitisuru,-1.2395542,36.7839651,36cab3c0ebde3d1cd2d145cc7e6b410cf967f23d,Revitalize Wellness Center at New Muthaiga,-1.2360405,36.792403799999995,gym,1.0155918293893884
 Lang'ata,Nairobi West,-1.3087022,36.8230975,09d69f91ccb14e6258ac4d664ef59689c998b164,Revitalize Wellness Center at Radisson Blu,-1.3021435,36.81674320000001,gym,1.0146685434279858
 Embakasi Central,Komarok,-1.26725495,36.90524096,0e20b5dfd60dc0586f837508470236f2df91dc9b,CROWN FITNESS,-1.27528,36.909478299999996,gym,1.0084115143801469
 Westlands,Parklands,-1.2630616,36.8106288,d8eb1c38b94e491fdd3062bf6bc61564b7b66050,Arena Ltd,-1.2611318,36.8017745,gym,1.0068004088464713
 Dagoretti North,Kilimani,-1.2874422,36.7845225,a1414de8f5f713f5bc19ebd2c9823709d1666b0e,River Bank Estate,-1.2789528000000001,36.7814135,gym,1.0046284670191414
 Starehe,Ngara,-1.277803,36.8300722,8e973fa9ec5365ec52bae75b7eda82f24512dfb9,Great Body Gym Ltd,-1.2862234,36.8267809,gym,1.0046249231023598
 Lang'ata,Nairobi West,-1.3087022,36.8230975,f289cb3457df34b2092080903322bfd0ccaf35d5,Hillpark Hotel gym,-1.3001858,36.8201584,gym,1.001131204837863
 Embakasi Central,Komarok,-1.26725495,36.90524096,5a75095a1cab7267ed51865e0e7a21fd6fbc1e99,Bongo Warembo,-1.2595283000000002,36.90960940000001,gym,0.9862947687461864
 Dagoretti South,Riruta,-1.2917037,36.7346929,3605285ac569023c79a283bfaaf189e607361198,Dreams Gym,-1.2860773,36.74146,gym,0.9778179651671712
 Makadara,Makongeni,-1.2873101,36.87210716,01a1e422af020eaf174e0f13b2efd11d04271438,Nuga Best,-1.2865954,36.880834899999996,gym,0.9728736618704896
 Makadara,Makongeni,-1.2873101,36.87210716,0ecf9d82ac7038585345cc70f8e87d1420977665,Lintons Beauty Box Buruburu,-1.287409,36.8808457,gym,0.9708883471257216
 Westlands,Parklands,-1.2630616,36.8106288,e82bc0fb38d3ef16c36c8dc6eeef5f8cb48bb9de,Life Fitness Centre,-1.2608798,36.8022037,gym,0.966904277427634
 Makadara,Makongeni,-1.2873101,36.87210716,accb2ef0b590fb06613a34e782ef77f387646040,"Henry's Fitness,Gym and Training Facility",-1.2867108,36.8807847,gym,0.9663469104698034
 Dagoretti North,Kilimani,-1.2874422,36.7845225,4b6c26d69ef4665bc80f4fa01b185e8ffbaf98cd,Maravik Limited,-1.2928304,36.7913447,gym,0.9659036672731832
 Kasarani,Mwiki,-1.2322833999999998,36.9275102,51a8aac0fb66454bb334f1e515a90905731faa09,2nd Street Off Road,-1.2296008999999999,36.9192549,gym,0.964386309951058
 Westlands,Parklands,-1.2630616,36.8106288,e6fa33a2d334b57461f2623c38697c68c70f7bfc,Shasyl Spa and Barber,-1.271728,36.81054220000001,gym,0.9631027403337382
 Starehe,Ngara,-1.277803,36.8300722,2d7a549b13b6e846af7f8e4216a9226f1970e666,Gym Solutions,-1.285939,36.827124,gym,0.9616145368511924
 Makadara,Makongeni,-1.2873101,36.87210716,d60ae8fa84b3a595fdaf5c52fc882ff316a54f7c,GYM BRAVO FITNESS CENTRE,-1.2833652,36.879775,gym,0.9580533051774912
 Roysambu,Kahawa West,-1.1856847,36.90579279999999,3663d79155d6a3dba6fad71d368da1890ffefc4d,Jacaranda Drill -Fitness Studio & Gym,-1.1912662,36.8992256,gym,0.9576296790290147
 Lang'ata,Karen,-1.3283746,36.7049676,be47034def94215a4e13ab1972015f80995f59b7,Smart Gyms The Hub Karen,-1.3198945,36.70346079999999,gym,0.9571048670915844
 Makadara,Makongeni,-1.2873101,36.87210716,27eeebc822c854473c10322e542ee950f5c1e95f,BRAVO ONE HEALTH AND FITNESS,-1.2835568000000002,36.87985659999999,gym,0.9566501453755852
 Westlands,Parklands,-1.2630616,36.8106288,61390ef64f717cf0f46c6d55c067212edceea54f,Warrior Martial Arts,-1.2661566999999998,36.8186592,gym,0.9561640130214484
 Lang'ata,Nairobi West,-1.3087022,36.8230975,9608ab79c3300150094800e25c1135d3c6be7722,Qwetu | Student Residences | WilsonView,-1.3114324,36.814981599999996,gym,0.9513205074217976
 Westlands,Parklands,-1.2630616,36.8106288,12531e8f51e0b6906fb97442e1b9ebbc04ec5241,Arena Health Club Cardiovascular room,-1.2604953,36.8024897,gym,0.94814355291131
 Lang'ata,Nairobi West,-1.3087022,36.8230975,c7df4bf8a6ca691abda8d29e2cd8b6bb877014c8,Madaraka 'Spain' Grounds,-1.3083382,36.814575700000006,gym,0.9476027531085972
 Dagoretti North,Kileleshwa,-1.2723271,36.7996878,c28eba663b1f763fabf25959933a9f44ad105481,Minah Heights,-1.2641844,36.7971571,gym,0.9475321694210488
 Lang'ata,Mugumoini,-1.1991235,36.8467412,446bd35854b2659a812009b2e8bdecb55c1cdc52,Terimas beauty parlour,-1.2016653,36.8386126,gym,0.9462346610579268
 Westlands,Parklands,-1.2630616,36.8106288,4eb2a82993e45aa9078084e5262f36ba22d57b3e,Spin Studio,-1.2607913,36.80244239999999,gym,0.9438369688902712
 Westlands,Parklands,-1.2630616,36.8106288,715d669ed7880699c624c8b6baf14c9fff0ade62,Arena Health Club Steam Sauna,-1.2605721,36.8025347,gym,0.9408320646577804
 Westlands,Parklands,-1.2630616,36.8106288,bde8722c4a3e2b60a7c8d7715ad926c00b286729,Arena Club Weights Chamber,-1.2605833999999998,36.802541299999994,gym,0.9397625111401074
 Westlands,Parklands,-1.2630616,36.8106288,8bf109fdbec41bd5755b7789a5f20809c8b3cc87,The Arena Health & Fitness Club,-1.2605856000000002,36.8025426,gym,0.9395528015001542
 Westlands,Parklands,-1.2630616,36.8106288,facb11f6ee7076ad3f47ce3a5ed9e41ffb63ead4,parklands,-1.2603269,36.81859949999999,gym,0.9362239045292275
 Westlands,Parklands,-1.2630616,36.8106288,24038afa3d07252e339b72ff2bf311b6c23b9dce,The KENYA DANCE Empire,-1.2606411,36.8025802,gym,0.9337642130644652
 Starehe,Ngara,-1.277803,36.8300722,965affe993fc0b52f54eb2fd2e335730d6fb80fe,Toptech Gym,-1.2745427,36.8223471,gym,0.9315779707940396
 Kibra,Sarangombe,-1.31226715,36.77745932,fd96ae94cecdd0f842a8f7253d6b1e91062acd2b,Parlisa Health And Fitness Studio,-1.3205343999999999,36.77878129999999,gym,0.9303643195054628
 Embakasi West,Kariobangi South,-1.324728,36.887724,58ea700b673c0cb33e74cf59f5180df7aa60114a,Hardcore Gym,-1.3206779,36.8950456,gym,0.9296103793975732
 Dagoretti North,Kilimani,-1.2874422,36.7845225,d64c7b8cc6857cb7319ef81da7d734a7183c49bd,TechnoShape Studio,-1.292502,36.791126,gym,0.9243157442119424
 Makadara,Makongeni,-1.2873101,36.87210716,7fb5879ece458f98fe9e3247d4371ad4c47f23b9,Stop & Trend Fitness Centre,-1.285829,36.88027599999999,gym,0.9223381950817232
 Makadara,Harambee,-1.290941,36.89721585,c2caf63406c38a0fea83603d4f759300449ab556,Tena Fitness Centre,-1.2933012,36.88926449999999,gym,0.9214835988002584
 Dagoretti North,Kileleshwa,-1.2723271,36.7996878,f0e63bf7067322446f591165cc9e00faf6a8c3f5,Acacia Studios,-1.2641613999999999,36.8007696,gym,0.9153389453854264
 Westlands,Parklands,-1.2630616,36.8106288,54f3bddc4be64426f24f7567f7c427ad778cbbc5,Progressive Gym,-1.2572489,36.8047994,gym,0.914695037306536
 Kibra,Lindi,-1.31516185,36.79284123,4761c9313b30649134e2aec6443bebefe6f2d1fe,Park Garden Estate-Club House,-1.3192173,36.78568660000001,gym,0.913718474498242
 Roysambu,Githurai,-1.2062932,36.9206391,3ccbd310fd427d234d7a68284d205e503bdea00f,Galaxy Inn,-1.2091697,36.9282778,gym,0.9068658171666608
 Kibra,Woodley,-1.3056567,36.77600465,453e1120c5957a25d110463e03da4167fe0a72d3,Zeal Fitness,-1.2978931,36.7735389,gym,0.9051771136946021
 Embakasi East,Upper Savanna,-1.324728,36.887724,37840c980795d7e99432a8ab1162fda85603d935,Power House Fitness Center,-1.3207985,36.8948472,gym,0.9038367056491814
 Ruaraka,Korogocho,-1.2514893,36.8903648,6ad0ebf92f86767266d3e688b46b70d13cdaead9,Ceragem,-1.2574815000000001,36.8958348,gym,0.9015049704385072
 Kibra,Woodley,-1.3056567,36.77600465,4b194f5855d183057fc20d025b69d058133f500c,Impala Club Rugby Grounds,-1.3019197,36.7688108,gym,0.9006610177216976
 Roysambu,Roysambu,-1.2188396,36.88673920000001,bb24948f142263cd96070d8772ff0628a5a0dd7e,FIT 'N' FUN CLUB,-1.2107708000000001,36.88644600000001,gym,0.8972378264705368
 Dagoretti North,Kileleshwa,-1.2723271,36.7996878,abc98dbb94167eedf8b34ec807b996c3b35ff07b,Asmin Court,-1.2654246,36.7955584,gym,0.8937671282408947
 Lang'ata,Nyayo Highrise,-1.31600475,36.80173345,f14c30304f0d931baedf6d8fa67e958e37c2d1f5,Esterina Fitness Gym,-1.3226307,36.79721350000001,gym,0.8912367878880618
 Ruaraka,Mathare North,-1.251788,36.87077217,f4eecb1667234b4add0132a4217abd95643f958b,One Tribe Brazilian Jiu-Jitsu,-1.2438865,36.871347799999995,gym,0.8803809180207621
 Lang'ata,Nairobi West,-1.3087022,36.8230975,846cd76cff3f4adc0eb49a4ff06eda1750811eab,Gym & Tone - It Fitness Studio Ltd,-1.3012476999999998,36.825648799999996,gym,0.8755313906968275
 Lang'ata,Nairobi West,-1.3087022,36.8230975,6705e74a0b2e9c39c2b40114099a0e8ac7f25984,HIGHWAY FITNESS CENTER,-1.301129,36.8251881,gym,0.8730339987999619
 Embakasi South,Kwa Njenga,-1.3166386,36.884663,174f48cdfbb81c7d944c3ff0246d0e624b8fb101,Iron Bag Gym,-1.316799,36.892499,gym,0.87072891692763
 Kibra,Lindi,-1.31516185,36.79284123,900df6b3010244c9cd6c6d4d7484230671b1f601,HQ gym n spa,-1.3222027,36.79614760000001,gym,0.8643495450308845
 Kasarani,Kasarani,-1.2208721000000002,36.9012224,28191a5af5e3749c9eddd9a2026c56c9e994b5c5,DImanga Gym,-1.2194616000000005,36.9088721,gym,0.8642139811485909
 Dagoretti North,Kileleshwa,-1.2723271,36.7996878,3b5da6fc00166a867da720003b78b4709efdc4f7,Activ Kenya Ltd,-1.2778459,36.8051541,gym,0.8630837463250345
 Dagoretti South,Riruta,-1.2917037,36.7346929,e018ec91ec8116388ad0b85c658a52d6bd4fb4e8,Dream Gym,-1.2860340000000001,36.7397783,gym,0.8462577371377187
 Westlands,Parklands,-1.2630616,36.8106288,0c346a04d7d8ab4a9a2efc7d7be74c94ee1cbbcd,Physiotheraphy Clinic,-1.265158,36.80330989999999,gym,0.8458301709949717
 Embakasi West,Umoja 1,-1.2778669,36.8881172,4cc26309146b9dfd28de3f4f1ba30911b17838b5,Team Clint Fitness Gym,-1.2854404,36.8886393,gym,0.8436025079276268
 Lang'ata,Karen,-1.3283746,36.7049676,12887d7686325a85f196c9cc910f98a40917c247,Fitness Revolution,-1.3290094,36.7124902,gym,0.83869690519793
 Starehe,Ngara,-1.277803,36.8300722,36527a4def4a99cfbabeb1b9031732d9beccc8bf,Della Hub & Beauty Salon,-1.2850746000000002,36.828441700000006,gym,0.8281122729349675
 Dagoretti South,Riruta,-1.2917037,36.7346929,bbf0504dd470baa1439d28d9d9b77de240a54499,Redefined Body Fitness,-1.2851443999999999,36.73822129999999,gym,0.8276227277439472
 Starehe,Ngara,-1.277803,36.8300722,7a4600e65d7cb1c31913dceb8dc14cf75984d0d4,Hotel Central Park & Conference Center,-1.2849271999999998,36.82790060000001,gym,0.827622618266454
 Lang'ata,Nairobi West,-1.3087022,36.8230975,fe88b4dd15a0b24677556de78fc2d3997150a36c,Vinodeep Investment Properties Ltd,-1.3017295,36.82564840000001,gym,0.8250413674526267
 Kibra,Woodley,-1.3056567,36.77600465,a9d8d12a4563025ab9ddac9fb16c735e430c2651,Ayatana,-1.2986379,36.7784252,gym,0.8250213867416539
 Roysambu,Githurai,-1.2062932,36.9206391,1bf5cba3389b35ac077f738f55ec48b27d38f7cf,Everlasting Glory Fellowship Church,-1.210732,36.92653399999999,gym,0.8198995353674757
 Westlands,Parklands,-1.2630616,36.8106288,3360ac44b4852a256c2bdad2674476ee23d9d1ee,Divya Yoga & Nature Care Ltd,-1.2598553999999995,36.817158299999996,gym,0.8081892430286935
 Kibra,Woodley,-1.3056567,36.77600465,c76ed09828b22550375f585ba6136772fa6c5f23,Ultra Fitness Gym,-1.2988655,36.7784684,gym,0.8027766668263964
 Starehe,Nairobi Central,-1.2832533000000002,36.8172449,5d312e5e66e687ec37ab560fcea7a8e6f9a2f929,The Saints Health Club,-1.2896303999999998,36.813926,gym,0.7988415625511308
 Starehe,Nairobi Central,-1.2832533000000002,36.8172449,064362499532bf5deb84c970eda2a63059d1e722,Health Club,-1.285496,36.824075500000006,gym,0.7987365057125874
 Dagoretti North,Kabiro,-1.2878118,36.7515014,6767add8d3dd5cc84d5477f7f7abe4ba07315f20,hopecenter篮球场,-1.2849832,36.758110200000004,gym,0.7986734573948086
 Starehe,Ngara,-1.277803,36.8300722,ac2fa4575bd0625dbe28cb9438e6791d3fb74086,Midtown Business Plaza,-1.2837073,36.82599389999999,gym,0.7973564124395295
 Kasarani,Mwiki,-1.2322833999999998,36.9275102,58341e010e968c135a358988b3bd6440c8f46a95,Antoneddie Gym at Sunton,-1.2274682,36.92220589999999,gym,0.7959908840305306
 Roysambu,Githurai,-1.2062932,36.9206391,9a2f4f766b922a82714ef9eec7207bc671104087,WASWARISE FITNESS TRAINING INSTITUTE,-1.2053412000000001,36.91358320000001,gym,0.7910202284925506
 Starehe,Ngara,-1.277803,36.8300722,ab59d785c5a6d0b0df1052b095d17a835bc7600f,Dorisdaggie,-1.2838638,36.8263492,gym,0.7903730248398956
 Starehe,Landimawe,-1.2694542,36.83557186,1374d621eaf8e0262a59eacf65cc15ff5b7fda2e,Paward apartments,-1.2700353000000002,36.8286033,gym,0.7768802731593358
 Kasarani,Clay City,-1.2208721000000002,36.9012224,7e7c7bb505501bfe3198279b8f6e525cf1af3bdd,Kasarani GoodLife Fitness Center & Gym,-1.22,36.894302,gym,0.7749394741592349
 Starehe,Nairobi Central,-1.2832533000000002,36.8172449,33b268e986b52380801ed3a32d68b52b445db40f,TYRA BEAUTY PARLOUR,-1.2856955,36.823778000000004,gym,0.774887848204697
 Starehe,Nairobi South,-1.314183,36.8235852,bee4557975def62af3be6d0906ecf15b47c17ce7,Samto Fitness Centre,-1.3145276000000001,36.81662,gym,0.7747519454622054
 Mathare,Kiamaiko,-1.25377765,36.87573249,921b255ac16ab7fa3b910a1726abc980f4f0d619,Olympia Gym,-1.2565286,36.8821262,gym,0.7733193263635988
 Starehe,Nairobi South,-1.314183,36.8235852,3216d65a48eb910fc73224c338ccf703dd8b7630,Infinity Fitness,-1.3123022,36.8169444,gym,0.7667992729548659
 Starehe,Ngara,-1.277803,36.8300722,9729ce6c49f0d010fa904157e28fe57f6cf34015,Orthodynamic Physical Therapy Services,-1.284053,36.8271489,gym,0.7667142605993595
 Dagoretti North,Kilimani,-1.2874422,36.7845225,2eb377c1d74669db5b7f4478b746bf11d45f6dc0,Elgeyo Court,-1.2911222,36.778709899999996,gym,0.7643567393806329
 Embakasi Central,Komarok,-1.26725495,36.90524096,8775a80c5f316d9074be2c7e9b26cecb0ddc79f9,Gold Rock Gym and Fitness Centre,-1.271717,36.91045099999999,gym,0.7621682884318186
 Westlands,Parklands,-1.2630616,36.8106288,52a3630f7e253437c181e7239de0eb48bdeb8458,Yoga Heart kenya,-1.2611431,36.80407160000001,gym,0.7590476039585106
 Westlands,Parklands,-1.2630616,36.8106288,3504f1d1a19c0d3bd6ca87e8d4412763887095c1,Outdoor Junkies,-1.2641892,36.80389279999999,gym,0.7587747061277182
 Kibra,Lindi,-1.31516185,36.79284123,36253951e9e89d47dcab653bd7f74ec775348774,Sadili Oval,-1.320829,36.789035,gym,0.758556590673629
 Westlands,Parklands,-1.2630616,36.8106288,7875e321591c4b7eaa9d4ed1ebe1a2b60a023c06,YOGA HEART KENYA,-1.2611769,36.8040859,gym,0.7564744870267753
 Kibra,Woodley,-1.3056567,36.77600465,8c9b25f77cf16dd09a58fc2ef7ad4dd3c6ac45be,Colloseum Gym,-1.301251,36.781156,gym,0.7531370255156707
 Dagoretti North,Kilimani,-1.2874422,36.7845225,c993acdcbf5be63f033267fe96f4e8c1273b6bb5,suguta court,-1.2869671999999999,36.7777714,gym,0.7518825388988731
 Embakasi West,Mowlem,-1.324728,36.887724,f8d87247600fe4874dc0f71c142f2262744158a9,Power House Gym,-1.3205959999999999,36.89307799999999,gym,0.7514183436475769
 Starehe,Ngara,-1.277803,36.8300722,66f041796b98020ee9be1e10edf72c4a53112018,Orthodynamic Limited,-1.283934,36.8272692,gym,0.7491023282762791
 Dagoretti South,Uthiru,-1.2631329,36.7188955,246ed7abccd36af029e5c572720c507542bb951f,Whips Gym,-1.2599726999999998,36.712979600000004,gym,0.7451829421849017
 Starehe,Nairobi Central,-1.2832533000000002,36.8172449,53c1de58855500a6209367311b84d7e4381b2a8b,Pink Touch Beauty Spa,-1.2831576999999998,36.82389939999999,gym,0.7393729430907893
 Kasarani,Njiru,-1.2539022,36.9343299,622ec6297a15e3fdb5981b353ebd420e8f90b5db,Body Image & Mind Shappers,-1.250338,36.939904999999996,gym,0.7351950498622825
 Embakasi West,Mowlem,-1.324728,36.887724,0adadba05ecfccc8f31b14b719c2854557257faf,Phenomenal gym and karate training,-1.3227672,36.89404320000001,gym,0.7350715331767241
 Roysambu,Githurai,-1.2062932,36.9206391,9d2c1be4fd1ce30f26bfdf02ecf4731e700ec992,Oilibya Babadogo,-1.20802,36.914266,gym,0.7335959107803287
 Kibra,Lindi,-1.31516185,36.79284123,06965149f427715f0ad506b9afa56f5efee930e0,Sadili Gym,-1.3205773,36.7891185,gym,0.7302068887908955
 Embakasi West,Kariobangi South,-1.324728,36.887724,1970eac357d3f30ee4b153d630bb00bdf8fe6d17,Easy Life Appartments,-1.3259617,36.8941793,gym,0.7301403748622586
 Kamukunji,Pumwani,-1.2797575,36.8442693,64b6b9a2b6098a9a0552eff7696147d0506398f0,Mudasa Acadmy - Majengo Vihiga County,-1.2860893999999998,36.8425202,gym,0.7299725289113543
 Westlands,Parklands,-1.2630616,36.8106288,5c466144a32dd2cd78d9750e20743028e3c1f9f1,Physiq and tone gym,-1.2636246000000002,36.80415109999999,gym,0.7223745177462657
 Kibra,Woodley,-1.3056567,36.77600465,4b027ffb43546f3a93754f90e3d6368e4524f9a4,Children World & Fitness Center,-1.3011671999999999,36.7806709,gym,0.7194716760124521
 Kibra,Laini Saba,-1.31234835,36.79611435,f1e16d0e720bc98c5cbce4dac8841a5f4930add6,Danwin Fitness Gym,-1.3080902,36.80099020000001,gym,0.7192578848491591
 Dagoretti North,Kilimani,-1.2874422,36.7845225,9b5a80af3f55fd26f49814fb39b857dbd9010c17,MaasaiFit Personal Training,-1.292867,36.7880467,gym,0.7188183979524176
 Starehe,Nairobi Central,-1.2832533000000002,36.8172449,58520a1457eb94062a251660a1b70934d4582685,Figure 8 Gymnasium,-1.2826716999999999,36.8236817,gym,0.7180254608633896
 Westlands,Parklands,-1.2630616,36.8106288,6cc1f8dcfb3308e9423fe3c42ff4e8957468df15,RacingSportGym Westlands,-1.264441,36.80435,gym,0.7142060205689174
 Starehe,Nairobi Central,-1.2832533000000002,36.8172449,a2a8c0c953c2a403d222c458ff1990397389713a,Figure8 Health Club&Fitness Centre,-1.2825941,36.8236367,gym,0.7138798020340499
 Makadara,Harambee,-1.290941,36.89721585,324d1935a8aaddd6230f47fe9fa32309416fe131,Olympia Gym,-1.2879268999999998,36.89158670000001,gym,0.7094281777948337
 Kibra,Woodley,-1.3056567,36.77600465,b1f7bc89d00f7f27c64e5de495f346a86e26e980,The Colosseum Fitness Centre,-1.301244,36.780541,gym,0.7031660027133255
 Embakasi West,Umoja 2,-1.2818728,36.89933970000001,77019e80968764ce29f0647feb15c24bf16c1ad5,Leijona Lifestyle Centre,-1.2756450000000001,36.9004227,gym,0.702446073659312
 Embakasi West,Umoja 2,-1.2818728,36.89933970000001,db76eb7c03b4ab302e60dfbb71eed0761c1248f7,Leijona Lifestyle Centre,-1.2756491,36.9004112,gym,0.7017793498529281
 Embakasi Central,Kayole South,-1.2659842,36.9169455,0bb4f3eb57440ae3cc9b9036242c5d191c2b1924,Skymax gym and fitness centre,-1.2707861,36.9129479,gym,0.6942538146662883
 Embakasi North,Dandora Area 4,-1.2484935,36.89734979999999,adc39bc0f74e019a0c6b889256d10a823ac318f3,Social Hall,-1.2470291,36.9033786,gym,0.6892773047100128
 Roysambu,Kahawa West,-1.1856847,36.90579279999999,ea10e0629d668aef3bbc73e70bd9156cb09d47d1,Genesis Fitness Centre,-1.1828889999999999,36.90028799999999,gym,0.6859743163827364
 Kasarani,Clay City,-1.2208721000000002,36.9012224,69ff4e48f454a6a8174e8b7f094fd42971b7f64d,B$C Barbers And SPA,-1.2246195,36.8963267,gym,0.685020944828286
 Roysambu,Githurai,-1.2062932,36.9206391,1c968b785703e9cbd354ced1e82be7d9616e70cc,Nugabest Githurai,-1.2003603,36.918975,gym,0.6847264923301324
 Westlands,Parklands,-1.2630616,36.8106288,c40395ac338f65767995604187b42b387abc582f,Muscle Men Gym,-1.2580802,36.80710669999999,gym,0.6778953504244275
 Dagoretti South,Riruta,-1.2917037,36.7346929,f8c21faaf024a08d96f4769b6bcc4287131b59a6,Flex Gym & Fitness Center,-1.2940732,36.7402513,gym,0.6713153710617645
 Makadara,Harambee,-1.290941,36.89721585,e4f563bed98ec4c43dd4b602c2568deb89393aed,NELSONS' FITNESS,-1.2905001,36.89121069999999,gym,0.6689503094260624
 Starehe,Nairobi Central,-1.2832533000000002,36.8172449,db54a4e96ddb982ab2d74ace9e90455896d614f3,SOPTEC,-1.2817515,36.8230667,gym,0.6679698998640494
 Dagoretti North,Kileleshwa,-1.2723271,36.7996878,6188f42eaf386872188a47d74094b008059b8802,Wentworth Gym,-1.2764944999999999,36.7953668,gym,0.6670194386679956
 Lang'ata,Karen,-1.3283746,36.7049676,cbf995e8345640724a8c820c4b33643cde1ce973,Uppercut Fitness Boxing,-1.3229615,36.7074323,gym,0.6609202559325794
 Lang'ata,Karen,-1.3283746,36.7049676,f5537cb1616c02543c45cd2dcf5ec542ef74140e,Karen Gym and Personal Training Center,-1.3229615,36.7074323,gym,0.6609202559325794
 Kasarani,Clay City,-1.2208721000000002,36.9012224,845e14d904a1b3cc99c0c15cdc71707b849135a0,Shacs Gym And Fitness Centre,-1.2180147,36.896034,gym,0.6581012473535901
 Kibra,Woodley,-1.3056567,36.77600465,0e0ef1a654749590202122a5291ede5aebe461e9,The Valour Babershop,-1.3006328,36.779137299999995,gym,0.6578756097468166
 Kibra,Woodley,-1.3056567,36.77600465,c4c266bd2d1649e7bb537eb9f5047bebec375808,Alpha Fit,-1.3008771000000001,36.7726902,gym,0.6462904385301297
 Kibra,Lindi,-1.31516185,36.79284123,121bdc3e51e9deae35134e29d64e462009b574ce,Family Gym & Spa,-1.3209024,36.7935995,gym,0.6434574303999696
 Embakasi South,Imara Daima,-1.3285901000000002,36.8743999,34723576e501498e81b9089668dbe867caa58045,MUIMARA GYM,-1.3244858,36.8784672,gym,0.642023761080114
 Makadara,Harambee,-1.290941,36.89721585,8ac41d99ff164c6ede2c21944ea6130e9085ee7f,Gym,-1.2881136,36.89219179999999,gym,0.6405134865884959
 Starehe,Nairobi Central,-1.2832533000000002,36.8172449,9e8bd93d09261e60ee7f9905cc20b3ab59e91426,YMCA GYM,-1.2794281,36.8129539,gym,0.6387096919693582
 Mathare,Mlango Kubwa,-1.2658072,36.8456235,c6e2b641c613759de0dc279b34061de8dcc19cb2,Body 4 Life Gym,-1.2713636000000001,36.8445435,gym,0.6290055354987256
 Embakasi Central,Spring Valley,-1.2477029,36.78923560000001,815ba14e45bd42c46aa556c30edd3408bc6b0f69,Atelier Pilates,-1.2488811000000002,36.78370510000001,gym,0.6282262438062809
 Starehe,Nairobi Central,-1.2832533000000002,36.8172449,c3f6c52dd08a3eaffd861a4dc6124cf6ae141ebf,G N L D Training Room,-1.2851863000000001,36.822493200000004,gym,0.6213802584620005
 Kamukunji,Pumwani,-1.2797575,36.8442693,7db310a1d38893c3e6c98e0bcb10fe9c540d739b,Iron Man Fitness Center,-1.274242,36.84361429999999,gym,0.6172152520556328
 Embakasi North,Dandora Area 3,-1.2484935,36.89734979999999,f2a5b5dc335a9a550c99f8cd771581006b53e611,Social Hall,-1.2478182,36.9028452,gym,0.6151266595590079
 Dagoretti South,Waithaka,-1.2833,36.7166,bbe2fb6b0920f050c537eda9b7075f67e5f63f16,STEPPIN RAZORS KINYOZI AND FITTNESS CENTRE,-1.2793326,36.71274199999999,gym,0.6148843262881729
 Lang'ata,South C,-1.3204427,36.83053678,c04e646a0219e6e5178113f58f0c0f7499ae0c2f,Mazoezi,-1.3223511000000001,36.8253672,gym,0.6122210779194297
 Lang'ata,South C,-1.3204427,36.83053678,85af4a1a9e9286cd7299de661fe1b08a829b4e89,Mazoezi Gym And Aerobics,-1.3224067,36.8253886,gym,0.6121668391561975
 Starehe,Nairobi South,-1.314183,36.8235852,0d8b809dcf3cf46dc014fc1208bdb532f0af5e2c,Azuri FC Gtound,-1.3194801999999999,36.822447600000004,gym,0.6020661646765384
 Mathare,Mlango Kubwa,-1.2658072,36.8456235,dbe7e62a6e905e67987ad96e19fb07a34ec0eb32,Golden Gym,-1.268907,36.85001369999999,gym,0.5971172014474829
 Dagoretti South,Riruta,-1.2917037,36.7346929,ff207ebadf0f6dd810b3bbb79cfe6a7f0a31d77f,Yaya Center,-1.2907468999999998,36.73996539999999,gym,0.5953299790248898
 Lang'ata,Nairobi West,-1.3087022,36.8230975,710eb198a3f4aa148f5cf98f7779d032076d3703,TKO Gym,-1.3039684,36.8252204,gym,0.5764943889895132
 Ruaraka,Korogocho,-1.2514893,36.8903648,10611fc1c324d581c5f9b455dd6a294be333abe5,Kirima Ground,-1.2512938999999998,36.8851875,gym,0.5756005428625101
 Dagoretti North,Kilimani,-1.2874422,36.7845225,25b07593cecf19ad8671681d8c445cf07301e0bf,Possible Gradian Office,-1.2857005,36.77969089999999,gym,0.5706045577591586
 Starehe,Nairobi Central,-1.2832533000000002,36.8172449,751a0041c7565ab9737b5e5bd26d53eb3a9240ac,Muscle Health and Fitness,-1.2861116000000001,36.8214626,gym,0.5660832647790274
 Embakasi East,Embakasi,-1.324728,36.887724,4c5f9daaaef11e0b3ae61729378c5f2612bc31a0,Smart Gyms Southfield,-1.3289406000000001,36.89058710000001,gym,0.5659634334330963
 Starehe,Nairobi Central,-1.2832533000000002,36.8172449,b7015b83b807c1e02b8b1e3c2f5dd92a845c3770,Uptown Tech,-1.2793979,36.8139665,gym,0.5623264697436131
 Dagoretti North,Kilimani,-1.2874422,36.7845225,8dd4e668a4414230950b28fff2c9c259e51db750,Hyat Fitness,-1.2923040000000001,36.785923,gym,0.5622261490670785
 Embakasi East,Utawala,-1.285877,36.98408679999999,7344f154cfe83fa8ac164fb687bf57133ec4b36a,Poly Green Estate,-1.2885878000000002,36.97986780000001,gym,0.5571726617768538
 Westlands,Parklands,-1.2630616,36.8106288,ebbef498aca5a95ca91f87abbac679c7374ea700,Adhina villas,-1.2581381999999999,36.80982879999999,gym,0.5542855361912713
 Makadara,Maringo,-1.2920714,36.86572592,de875c3a89d867dfc9bb694d4aab672425116b47,Potters Gym,-1.2939123,36.8611199,gym,0.5510901604034155
 Embakasi East,Upper Savanna,-1.324728,36.887724,e67158308c9af48c6dce517d735a9daff7046b94,Smart Gyms,-1.3286023999999999,36.89077209999999,gym,0.5477567369835153
 Kasarani,Clay City,-1.2208721000000002,36.9012224,0fa7ff35457db168679394773396703071d95c60,Tina Fitness Center,-1.2160627,36.9022359,gym,0.5461779106756837
 Roysambu,Kahawa West,-1.1856847,36.90579279999999,af1ff68ec6a1b552b7a5086c2f28ba2f4672a46f,Media Report Tv,-1.1820995,36.909141999999996,gym,0.545147813446318
 Lang'ata,Mugumoini,-1.1991235,36.8467412,e04186af981c716333c2c5cf151bcf8db087c35b,Mzuzi Park,-1.2019756000000001,36.8427506,gym,0.5449933124018875
 Kibra,Woodley,-1.3056567,36.77600465,74d8b08a70ee2d8bf9a1640fdce8ab0fd7ab0fff,Homeboyz Fitness Center,-1.3020764999999999,36.7726564,gym,0.544658240581229
 Ruaraka,Lucky Summer,-1.2393083,36.898786,88f95f39f409857a7d91803632ce36da70f5ef44,Wazito Fitness Gym,-1.2378276000000001,36.903448299999994,gym,0.5434842638482785
 Mathare,Mlango Kubwa,-1.2658072,36.8456235,c2cb9521add9fd03f03128ebe2de63aa37c062e6,Body 4 Life Gym,-1.2706348,36.8449485,gym,0.5416836209049765
 Dagoretti North,Kileleshwa,-1.2723271,36.7996878,42c6e629ffd5c6e84875e3040739002a2b063dc6,Arena Health Center,-1.2675931,36.798570899999994,gym,0.5405024176929495
 Ruaraka,Mathare North,-1.251788,36.87077217,cc9f23629c3e63dca468c2ff7c107084dda735da,Qwetu | Student Residences | Ruaraka,-1.2469296,36.8707706,gym,0.5398902794805571
 Kasarani,Mwiki,-1.2322833999999998,36.9275102,89893a3eaf013d6ca1530fd8200eb939a74336db,Mwiki Ack Road,-1.2364972,36.929916399999996,gym,0.5391941428343959
 Lang'ata,Nyayo Highrise,-1.31600475,36.80173345,af94f48c350b490df66a4a95b91205a3b7420649,Jemos Hair Clinic Htown,-1.3169087,36.8063909,gym,0.5270836049723525
 Kasarani,Ruai,-1.2677339,36.9911112,1a0e410b2115a7a90b0701c7e9729738e2d97f77,Muhuri Muchiri Stadium,-1.2720883,36.98925759999999,gym,0.525880679101906
 Roysambu,Zimmerman,-1.2103969,36.89522120000001,14dd95273c9647d43d060b0121550484d3b53278,Ruflo Fitness Centre,-1.2057878999999998,36.896272700000004,gym,0.52532969985685
 Mathare,Mlango Kubwa,-1.2658072,36.8456235,56e433290e1731bbe7e10afde3d645052bf17a55,Uncle Jims Gym,-1.2701901000000002,36.8472862,gym,0.5209033985751385
 Kamukunji,Eastleigh North,-1.2778285,36.8486835,09b2f9cf2fd88742156a3834bb23449b54076048,Captain Mugai,-1.2731553,36.849034700000004,gym,0.5207735733639283
 Embakasi West,Umoja 2,-1.2818728,36.89933970000001,8a3bfdaab5f352bdbe3b108ba2984d3652f15ea5,Weider Classic Gym,-1.2847591999999999,36.8957088,gym,0.515363330852853
 Dagoretti North,Kileleshwa,-1.2723271,36.7996878,2a019e9a3623da92f35f98dbb073608119d92351,Arena health and fitness centre,-1.2678485000000002,36.798620899999996,gym,0.51160503733128
 Kamukunji,Pumwani,-1.2797575,36.8442693,454945636f13eb4dc225a3c4a823558a136a4e8f,pumwani social hall,-1.2843138,36.8437677,gym,0.5093767965124939
 Ruaraka,Utalii,-1.25571935,36.8612155,74b91b9cf64633588a75e79c966e34fd65e772c9,Traffic Police Headquarters,-1.256057,36.85668070000001,gym,0.5052043891469534
 Starehe,Ngara,-1.277803,36.8300722,12ba919c64b55f43b9b84fe7544e29e80d598fab,Laurasam Fitness Centre,-1.2737334999999999,36.8281399,gym,0.5005907329029023
 Embakasi West,Umoja 1,-1.2778669,36.8881172,cc6c088505539c6434a16d71c522d1d068a0d671,Cutting Edge Barbers,-1.2778523000000002,36.89259850000001,gym,0.4978637665109365
 Ruaraka,Babadogo,-1.2433103,36.8910881,4f230b2a1e0f1d344a15d47b709bd49cb20c3b79,Sanctuary of Truth Centre Ministries,-1.2388591,36.89077209999999,gym,0.4958844179333498
 Embakasi Central,Komarok,-1.26725495,36.90524096,6e16e083bb559e20c0b9128e3bc67d6b0673074a,Grey's Appartment,-1.2667091000000001,36.9096191,gym,0.4901699744476924
 Makadara,Harambee,-1.290941,36.89721585,7d42c1a0be7494cae2a7801d3209f69f0831af55,Greenspan Gym and Fitness Centre,-1.288714,36.90094500000001,gym,0.4825830184984023
 Ruaraka,Lucky Summer,-1.2393083,36.898786,76581c547295cb4c007cd56caf23e8e317f9b170,Steel City Gym.,-1.2391133,36.8944551,gym,0.4816468951153937
 Roysambu,Githurai,-1.2062932,36.9206391,3f34b8754f2f4599dce6f42ef325c9bac2d9cb28,Ebony Eye Gym,-1.2079935,36.9167179,gym,0.4748568075902585
 Roysambu,Kahawa West,-1.1856847,36.90579279999999,7ae8e98f21a1c5fd241dda94615685e96051ddeb,Kaka Barbers,-1.1814696000000002,36.9052511,gym,0.4722540377691242
 Roysambu,Roysambu,-1.2188396,36.88673920000001,1c4aeba88b1f4d60ad3a784e15bfd6afc73de32f,Wab Aerobics And Gym,-1.2152392,36.8889785,gym,0.4711374895599925
 Starehe,Nairobi Central,-1.2832533000000002,36.8172449,6062a9e25104464d5c2365323d5ed533cea597aa,Fit O’ Phat,-1.2850941,36.8210341,gym,0.4680382113882645
 Ruaraka,Mathare North,-1.251788,36.87077217,f567737c0ec92d546433e887ea40679fd89810b1,Gym Plaza,-1.2478420000000001,36.87217409999999,gym,0.4653394967616209
 Makadara,Harambee,-1.290941,36.89721585,52ce5fbab4de10475d7f9d39ca431f0bf9dd1afe,G-Span Taekwondo Club,-1.2887732,36.9007675,gym,0.4623016111978432
 Lang'ata,Nyayo Highrise,-1.31600475,36.80173345,d00ea9aee5a9c73c08695dbdbc69d0b3bab49fa7,Swim Africa HQ2,-1.3201406,36.8014958,gym,0.4603545146673863
 Kasarani,Kasarani,-1.2208721000000002,36.9012224,5119a72e55bb1619c2ab555e560ff744363aa81e,BODYFIT GYM KASARANI,-1.2172662,36.90324409999999,gym,0.4593640642360228
 Embakasi West,Umoja 1,-1.2778669,36.8881172,05ad94839f9cc70d62e3066c2bf41c449aa882f5,Flex Gym,-1.2816104,36.8895595,gym,0.44579018892986455
 Kasarani,Clay City,-1.2208721000000002,36.9012224,011130f1ef14a5ab448058ae17fae396492d32d3,Elite Fitness Centre,-1.2175773,36.90344789999999,gym,0.44180185226121466
 Dagoretti North,Kawangware,-1.2784631000000002,36.751643,64577eccdb57d3bff0fa3fa9d6d9bb738b79cd47,White estate,-1.2822722,36.7523652,gym,0.4308238420383122
 Starehe,Nairobi Central,-1.2832533000000002,36.8172449,e2444a4a4a609208a7be9120710cf7cf669fc38e,Oasis Fitness Center,-1.2861614,36.8197238,gym,0.4245924939963283
 Starehe,Nairobi Central,-1.2832533000000002,36.8172449,86ba79c59011120f9b129ac8d058730ac5a5480c,YWCA Gymnasium,-1.2854203000000002,36.8140995,gym,0.4243824255395075
 Makadara,Harambee,-1.290941,36.89721585,71136cd566ac4bf050a213eed84f23e103bad55f,Muscle Health Fitness,-1.294275,36.8990567,gym,0.42318918164405095
 Starehe,Nairobi Central,-1.2832533000000002,36.8172449,fde2c0a1ffe34dfc5971c07c13687764cbb7a88c,Creative Fitness Centre,-1.2861163999999998,36.81966420000001,gym,0.4164955617042553
 Roysambu,Githurai,-1.2062932,36.9206391,299a065fb428be11efcc76d9d6ef388ac360ea29,Eurobond Kinyozi,-1.2048259,36.9172185,gym,0.4135331791484793
 Embakasi West,Mowlem,-1.324728,36.887724,083b896e3d7cde3e01d6e6e11892657135926f3d,Olmpia Body Space,-1.3257606000000002,36.8912845,gym,0.4118627436235461
 Ruaraka,Mathare North,-1.251788,36.87077217,82b09c10d9f07f48572cbc7d2763e05f0837cb1c,Empire Fitness,-1.2487822,36.87294070000001,gym,0.4118398818576165
 Starehe,Nairobi Central,-1.2832533000000002,36.8172449,8475a66102c52d12bcb984fa8cd350ebb9f1057d,xtreme muscle fitness gym,-1.2848823999999999,36.820557799999996,gym,0.41016701870795214
 Ruaraka,Mathare North,-1.251788,36.87077217,4159b4a0d67a956e7611c1d926cd2a14c43e4d49,Oil Libya Gym,-1.2489863,36.87310809999999,gym,0.4053172325709157
 Dagoretti North,Kilimani,-1.2874422,36.7845225,844fe85e86132041d674d2d13118dd217afc2eac,足乐健康养生会所,-1.2880049,36.788051,gym,0.3969617957316743
 Kamukunji,Pumwani,-1.2797575,36.8442693,8f9329b836964eca9258b38fbd5035fb5f3e3b41,Jambo Football Acedemy,-1.2789808999999999,36.8408037,gym,0.39457245879936587
 Embakasi West,Umoja 2,-1.2818728,36.89933970000001,b7cb136e077d4736f63ed17de32b117df2cd6c44,Salute Gym,-1.2852466999999999,36.900403999999995,gym,0.39312803679843816
 Kibra,Sarangombe,-1.31226715,36.77745932,601b23e4d6f19719b075778453681668a76da4eb,Urban Fitness Gym,-1.3092386,36.77567120000001,gym,0.3908037393643481
 Starehe,Ziwani,-1.2788772,36.8360883,f842fe4a6950dd818bde4c5969ab5e081d8f7807,Cricket Court,-1.2765052,36.8334956,gym,0.3904452465225295
 Kamukunji,Eastleigh South,-1.2778285,36.8486835,4357aa218948dfbcfed1abf41a889ff9d4b19b67,Map Of Kenya,-1.2743341000000001,36.8490424,gym,0.39035733836756
 Kamukunji,Pumwani,-1.2797575,36.8442693,6d0dc463f645da537ba06fed15bc2554d4cd64b7,Xtreem Fitness Centre,-1.2768604,36.8423056,gym,0.388896413026184
 Embakasi West,Kariobangi South,-1.324728,36.887724,57340db52f11b13f42262da6902321d1e16dbd33,Turtle Dove Apartments,-1.3265281999999998,36.884746,gym,0.3866205050265004
 Embakasi West,Mowlem,-1.324728,36.887724,23e7fc033a6a40b47504999724a471a7637aca77,Turtle Dove Fitness Center,-1.3265281999999998,36.884746,gym,0.3866205050265004
 Starehe,Nairobi Central,-1.2832533000000002,36.8172449,a2055df32ba6e6b4e91ba8347c65db46b724a81a,NAIROBI COUNTY TAEKWONDO HQ'S,-1.2866945,36.816937,gym,0.3839306280361136
 Makadara,Harambee,-1.290941,36.89721585,9c22111a55fb424bad6c0c9a52bb10b907eab04c,Salute Gym,-1.289808,36.894012599999996,gym,0.37748689211667935
 Ruaraka,Lucky Summer,-1.2393083,36.898786,2a36f997bdbd677348b542b256187cf751bc14e1,Luckysummer Temple,-1.2425201000000001,36.8996946,gym,0.3709120250460843
 Embakasi East,Upper Savanna,-1.324728,36.887724,d7d517d24f7b866742b51ea900fac7ba4f12b32d,Body Fitters Gym & Health Centre,-1.3220896999999998,36.8857305,gym,0.3674285848973942
 Starehe,Ngara,-1.277803,36.8300722,b32b7d7df4cac58afd47bdcdc302ad94eb4ada88,Toptech Gym,-1.2746652,36.8290645,gym,0.3662199624428172
 Kibra,Sarangombe,-1.31226715,36.77745932,5dc74fe0837d19ce69e784e9a4155e47ce96f4a6,Holywood Gym,-1.3094196000000002,36.7758416,gym,0.3639103902558609
 Makadara,Harambee,-1.290941,36.89721585,c8a6b0f6dca9e5a3ea8a8a58469a648b5da60702,Wazito Fitness Centre,-1.2924950000000002,36.900096999999995,gym,0.36369881204558224
 Starehe,Ngara,-1.277803,36.8300722,c7c92324e702344778054a0a82459aa3856d9f84,Africa Yoga Project,-1.2766646000000001,36.82700429999999,gym,0.3635555977430411
 Kamukunji,Eastleigh South,-1.2778285,36.8486835,fe8fe8bafbf94fb75cf1ef33c8f83a0f73add203,Omax Auto Spares,-1.2810149,36.8480098,gym,0.36191302246723067
 Kibra,Sarangombe,-1.31226715,36.77745932,39de32302bae0f88dfeeda794d328fceab2cb1d3,Mega cutz Kinyozi,-1.313232,36.7805502,gym,0.3597341589354565
 Kibra,Laini Saba,-1.31234835,36.79611435,e13ee6f36e7e0c779e4996823dab5bdb43f7fc7c,Mega Barber Shop,-1.3118279,36.799307899999995,gym,0.3594735502086481
 Westlands,Kitisuru,-1.2395542,36.7839651,094a99d47c224335f00a0a38c605eb7d6076fe5c,Burn Body,-1.2406048,36.7809209,gym,0.3577913481914922
 Mathare,Mlango Kubwa,-1.2658072,36.8456235,a27714b7702cf620b23d809f6d820a9bee1db189,Daystar Gym & Fitness Centre,-1.2687747,36.84442439999999,gym,0.35565581280952746
 Kasarani,Clay City,-1.2208721000000002,36.9012224,947914914f2475ff55e4813928bd4edc26428e0b,Kasarani Gym,-1.2177200000000001,36.9012341,gym,0.3502798820633408
 Starehe,Pangani,-1.2648989,36.8372708,e088e303b5bed177c5ba2a68ca00ca2b467901d9,Nuwaf Abdulahi,-1.2667224,36.8398293,gym,0.3490793421928143
 Starehe,Ngara,-1.277803,36.8300722,ee61c537e36143040c45f3e403ff93094d15ded6,Sir Ali Muslim Gym,-1.2760842,36.8326789,gym,0.3469130240133467
 Dagoretti North,Kabiro,-1.2878118,36.7515014,79617293f243c94f29a832b873c21fe893456e5a,Fit Madadi Gym,-1.2903165,36.749643400000004,gym,0.34652400863451194
 Dagoretti North,Kabiro,-1.2878118,36.7515014,8e4d6b393503691843bdad6230ca68712fb38c82,Fit Madadi,-1.2902886,36.749621999999995,gym,0.3454703568063503
 Lang'ata,Nyayo Highrise,-1.31600475,36.80173345,9621a1862d656f5eaf69d42901acb9227dcee987,Gymnastics centre,-1.313591,36.7999355,gym,0.3344314175471069
 Makadara,Harambee,-1.290941,36.89721585,1ff4ebf2c26facea410db48798157ebb351bf613,Muscle Health & Fitness (K) Ltd,-1.2939161,36.89711809999999,gym,0.33078663525692
 Kasarani,Mwiki,-1.2322833999999998,36.9275102,a26826dc385146858ba3b9d06946982a226400a9,Evib Sports Science - Gym,-1.2322813999999995,36.93044039999999,gym,0.325543575911775
 Kibra,Woodley,-1.3056567,36.77600465,f9c14f5d07d9257d910fc15145cf1887c61ac040,Woodley Stadium Kibra,-1.3058485,36.778903,gym,0.32270047575342337
 Dagoretti North,Kilimani,-1.2874422,36.7845225,ad1697002b5a7f3ef99bc6dd79e91bf542678c20,Lion's Lair Apartments,-1.2870158,36.7816546,gym,0.32211942029464896
 Dagoretti North,Kilimani,-1.2874422,36.7845225,ef9952f379c9b5d97cc68bd52876aeac7eccdb9c,Vigour & Vitality,-1.2845803,36.7847881,gym,0.3193949079811589
 Kibra,Woodley,-1.3056567,36.77600465,9e7103c4935a7987f0790c2daabde2ccf89f6c28,Calyex Fooball Field,-1.306042,36.7788444,gym,0.3183777741993125
 Roysambu,Roysambu,-1.2188396,36.88673920000001,0ef1ac43602d6d224bdf15315843ff8ed2fa7517,Safara Gym,-1.2160761999999998,36.88740870000001,gym,0.31596306248265177
 Embakasi Central,Kayole North,-1.2659842,36.9169455,86fe6aff0cc45be621028dea10e19ad652f12c59,Manka Xaafadiisa,-1.2641725000000001,36.9147667,gym,0.3148414392643233
 Kasarani,Clay City,-1.2208721000000002,36.9012224,25dc9941262bb3e140f41f5c0bcaa2c6c3a0842e,Kasarani Sports View Gym,-1.223225,36.8996644,gym,0.31356975554136496
 Makadara,Makongeni,-1.2873101,36.87210716,d9f08d4740f62faa76f55ccb73cb951637707c9d,Spartan Fitness Club,-1.2850089,36.8737018,gym,0.3110931034498094
 Roysambu,Zimmerman,-1.2103969,36.89522120000001,59478bc220b7476f20d627735a764d1623875a48,Divas Beauty parlour & salon,-1.2126981000000001,36.8939084,gym,0.2943912694768677
 Dagoretti North,Kileleshwa,-1.2723271,36.7996878,c3a8b3d0d6cc78e74b0ee40464383b5cf4e584f0,Aboretum Bamboo,-1.2745464,36.801099900000004,gym,0.2922893433021304
 Roysambu,Zimmerman,-1.2103969,36.89522120000001,6b7efea99e004bc9c3866eb8f3f29d4d8ed2b571,KalFitness Gym,-1.2120808,36.893350399999996,gym,0.2796700981160751
 Kamukunji,Pumwani,-1.2797575,36.8442693,88ede83afb939e1c1815f40094a8be13260726b8,Gym & Pumwani Social Hall,-1.2816645,36.84588370000001,gym,0.2776267951518411
 Westlands,Kitisuru,-1.2395542,36.7839651,2268264adcc3fc09e871abbca0117356c2fde34c,Power Vibe Studio Kitisuru Branch/Power Plate Studio,-1.2397083999999998,36.781475,gym,0.2771780586064493
 Starehe,Ngara,-1.277803,36.8300722,50d58d6d32d26919d5ea3c55d0087ab9283b05f0,Be Fit Gym & Sport Equipment,-1.2799323999999999,36.8313471,gym,0.2757807579871786
 Kibra,Sarangombe,-1.31226715,36.77745932,00f9b66bce5e134b4f917cf3da5de1092d5b0a19,Olympic fitness gym,-1.3146778000000001,36.7779614,gym,0.2736293241848497
 Roysambu,Zimmerman,-1.2103969,36.89522120000001,b713254c235f9a9d89d6de04169bcc97eb2c730b,Zimm Aerobics,-1.2120796,36.89348760000001,gym,0.2684426100885762
 Embakasi West,Mowlem,-1.324728,36.887724,f252992715e1af2f7fa95b997f8b10b59c8e5e12,Crystal Palace Gym,-1.3235707,36.885668,gym,0.2621286192568067
 Ruaraka,Utalii,-1.25571935,36.8612155,b908e49dbf6985855af5d0912bb8bcd889ad3431,Mathare Gym Fitness,-1.2559283,36.8635149,gym,0.25651279378770026
 Embakasi Central,Komarok,-1.26725495,36.90524096,accfd84da8d232c64f829f1bbf0738aab3ce9f9d,Jaheca Health and Fitness Centre,-1.2677721000000002,36.9030184,gym,0.2535211750383013
 Dagoretti North,Kabiro,-1.2878118,36.7515014,9f2d3aec1c26ba1b05432678f17f2a55136ffd66,Las Vegas Gym,-1.2896018,36.750088299999994,gym,0.2534028234606157
 Starehe,Nairobi Central,-1.2832533000000002,36.8172449,9347aa65e50dae71887663d9f64ee49438aaefef,Premier Fitness Centre,-1.2848184,36.8189029,gym,0.2533341029893462
 Embakasi Central,Kayole South,-1.2659842,36.9169455,ca27084bc1eca820fcb2a33730f8b44cd6a394d2,Body Solid Gym,-1.2666608,36.915011299999996,gym,0.2276598056743427
 Kasarani,Clay City,-1.2208721000000002,36.9012224,a2166a10e25c2a02732a8938e2d258300ea8a844,Zoezi Fitness,-1.218849,36.9014179,gym,0.2258639879578309
 Roysambu,Kahawa West,-1.1856847,36.90579279999999,cf2ca3caebc8c10f27b362671a5e8bc7084121d8,Mass Gym,-1.1838184999999999,36.905107799999996,gym,0.22090506611483804
 Starehe,Landimawe,-1.2694542,36.83557186,6327fb4bc9aaec5385bf69cb61e4a38470c2f01f,Pumwani Boys Sports Complex,-1.2713888,36.8357534,gym,0.21592663956310484
 Embakasi East,Lower Savanna,-1.324728,36.887724,f9388f3a20bf843e12168f604eb32116cbddd1c0,Active Gym,-1.3248351,36.889640299999996,gym,0.21322454491158035
 Dagoretti North,Kileleshwa,-1.2723271,36.7996878,8d5b944f06a889a3260b7821ca45930c5e357929,Forever Living Ke,-1.270823,36.8008649,gym,0.21222275153039968
 Mathare,Huruma,-1.25764595,36.87259835,e0852a8cd8b994c1f90d7f692ce87be1cca787a5,Huruma cdf social hall,-1.2586403999999998,36.87101989999999,gym,0.20727839569206646
 Makadara,Maringo,-1.2920714,36.86572592,41f0bab44d96e3973e7a32db97efea6297f5ac36,Maringo Fish Supply,-1.2915515,36.8640441,gym,0.19557315707157716
 Starehe,Landimawe,-1.2694542,36.83557186,cf11f753509ad34cee6b2e35a17652b473cfb7d9,Pumwani Play Groung,-1.2711691999999999,36.835595100000006,gym,0.19059705828427698
 Roysambu,Zimmerman,-1.2103969,36.89522120000001,34ebe5f942306ffb4f71bb2498af0cc03ec595ae,Zimmer Fitness Centre,-1.2100969,36.896899,gym,0.1893617924013247
 Ruaraka,Lucky Summer,-1.2393083,36.898786,e49c71eaca4c35c978e53af80b32ce5ddedc759b,NDAGO APARTMENT,-1.2406778,36.89974290000001,gym,0.18564078184367788
 Starehe,Nairobi Central,-1.2832533000000002,36.8172449,0b6ead65e1e1188d0a58a1104d6e5ef3359ad62e,Silver Labs Ltd,-1.2824171,36.81584270000001,gym,0.1813897446265576
 Starehe,Pangani,-1.2648989,36.8372708,178e175d46b86aed8b8f317d877665078a65a88c,Dazzles Hair Beauty & Barber Shop,-1.2651743,36.838769899999996,gym,0.16933551747819947
 Embakasi West,Umoja 1,-1.2778669,36.8881172,8712a18116ca23c43f9674d8bad9897b93b8c76a,Magic Touch Gym,-1.2793271000000002,36.8882334,gym,0.1627776106811569
 Roysambu,Roysambu,-1.2188396,36.88673920000001,d8d5295d183dc3180d2898d07217478563bda629,Easy Gym- Thika Road Mall (TRM),-1.2195214,36.8880219,gym,0.1613965810824436
 Dagoretti North,Kabiro,-1.2878118,36.7515014,d1d01d1ceb110cbc6e9ac8aa832da9f34a66a210,Gold's Gym,-1.2887959999999998,36.75047199999999,gym,0.15824225302095002
 Dagoretti North,Kabiro,-1.2878118,36.7515014,813890061d7968c1a3af752da417073c4d6ebdf1,Colds Gym,-1.2887464,36.750429,gym,0.15805326101367867
 Starehe,Landimawe,-1.2694542,36.83557186,3035be89d21a0c320df0f99e3ad03d3233b80a83,Axion Gym,-1.2707447,36.83614969999999,gym,0.1571202717226978
 Kamukunji,Pumwani,-1.2797575,36.8442693,6bd6185950a9dc4990f301ede8fbe392ded1388c,Fitness Empire,-1.2796396,36.84564339999999,gym,0.15322011371378555
 Roysambu,Roysambu,-1.2188396,36.88673920000001,65079a2dee17a4ab91f43f1526a0aa7a5cb49453,Easy gym,-1.219026,36.8880938,gym,0.15191480768341148
 Roysambu,Kahawa West,-1.1856847,36.90579279999999,0da40efc88bdf8b2126ef1a3e315db54c9e5483e,Mass Gym Kahawa West,-1.1843388000000001,36.90568779999999,gym,0.15001754888290192
 Ruaraka,Utalii,-1.25571935,36.8612155,74de056db5ca24dc3a8fce3278e72cdaab042175,Abdallagym Center And Profitness,-1.2551371999999998,36.86242190000001,gym,0.1488247389805146
 Kamukunji,Eastleigh North,-1.2778285,36.8486835,ab86625da09f921220514f1918f2a5d972a61f9a,Andaluss Gym,-1.2784891,36.849796399999995,gym,0.14379102361233534
 Starehe,Nairobi Central,-1.2832533000000002,36.8172449,3ece045e496d516c95023156942512e73db50812,Pent house Gymnasium health centre,-1.2828012,36.81606909999999,gym,0.1399561980441738
 Starehe,Nairobi Central,-1.2832533000000002,36.8172449,4d0e322f8942dd8b3b1cec7d0b44fc61e046066e,PentHouse Gymnasium and Health Centre,-1.2828012,36.81606909999999,gym,0.1399561980441738
 Mathare,Mabatini,-1.2602912,36.86361626,9d76e77efddccd070b7b2eee618b9354d1678b88,Muscle Base Gym,-1.2598152,36.8646576,gym,0.1272098936974311
 Ruaraka,Lucky Summer,-1.2393083,36.898786,f81c4c37b3fd3188e3270ea3ff09842273f727ba,Lucky Summer Gym,-1.2404406000000001,36.89873389999999,gym,0.12596003078988205
 Roysambu,Roysambu,-1.2188396,36.88673920000001,96949b488907c7f575ac354c666a6ab2d374eb38,Hevensis Gym-roysambu,-1.2188769,36.8876524,gym,0.10154112773855947
 Starehe,Ziwani,-1.2788772,36.8360883,e4b84a1cd51c2b4c03186e350e806b5bdb73e75f,Kariokor Social Hall,-1.2790412,36.83531350000001,gym,0.0879863897165394
 Starehe,Pangani,-1.2648989,36.8372708,ae8eb46dde74a10c77ab1e6ff224bfc2671cfd1e,Peak Physique Gym,-1.2643205,36.837617400000006,gym,0.07492664704562109
 Roysambu,Roysambu,-1.2188396,36.88673920000001,1e86b7d28816636c1857cbdff6121d3d90fd59e3,Wab appartment,-1.2184586000000002,36.8869064,gym,0.04623448386503741
