constituency,ward,clat,clon,place_id,place_name,place_lat,place_long,place_type,distance_km
 Lang'ata,Mugumoini,-1.1991235,36.8467412,0e684f30b81990ad415cbe4e09d754df4dbba400,Iraqi Embassy - Kenya,-1.2273370000000001,36.81266220000001,embassy,4.915775044904704
 Lang'ata,Mugumoini,-1.1991235,36.8467412,b16b8f5d929a4f9cfea3a655dde035958fd4e49d,Republic of Mozambique High Commission in Nairobi,-1.2137913,36.8054472,embassy,4.8687295077278945
 Lang'ata,Mugumoini,-1.1991235,36.8467412,64826ca32c5f20d4ea7526630f53e6d1c379fa9b,Mozambique High Commission,-1.2137913,36.8054472,embassy,4.8687295077278945
 Lang'ata,Mugumoini,-1.1991235,36.8467412,762e70aecb72a7158db4807eb8327db0625d8081,Bangladesh High Commission,-1.195898,36.8086521,embassy,4.246883939916169
 Dagoretti North,Kabiro,-1.2878118,36.7515014,0f01e7a5ed812db6f06541f706ec08400fbbdb91,Embassy of the Federal Republic of Somalia,-1.2843704,36.7894403,embassy,4.232216063232172
 Lang'ata,Mugumoini,-1.1991235,36.8467412,63388e8eb7b36479a104a380ad259471a2ede55a,Embassy Of The Republic OfZimbabwe,-1.2012198,36.8107205,embassy,4.0087005482923725
 Lang'ata,Mugumoini,-1.1991235,36.8467412,015ec3a03833adb408bef075ac1da152d2169e73,Zimbabwe Embassy,-1.2012198,36.8107205,embassy,4.0087005482923725
 Lang'ata,Mugumoini,-1.1991235,36.8467412,c8021a6c8761de43c2405b556fa258773f8b4562,Zimbabwe Embassy,-1.196892,36.811004,embassy,3.9781685198100623
 Westlands,Karura,-1.2369881,36.83255910000001,7228084428a4e86d684797cf22d169974f5fed64,Serbia and Montenegro Embassy,-1.208913,36.8131528,embassy,3.7923537757556818
 Lang'ata,Mugumoini,-1.1991235,36.8467412,285a4e5abb550c14671f76ca96bc54601d8b7bd1,Embassy of Romania,-1.2112806,36.8158714,embassy,3.68613584551457
 Westlands,Karura,-1.2369881,36.83255910000001,15add02393bc08eeaa9995afcf17e024ceb8a7c4,Embassy of Romania,-1.2115101000000001,36.815946000000004,embassy,3.379733966393916
 Westlands,Karura,-1.2369881,36.83255910000001,7e916383e3f470bd1d19bf18da30c1a85047ba59,Danish Embassy Royal,-1.2178966999999998,36.81429,embassy,2.936076940779648
 Westlands,Kitisuru,-1.2395542,36.7839651,8ff4b4ffda0f15cb37ac55e359df2687ebb7328b,Embassy of Argentina,-1.227588,36.80640800000001,embassy,2.8258141028432235
 Westlands,Kitisuru,-1.2395542,36.7839651,22357ff76a4f2d2bb99affb226378bb61d5d347f,Embassy Of Argentina,-1.227583,36.80636199999999,embassy,2.821567676630186
 Westlands,Karura,-1.2369881,36.83255910000001,f1001ab4cf6e7a473b42ab509706edc57c4eac70,Royal Danish Consulate,-1.218067,36.816004,embassy,2.793539431835148
 Lang'ata,Nairobi West,-1.3087022,36.8230975,e54d5d1a85ffba674e9f45c9db3280e4e5f3ec3c,Honorary Consulate Of The Slovak Republic,-1.289634,36.806798,embassy,2.7872991397765583
 Westlands,Karura,-1.2369881,36.83255910000001,11fa4b81f4f020d0175b51be8836b5728cffb151,Embassy of Qatar,-1.2179778,36.8167017,embassy,2.7507298450697832
 Kibra,Laini Saba,-1.31234835,36.79611435,674a62d6b8d882189c62e8ee6c4fef6a63497648,Embassy of Slovakia,-1.2898273999999998,36.8061423,embassy,2.739411261223069
 Westlands,Karura,-1.2369881,36.83255910000001,f7ba70ecf18efaa152d901364a56e8498319b637,Iraq Embassy,-1.2293303999999998,36.80925180000001,embassy,2.7256682164255333
 Westlands,Kangemi,-1.2654259,36.7525183,1348ec63d7e90379709c81cf249896d1e84a0426,Iran Embassy iranconkenya@gmail.com,-1.2413296,36.7491458,embassy,2.7037906778960408
 Westlands,Karura,-1.2369881,36.83255910000001,63f48b790239af868a7cfd31881018f68d5916ec,Embassy Of The United States Of America,-1.228315,36.81000700000001,embassy,2.684504251487488
 Westlands,Karura,-1.2369881,36.83255910000001,f96749fe3b72c6320816f1a33d42e6eedd923715,Embassy of Brazil,-1.2316665,36.8092044,embassy,2.661228002874816
 Westlands,Karura,-1.2369881,36.83255910000001,2c909139a5268164fbce7a8577cc1e06771457c2,Embassy Of Brazil,-1.231837,36.809202,embassy,2.6573422564843376
 Westlands,Karura,-1.2369881,36.83255910000001,128135ae54f40a1963142486d57ac32e98918559,Embassy Of The Bolivarian Republic Of Venezuela,-1.232605,36.80908400000001,embassy,2.6531594355001937
 Westlands,Karura,-1.2369881,36.83255910000001,1afcedf526d432d1e487359f7daa47704cf29691,Embassy Of Italy,-1.2326483999999998,36.8091271,embassy,2.6475698472794034
 Westlands,Karura,-1.2369881,36.83255910000001,864edba202e99edfd86a06ff2d3b8451477714db,Embassy Of Senegal,-1.2297788,36.81017519999999,embassy,2.612694969291144
 Embakasi Central,Spring Valley,-1.2477029,36.78923560000001,528a15560e171473e441deb9ffcadc46d96800a6,The Us Embassy,-1.2343935,36.808306,embassy,2.5838672240283134
 Westlands,Karura,-1.2369881,36.83255910000001,7596ed202b0e248d40c97504b72860977907eaff,Royal Danish Embassy,-1.2204700000000002,36.816347,embassy,2.571673676458341
 Westlands,Kitisuru,-1.2395542,36.7839651,c2c6002505ff2e41c8bed5993f1f3d5963d68f33,Consulate General Costa Rica,-1.22876,36.80442999999999,embassy,2.570649820112308
 Westlands,Karura,-1.2369881,36.83255910000001,a6f78a4cfd8e1104d3b9b2d6b959ad1e0ca83c36,Mozambique High Commission Residence,-1.217971,36.82013399999999,embassy,2.52418525530494
 Westlands,Karura,-1.2369881,36.83255910000001,38416f2a51ec287f1bd9200d04cc263e566f5e5b,Embassy of Italy,-1.2361919,36.810126600000004,embassy,2.4938035943869545
 Westlands,Kitisuru,-1.2395542,36.7839651,6b1d83f06098b1691dcaaa898ffee40b32c14d75,Consulate Of Switzerland,-1.227746,36.802948,embassy,2.4838813220598417
 Westlands,Karura,-1.2369881,36.83255910000001,794d04acdd73026daae7adc3d20a112a3aa5345c,Embassy Of The Kingdom Of Morocco,-1.231109,36.81101699999999,embassy,2.480880655200384
 Westlands,Karura,-1.2369881,36.83255910000001,6839724a18cc58a377a974314d41e833476a7743,United States Embassy,-1.234415,36.810398,embassy,2.478630139715269
 Kibra,Laini Saba,-1.31234835,36.79611435,aafb48cfe32e97c0f56d63240b1d2f32453c437d,The Embassy of the Republic of South Sudan,-1.2929255,36.8069105,embassy,2.4692383264288487
 Westlands,Karura,-1.2369881,36.83255910000001,fd463a72d1f1dc695ab9bfde25fe3f581cae57dc,Decock/C/O U.S Embaasy,-1.234351,36.810495,embassy,2.4687599110607725
 Lang'ata,Nairobi West,-1.3087022,36.8230975,9c21f4da824090344abe288d9a20db6865fd9423,South Susan Embassy,-1.2932728,36.80752879999999,embassy,2.435455503472413
 Embakasi Central,Spring Valley,-1.2477029,36.78923560000001,d2023494abcb846ae84edfd3987d472dcfa53d13,Embassy of Sweden,-1.2330075,36.80509710000001,embassy,2.402524117018483
 Westlands,Karura,-1.2369881,36.83255910000001,d7942dd73dfaa9ad351c444d120b69ab1b6406c0,Republic of Cameroun Consulate in Nairobi,-1.2250861000000002,36.81456230000001,embassy,2.397298444284128
 Embakasi Central,Spring Valley,-1.2477029,36.78923560000001,007ee82573f5fb505ad76eb921af19dd408c3adb,Embassy of Palestine - Nairobi,-1.2338281,36.80558320000001,embassy,2.382406310535897
 Westlands,Karura,-1.2369881,36.83255910000001,a8a86d51818d0a515b747b0b5d7276ac53835a7a,Embassy of Senegal,-1.2297841999999999,36.812363899999994,embassy,2.382210682693308
 Lang'ata,Nairobi West,-1.3087022,36.8230975,b80cd20bb43a95eb048594058375370e6f8f9a49,Embassy Of Israel,-1.291455,36.810538,embassy,2.3707072020389024
 Westlands,Karura,-1.2369881,36.83255910000001,b8c5440e41ba961ce0aac1042c4b92c0fef2862f,Cameroon consulate,-1.2253003,36.81472859999999,embassy,2.3687762141823923
 Westlands,Karura,-1.2369881,36.83255910000001,ad0bff30011d24470eb00c162fff1a2229bb2363,Embassy of the Kingdom of Morocco,-1.2333413999999998,36.81170669999999,embassy,2.3518625733554797
 Westlands,Karura,-1.2369881,36.83255910000001,79c402240177ae3a516ccf454db33b015fcb8da4,Botswana High Commission,-1.2335615,36.8119033,embassy,2.3262215041978522
 Westlands,Karura,-1.2369881,36.83255910000001,1b3c2dbe82d5461bd7488ceaa778d63ad974e1b6,Rwanda Embassy,-1.240515,36.812164,embassy,2.299523985127374
 Lang'ata,South C,-1.3204427,36.83053678,c5bf43f087b8c3b6b938162e7257c512389d6cc1,Consulate General Of Sierra Leone,-1.3270598,36.850140100000004,embassy,2.2986279405868517
 Westlands,Karura,-1.2369881,36.83255910000001,5b8d82c0ec53dbcbf2a7ed8260aedd293927914e,Rwandan High Commission,-1.2403443,36.8121667,embassy,2.296071089140353
 Embakasi North,Kariobangi North,-1.3151376,36.86733961,a5eb7df08ff876ff4fa9b141ac03ef0ebf0c057c,The Siera Leone Consulate,-1.327059,36.85048099999999,embassy,2.294084868368789
 Westlands,Kangemi,-1.2654259,36.7525183,02a15c561939b02e0b700eaf4f912385915771c1,Honorary Consulate Of The Republic Of Seychelles,-1.267557,36.772985,embassy,2.286107900374081
 Embakasi Central,Spring Valley,-1.2477029,36.78923560000001,0bd7a6a5f8504f2f79c93deb40b2cb513b48dcd0,Norwegian Embassy,-1.23475,36.805103,embassy,2.275851708712997
 Westlands,Karura,-1.2369881,36.83255910000001,ca8b7257a382d4b749b9bb7e56ad7f23448d8adc,High Commission Of Canada,-1.242082,36.812727,embassy,2.274880505233438
 Westlands,Karura,-1.2369881,36.83255910000001,705ed2711aa5991ce72d677e9c62ce2407c1939b,Ambassade du Royaume Du Maroc,-1.2335733,36.81241170000001,embassy,2.2702997635914377
 Embakasi Central,Spring Valley,-1.2477029,36.78923560000001,b7f10c1691c636bfbb15fc7cda27426dfbca1b93,High Commission Of The Republic Of Botswana,-1.237743,36.806933,embassy,2.2562783945067757
 Lang'ata,Nairobi West,-1.3087022,36.8230975,40121ec6d900144f9ce51d616bf548ea47becf75,Consulate of Lithuania - Kenya,-1.2921467,36.811355299999995,embassy,2.255300057517835
 Embakasi Central,Spring Valley,-1.2477029,36.78923560000001,a766cf78bdf26e723ada90b5d9a09c54ebcf34c4,Embassy of Turkey,-1.2377243,36.806900299999995,embassy,2.2541348172400086
 Embakasi Central,Spring Valley,-1.2477029,36.78923560000001,c0e5451f54afb7a8b2ebfe58b3de39a32348c97c,"Sierra Leone High Commission, Nairobi, Kenya",-1.2342502,36.80421829999999,embassy,2.237319041625561
 Westlands,Karura,-1.2369881,36.83255910000001,9894afebdff45157161466278eb3c78e658b70f9,Canadian High Commission,-1.2418187,36.8130403,embassy,2.2339741229939105
 Dagoretti North,Kilimani,-1.2874422,36.7845225,3cf181fb7b246f1d35027bed91c4154934300915,Embassy Of The Slovak Republic,-1.28929,36.804051,embassy,2.179253521306721
 Dagoretti North,Kilimani,-1.2874422,36.7845225,1fa0bcb2474389a39ef97df96a5a932873b24d9b,Uganda High Commission,-1.268076,36.783235999999995,embassy,2.156812099622996
 Westlands,Kangemi,-1.2654259,36.7525183,0cfa58238956cadee028d4aa6961429e4b171aae,Embassy of Hungary,-1.2645911,36.7717686,embassy,2.140681401240236
 Westlands,Kangemi,-1.2654259,36.7525183,7d9bf57cf82ac5999bbfe3f73e9374d5cc249f3e,Embassy Of Sahrawi Arab Democratic Republic,-1.2647443999999999,36.7716672,embassy,2.128752531681006
 Westlands,Kitisuru,-1.2395542,36.7839651,423e903195e0aea1d0ca646f54e5c8cc66fe0920,Embassy Switzerland,-1.228604,36.79951499999999,embassy,2.1131138294028955
 Embakasi Central,Spring Valley,-1.2477029,36.78923560000001,04018f6f4dd12dad3866f453f18b1eccaad53712,Embassy of Poland,-1.2349758,36.80313710000001,embassy,2.0941706136379428
 Embakasi Central,Spring Valley,-1.2477029,36.78923560000001,4c2cf7fa956ddd68c8439bcd3a1e9e49cbce56e0,Royal Norwegian Embassy,-1.2345323000000001,36.80239829999999,embassy,2.068957705305825
 Embakasi Central,Spring Valley,-1.2477029,36.78923560000001,02bfbfe65daa76cd622464ba7ca5ac7805169188,Embassy of Norway,-1.2347504999999999,36.8023592,embassy,2.0487828494230764
 Westlands,Kitisuru,-1.2395542,36.7839651,3d49a417664d56f5d6cb397786766d91b956fe9f,Embassy Of The Order Of Malta,-1.232344,36.800773,embassy,2.031982940336399
 Embakasi Central,Spring Valley,-1.2477029,36.78923560000001,11d7bbc8973b75bb290858533757ffedb2f590df,Embassy Of United States Of America,-1.234386,36.8017402,embassy,2.0297649031537226
 Embakasi Central,Spring Valley,-1.2477029,36.78923560000001,0cbf9915eb1a57265f994b2d6d0c3a684e3287cf,Embassy Of The Republic Of Turkey,-1.238581,36.804838000000004,embassy,2.008044527553764
 Dagoretti North,Kilimani,-1.2874422,36.7845225,f618739f338c7333c7f0c5300e30ff591f763d9b,Embassy Of The Czech Republic,-1.27239,36.774868,embassy,1.9870325912454216
 Westlands,Kitisuru,-1.2395542,36.7839651,9cb5691b9e2c720a482f131c1ab238eccb273aec,Embassy Of The Republic Of Poland,-1.2342879999999998,36.800388,embassy,1.9161231660573
 Dagoretti North,Kilimani,-1.2874422,36.7845225,7c51d93d9d1ed6830067ecbc25a85882fd23b692,Embassy of the Czech Republic,-1.273249,36.77487100000001,embassy,1.907186261811877
 Dagoretti North,Kilimani,-1.2874422,36.7845225,35d14808ba7c828edb35566686fc13f9f8e7655c,Russian Embassy,-1.291368,36.801204999999996,embassy,1.9040268798561335
 Westlands,Parklands,-1.2630616,36.8106288,51766d77e8bdc8db44bc47de1e32452af55f1e82,Embassy of Austria,-1.249382,36.820766799999994,embassy,1.891939243288038
 Dagoretti North,Kilimani,-1.2874422,36.7845225,2e395e21f4db98b83fedb6e7155830198bd26278,Philippine Embassy,-1.2715971000000001,36.7791078,embassy,1.8607121319207285
 Westlands,Parklands,-1.2630616,36.8106288,ec3dec2dfc5006dc05ce22dc2f58301d8e737bda,Embassy Of Swizaland,-1.2502997,36.821435799999996,embassy,1.858154004548665
 Dagoretti North,Kilimani,-1.2874422,36.7845225,5e6ee0934a524f897869500056ebbd8d5d778684,Russian Embassy,-1.2906829,36.80086440000001,embassy,1.8509076969107632
 Westlands,Kitisuru,-1.2395542,36.7839651,fc200e47fc86a5d7372666e1baee2a9091da349c,Embassy Of Angola,-1.2302170000000001,36.797651,embassy,1.8407906696115457
 Starehe,Ngara,-1.277803,36.8300722,f9d9ee8a0eea0ab07bdbcf1ac01a9c0613045729,Echo Media Tech Agency,-1.2920658999999999,36.82194619999999,embassy,1.8240400802776968
 Dagoretti North,Kileleshwa,-1.2723271,36.7996878,46c9a65f955cc1fb15084cce1fe55e0572927907,Embassy of Germany,-1.2681803999999999,36.7844314,embassy,1.756474621390532
 Dagoretti North,Kileleshwa,-1.2723271,36.7996878,c72ed87cbc93a98cf7c60aa155f5a3c2f67a4dbf,Botschaft der Bundesrepublik Deutschland in Nairobi,-1.2680731,36.7844636,embassy,1.7561948288113631
 Westlands,Kangemi,-1.2654259,36.7525183,6cd5329a30c4e7a009566851d9c8ae56b2b0fc5f,Apostolic Nunciature In Kenya,-1.2662959999999999,36.768276,embassy,1.7533169551443215
 Dagoretti North,Kilimani,-1.2874422,36.7845225,1feac057d47de03a38bc2788bae170cc1e8e02c7,Embassy Of The People's Republic of China,-1.294389,36.7984859,embassy,1.732752374243402
 Westlands,Parklands,-1.2630616,36.8106288,95202e3f40b2b260f1d11ed956e314471592059a,Embassy Of Belgium,-1.248271,36.81537599999999,embassy,1.726152334551719
 Lang'ata,Nairobi West,-1.3087022,36.8230975,990f9ae45b573632b6eded43a695873ff5a4e086,Embassy Of Spain,-1.29692,36.813117999999996,embassy,1.7156478623341156
 Westlands,Parklands,-1.2630616,36.8106288,1c69390bcb9aa80fb1f1309d5410615f8d023ecc,Ukraine Embassy,-1.251883,36.82128,embassy,1.7156311234775514
 Lang'ata,Nairobi West,-1.3087022,36.8230975,9c2c6a9688c6051143697efd027988e1af8cccbd,Embassy Of Lesotho(Not In Kenya),-1.296738,36.813408,embassy,1.7106770632244164
 Westlands,Parklands,-1.2630616,36.8106288,609d7031972391fcaeb5eef95ac4c4311c8f6778,Honorary Consulate Of Belgium,-1.2481200000000001,36.814,embassy,1.7021050099006243
 Westlands,Kangemi,-1.2654259,36.7525183,7360572bee504dee069def2343f8b9c46b5d4093,Embassy of Mexico,-1.2524821000000002,36.7606458,embassy,1.698311432315384
 Lang'ata,Nairobi West,-1.3087022,36.8230975,f22c53ca481ca6cd4c5688b0ffce92f2213f3f3c,European Union Delegation To Kenya,-1.296891,36.813573,embassy,1.6859318724153471
 Dagoretti North,Kileleshwa,-1.2723271,36.7996878,023b9216bf083f655a53bfd3e289fab42f9dddb5,Embassy Of The Republic Of The Philippines,-1.286353,36.805421,embassy,1.6837529185068931
 Dagoretti North,Kileleshwa,-1.2723271,36.7996878,5c38bbebe9dff628610e10e7acc080c233e41ba1,Embassy Of The Federal Democratic Republic Of Ethiopia,-1.2851540000000001,36.807196999999995,embassy,1.651580023885321
 Westlands,Parklands,-1.2630616,36.8106288,5924708861b960ec003d1904941aeca3e85114a9,Austrian Honorary Consulate,-1.251441,36.819734000000004,embassy,1.6403779412235693
 Westlands,Kangemi,-1.2654259,36.7525183,f45b31c44a8ba0692d431268935c2d047c2f1fbe,Vatican Embassy,-1.2660498,36.7672491,embassy,1.6380303006593409
 Westlands,Parklands,-1.2630616,36.8106288,3084169df42ca00eb5bac11d49c66ec752b8a225,Permanent Mission Of The Republic Of Kenya To Unon,-1.250377,36.818064,embassy,1.6337836409849105
 Lang'ata,Nairobi West,-1.3087022,36.8230975,8da9094001a6edb4c4be362dbb2e7f294f2812f8,Embajada de España en Kenia | Embassy of Spain in Kenya,-1.2979209999999999,36.813243,embassy,1.6229411144129668
 Lang'ata,Nairobi West,-1.3087022,36.8230975,bac7b79d9a879e817768f9fd0f1f342440ab3bb7,Embajada Espana,-1.2982615,36.813437799999996,embassy,1.5804387520782048
 Dagoretti North,Kileleshwa,-1.2723271,36.7996878,1951816ed6a1a64412bdf6d1fb1fbbf0025a031c,Embassy of Belarus in Kenya,-1.2733584999999998,36.78560879999999,embassy,1.5683380546545738
 Westlands,Kangemi,-1.2654259,36.7525183,78c6c126581142210d31a1d41524907200953e67,Embassy Of Ireland Kenya,-1.262597,36.766346,embassy,1.568065205246755
 Westlands,Karura,-1.2369881,36.83255910000001,ec95e0d648f05f73379277635ebf606ce9d18b54,Embassy of Egypt to Somalia,-1.2229616,36.833793,embassy,1.564713061579575
 Westlands,Parklands,-1.2630616,36.8106288,76eb270d0734129aaf6172e4b65420c8b8f819f8,Embassy of Ukraine in Kenya,-1.2517120000000002,36.81888,embassy,1.5591726149848255
 Lang'ata,Nairobi West,-1.3087022,36.8230975,b5f39bc762269b0323f65c999e18279b322ea670,British High Commission Nairobi,-1.2958934,36.8173694,embassy,1.5591591548789996
 Lang'ata,Nairobi West,-1.3087022,36.8230975,6e4e73aa61f9d0ca0dc8c7d68a1132bd5efb66c3,British High Commission - Department For International Development Kenya (Dfidk),-1.2961340000000001,36.816956,embassy,1.5543944250499158
 Lang'ata,Nairobi West,-1.3087022,36.8230975,7e187684598e305a9f1a735c32dbea05c2fa37fe,Embassy Of Japan,-1.297083,36.815545,embassy,1.5398612003767742
 Dagoretti North,Kileleshwa,-1.2723271,36.7996878,1131fc0870e9f020b4c3c06b04d6da8d32ae4dd9,Consulate of Malawi,-1.2632352,36.78930560000001,embassy,1.5333653317698428
 Dagoretti North,Kabiro,-1.2878118,36.7515014,0cdb9278f40f182b223acaa6e9af9c547153493e,KenRuss,-1.284649,36.764888799999994,embassy,1.528265177784471
 Lang'ata,Nairobi West,-1.3087022,36.8230975,1c910ae9d7298ab466e426b4124995068b06785b,Embassy of Japan,-1.2974382,36.81520940000001,embassy,1.5279910776649297
 Dagoretti North,Kilimani,-1.2874422,36.7845225,6e2022b95426ec3ff65d94c7c23653ab4af18d31,Embassy of the People's Republic of China,-1.2909701999999998,36.79777070000001,embassy,1.5231550088703705
 Lang'ata,Nairobi West,-1.3087022,36.8230975,2a3549205930fc70874355d8e356507cbd11f512,French Development Agency,-1.303124,36.8105886,embassy,1.521674208711768
 Embakasi Central,Spring Valley,-1.2477029,36.78923560000001,1ba916046fe6a41b374eb1ef2267e5719a8395b3,Pakistan High Commission,-1.2613450000000002,36.788656,embassy,1.517346864099954
 Lang'ata,Nairobi West,-1.3087022,36.8230975,73bb0acf3c3c8818ccc66310420b9264a83cea45,Embassy of Japan,-1.297526,36.8154632,embassy,1.503929039210361
 Embakasi Central,Spring Valley,-1.2477029,36.78923560000001,14a849ee47724ec513affb5dcaac272028e6eb35,Ambassade de France à Nairobi,-1.2498103,36.80254229999999,embassy,1.4967909379163051
 Westlands,Parklands,-1.2630616,36.8106288,a1797cb6ecfe89d46b2a78ef0ff6542b0420e2fa,High Commission of Ghana in Kenya,-1.2514775,36.8169466,embassy,1.4662062959212134
 Westlands,Parklands,-1.2630616,36.8106288,2f60bdafd01a6f980f3c91b0d89d8431a2899d4e,Ghanaian High Commision,-1.2506249,36.8146511,embassy,1.4524805625693444
 Embakasi Central,Spring Valley,-1.2477029,36.78923560000001,dbfd76ae16ef4d845614a39c35b4d67eda70bf7e,Ambassade de France à Nairobi,-1.2501205,36.801995700000006,embassy,1.4428627500598237
 Lang'ata,Nairobi West,-1.3087022,36.8230975,a94ef365e785018f9198d490e2756fc5f1032927,Embassy Of Indonesia,-1.301421,36.812393,embassy,1.4383846593853162
 Embakasi Central,Spring Valley,-1.2477029,36.78923560000001,7cfc5099a14aaacf44a4b5c652568b26cac9c34d,Malawi Chancery-High Commision,-1.26051,36.79018000000001,embassy,1.4270527441942198
 Embakasi Central,Spring Valley,-1.2477029,36.78923560000001,24df4fd0683600cb1f9a4ff7bc1363622c111835,Consulate Of Madagascar,-1.2603010000000001,36.786786000000006,embassy,1.4261720600409744
 Kibra,Laini Saba,-1.31234835,36.79611435,9779156aea33c6fe41e35c9a854175ae74f28b8d,Economic & Commercial Counselor's Office Of The Chinese Embassy In Kenya,-1.2995968,36.7960533,embassy,1.4170336723667778
 Kibra,Laini Saba,-1.31234835,36.79611435,cfb0c72be8e849091288f8658805fd163db8291e,Chinese Economic and Commercial Counselor's Office,-1.2997791,36.7957934,embassy,1.397214374233659
 Kibra,Laini Saba,-1.31234835,36.79611435,fddceab9db86c82188c559ca3b7e95d86065d0ac,Chinese Embassy Commercial Office,-1.2998809999999998,36.795812,embassy,1.3858428185356015
 Lang'ata,Nairobi West,-1.3087022,36.8230975,c04cce92600e66ecc6794f908344025f6bb172f0,British High Commission Emergency,-1.297841,36.817736,embassy,1.3459287183159625
 Westlands,Kangemi,-1.2654259,36.7525183,b1f52526b0c43e0b4b0591c442c033023254cb4f,Consulate Of Ireland,-1.262965,36.76432699999999,embassy,1.3401225580980112
 Kibra,Makina,-1.30854575,36.78652379,128743e025c2b34e0c14f09cd56410d05042aa29,"Yemen, Embassy Of",-1.299513,36.794414,embassy,1.3326386756496522
 Dagoretti North,Kileleshwa,-1.2723271,36.7996878,44dcf09854bfc33a254d9e9c2d36e4ab53122b96,Eritea,-1.2641148000000002,36.7911443,embassy,1.316715405040565
 Dagoretti North,Kilimani,-1.2874422,36.7845225,96b3f90c26d4da11360e81a8cda535c1620b9958,The Embassy Of The People Republic Of China,-1.2909648,36.795582,embassy,1.2895270358069495
 Dagoretti North,Kilimani,-1.2874422,36.7845225,9b6256eb9550162ba13744e01d5c8f78b9342d1f,"China, Embassy Of The People'S Republic Of",-1.289253,36.79570800000001,embassy,1.258862430495158
 Starehe,Ngara,-1.277803,36.8300722,d2c8ced979502a3bd8bd1857c852f894b276bae5,India High Commission,-1.288368,36.8261208,embassy,1.2534250667560556
 Starehe,Ngara,-1.277803,36.8300722,2ea78256e93239f712667ad44fbf72fcab72bb31,Indian High Commission,-1.288371,36.826155,embassy,1.2524120048185203
 Starehe,Nairobi Central,-1.2832533000000002,36.8172449,ffeb4d0625c15f453653df1e8e7fa84149cb40c7,Consular Section of the Embassy of Israel,-1.2912845,36.8095104,embassy,1.2388953714599562
 Kibra,Woodley,-1.3056567,36.77600465,697daf68841ea775000fb1de404b529e1d0bbee4,Bangladesh High Commission,-1.294666,36.774156,embassy,1.2384904307440037
 Dagoretti North,Kileleshwa,-1.2723271,36.7996878,4f2614e9d5f4c22bd9aea2805c9be0aa8b0b9016,Royal Netherlands Embassy,-1.270371,36.788872999999995,embassy,1.2210048471425647
 Starehe,Ngara,-1.277803,36.8300722,ece469a66875dbefef62b755dcbbecc3344a9fde,Nyabena Nyakundi & Company Advocates,-1.2884048000000001,36.8276185,embassy,1.209252578613768
 Starehe,Ngara,-1.277803,36.8300722,c0dd90f5809a34452b9ce6a6d91b8d42e9250b9e,Wachakana & Co. Advocates,-1.2884048000000001,36.8276185,embassy,1.209252578613768
 Lang'ata,Nairobi West,-1.3087022,36.8230975,d35efb1e0f9ae7222a49c3d1b9aff1e39d06a2c8,Malaysian Trade Commission (Matrade),-1.301056,36.815658000000006,embassy,1.1853556666434848
 Westlands,Parklands,-1.2630616,36.8106288,0ccbf7bba64908e0bdb99c27f6a3476bf74fa65f,VFS Canada,-1.267854,36.81995000000001,embassy,1.1644803283789515
 Dagoretti North,Kilimani,-1.2874422,36.7845225,914e92456972783f11b8cf25def7b3251e0d3bf0,The Embassy Of The Arab Republic Of Egypt,-1.286533,36.774097999999995,embassy,1.1625302886662554
 Dagoretti North,Kileleshwa,-1.2723271,36.7996878,fcf4ff9fc5142e5068a8a0fd72f15fa5363778dc,Delegation of the European Union to Kenya,-1.2620008999999999,36.7987659,embassy,1.1520619283089362
 Westlands,Parklands,-1.2630616,36.8106288,d58bec4b0ece1a11b570b8fadf5c377033b6e2ff,Australia Aid,-1.2732350000000001,36.810981,embassy,1.1311971723023386
 Dagoretti North,Kileleshwa,-1.2723271,36.7996878,14f6a723b949d824ac2faf9669a0dcf5841b563a,Embassy of Chile,-1.269074,36.790069700000004,embassy,1.128043138693965
 Dagoretti North,Kileleshwa,-1.2723271,36.7996878,1e2a6029f9d8d5c935820c1c1e069fdb3eb64702,Consulate of Chile,-1.2692249,36.7900613,embassy,1.1236698094981277
 Dagoretti North,Kilimani,-1.2874422,36.7845225,b3b99514d550f818cdb889efb83b4f15da0b3619,South African High Commission,-1.2887993999999998,36.794503399999996,embassy,1.1190581107020254
 Dagoretti North,Kilimani,-1.2874422,36.7845225,e30b58031454a6c5ce0ee58ab4b23a96a9c89efc,Embassy of Egypt,-1.2852668,36.774743900000004,embassy,1.1129455741240204
 Starehe,Nairobi Central,-1.2832533000000002,36.8172449,a1955e808b87f42428b594b24e3860de3703d5c7,Embassy of the Democratic Republic of Congo,-1.2878186000000005,36.825844599999996,embassy,1.081742225383409
 Starehe,Nairobi Central,-1.2832533000000002,36.8172449,c42cc477e57ea100d4e35bbff873a92516f6092d,Ethiopian Embassy,-1.286184,36.808227,embassy,1.0534675004069791
 Dagoretti North,Kileleshwa,-1.2723271,36.7996878,a26c896c9564c7741ea72dba2405414ae38e36e4,Zambia High Commission Residence - Nairobi,-1.2694775,36.790873299999994,embassy,1.0291973992133694
 Dagoretti North,Kilimani,-1.2874422,36.7845225,27095f12e253035d34a86405a4e6e94807f830fe,Embassy of the Czech Republic,-1.2890693000000002,36.7935941,embassy,1.0239187882779943
 Starehe,Nairobi Central,-1.2832533000000002,36.8172449,c384322b361593a32d6b8fa627151b2aec559a34,Embassy Of Republic Of Estonia,-1.28616,36.808504,embassy,1.023400344336981
 Lang'ata,Nairobi West,-1.3087022,36.8230975,8b7cc842195d64c7106cf9e571199b18c5355c96,Benin Consulate,-1.3000639999999999,36.825384,embassy,0.9929628793078821
 Starehe,Nairobi Central,-1.2832533000000002,36.8172449,46981171e1d1160f76b0bf656486bef4990ef56b,Embassy Of Jamaica(Not In Kenya),-1.2871270000000001,36.825081,embassy,0.9711796121933424
 Starehe,Nairobi Central,-1.2832533000000002,36.8172449,f655f5c927210b3675524e280128f4852ed2c007,Embassy Of Montenegro,-1.287788,36.809812,embassy,0.9673867129001076
 Starehe,Nairobi Central,-1.2832533000000002,36.8172449,c03f790bc900985db6036fb28a9494d9ff67410f,Atlantis Business Systems Ltd,-1.2907819999999999,36.821615,embassy,0.9672958451091082
 Starehe,Nairobi Central,-1.2832533000000002,36.8172449,18483b8b44a89ad3850cd4959d0ff4edbc4079c8,Ethiopian Embassy in Kenya,-1.2865277,36.809259999999995,embassy,0.9588253450771744
 Starehe,Nairobi Central,-1.2832533000000002,36.8172449,7606805631a9377f7b4d6f59c48ce208be350e21,Tanzanian High Commission,-1.2873139999999998,36.82477819999999,embassy,0.9508267616281256
 Starehe,Nairobi Central,-1.2832533000000002,36.8172449,8490f16766172f1056178d41f38449e3569cab23,Portugal Embassy,-1.2873677,36.8247303,embassy,0.9490065715985364
 Starehe,Nairobi Central,-1.2832533000000002,36.8172449,0147e8e9fcf062b47c1e3d693dabd2ca35d6d1ed,Tanzania Embassy,-1.2873409,36.8246659,embassy,0.9413025640482028
 Starehe,Nairobi Central,-1.2832533000000002,36.8172449,9378e26857c367a237d16ade5290fbcb83c37780,Tanzanian High Commission,-1.2871796,36.8246068,embassy,0.9269868718029896
 Westlands,Kangemi,-1.2654259,36.7525183,19dfb04519f324563f0c017279ebfbce8b2eadd2,Egyptian Defence Attache Office,-1.264818,36.76068239999999,embassy,0.9095275216306548
 Dagoretti North,Kilimani,-1.2874422,36.7845225,c0735eb6baa4dfd8de154df2600c565803b8a3d5,Royal Thai Embassy,-1.285952,36.792441,embassy,0.8951727733355862
 Dagoretti North,Kileleshwa,-1.2723271,36.7996878,d6d1cfc5583244e9553ec1371d654a89384dbefb,Netherlands Embassy,-1.2692934999999999,36.79223890000001,embassy,0.8935837613903621
 Westlands,Parklands,-1.2630616,36.8106288,920b2bee440d4285958a7b9315c4b3ac2b662836,Vfs Kenya,-1.266843,36.817498,embassy,0.8711946598934113
 Starehe,Nairobi Central,-1.2832533000000002,36.8172449,a67dc3a2af7136a14de2736f9240494ba5fe9a51,Embassy Of Venezuela,-1.28683,36.824095,embassy,0.8585668443420651
 Kibra,Makina,-1.30854575,36.78652379,27f786380fd93de56fec32d4e14c5cece9c365ae,Embassy South Sudan,-1.3022639999999999,36.790772,embassy,0.8426354716147255
 Kibra,Makina,-1.30854575,36.78652379,e6e6628723149d7a60dac9c8e2ead22a72fd3882,Embassy of Sudan,-1.3022265,36.7900924,embassy,0.8064138132840112
 Kibra,Makina,-1.30854575,36.78652379,1d31cb34b8c3d8b6efa07311aeaac96480050de7,Embassy of Sudan,-1.3022652,36.7900881,embassy,0.8024358254541017
 Starehe,Nairobi Central,-1.2832533000000002,36.8172449,267d1b002ecd3d456f1a80cf8a7cb8f63f3b3eba,Honorary Consulate of Ghana,-1.2857753,36.8238384,embassy,0.7843014899256179
 Westlands,Parklands,-1.2630616,36.8106288,b789edbbea002cdf64facc59734ef92c76cc4851,Uk Visa Application Centre (Vfs Global),-1.261347,36.803805,embassy,0.7816884041667916
 Starehe,Nairobi Central,-1.2832533000000002,36.8172449,eecf69633c2afbafc74c39e244e0139f2a6ea2a7,Embassy of Cuba,-1.2858385,36.823759700000004,embassy,0.7787052062211991
 Starehe,Nairobi Central,-1.2832533000000002,36.8172449,9e5c962fc55ea0f46083b85bd33c249706ffbaa0,Venezuela Embassy,-1.2858009,36.8237543,embassy,0.7766147757120619
 Starehe,Nairobi Central,-1.2832533000000002,36.8172449,018294fb886e27fbe1943bf9577e7af08e467ddd,Nepal Consulate Kenya,-1.286392,36.823474,embassy,0.7749621633601453
 Ruaraka,Mathare North,-1.251788,36.87077217,d883028a8aede8faf21b867da6907f22a06d2944,Honorary Consulate Of Lebanon,-1.245525,36.86782,embassy,0.7693866472183841
 Dagoretti North,Kileleshwa,-1.2723271,36.7996878,3f03340508c54093d3aeee0991f70cc35100990e,Uganda Embassy Nairobi,-1.2696357,36.7933223,embassy,0.7678358460881681
 Starehe,Nairobi Central,-1.2832533000000002,36.8172449,5fb9ebfa3057a9c9e78fb10bbc5eaceea3448781,Embassy Of Colombia,-1.285706,36.823621,embassy,0.7589931442093117
 Westlands,Parklands,-1.2630616,36.8106288,557aaa93a0315d124c25162a7040df08166bdbe0,Embassy of Finland,-1.2683686,36.806352600000004,embassy,0.7572930929932199
 Starehe,Nairobi Central,-1.2832533000000002,36.8172449,eaa39929b4f9bbe5fa28fd5d09cfbc6dbc9dfb00,Embassy Of The Republic Of Burundi,-1.285728,36.823588,embassy,0.7564579527699163
 Westlands,Parklands,-1.2630616,36.8106288,40ba26c73b74b055e459de78dafe729463167810,Embassy of Finland,-1.2686228000000002,36.80672179999999,embassy,0.7551942435172636
 Westlands,Parklands,-1.2630616,36.8106288,f87a555969e0d27566b6849cd76cdcc2d18bad4f,United Nation High Commissioner for Refugees,-1.2676266999999999,36.8056496,embassy,0.7505716325449543
 Starehe,Nairobi Central,-1.2832533000000002,36.8172449,7b751293f1c161631486cdb108eade21f26c96bf,Embassy of Switzerland,-1.2857431000000001,36.823521899999996,embassy,0.7502388295483126
 Starehe,Ngara,-1.277803,36.8300722,c0b1b0b66d272b9ef23a1045375bf9b420795511,Embassy Of Cuba,-1.278286,36.82341399999999,embassy,0.7416538874866265
 Ruaraka,Mathare North,-1.251788,36.87077217,f8687f2956ecc051825f9cc829a5ce2faea2f0fb,Consulate of Lebanon,-1.2455261,36.8688525,embassy,0.7278039567390922
 Westlands,Parklands,-1.2630616,36.8106288,9dcbb56e6fcbba381a2397fc67e7ee392e3c2349,Embassy Of The Republic Of Korea,-1.269562,36.811323,embassy,0.7264631946579371
 Starehe,Nairobi Central,-1.2832533000000002,36.8172449,f73c017a22b1b6303f08124d64416dc1ef721568,Embassy Of Bahamas,-1.2862996000000002,36.823008,embassy,0.72424736965133
 Starehe,Nairobi Central,-1.2832533000000002,36.8172449,9982618c0fb3dcc0eea53086d622ee8075afd3ef,Mozambique High Commission,-1.2883069999999999,36.821264,embassy,0.7174665829466145
 Dagoretti North,Kilimani,-1.2874422,36.7845225,c6bafea9d5028fe4d7e505812e73c2aeb3929721,Nigeria High Commission,-1.28896,36.790533,embassy,0.6887208606667313
 Starehe,Nairobi Central,-1.2832533000000002,36.8172449,0db6641a78298514e8cefddc8203dccccb11292b,Embassy of Nepal,-1.2858778,36.8227902,embassy,0.6816137475751252
 Starehe,Nairobi Central,-1.2832533000000002,36.8172449,1dbfaf7b91e5a50f7e2f28d2eac50484a5461c77,Uganda High Commission-Consular / Commercial Section,-1.286045,36.822694,embassy,0.6802396104490827
 Dagoretti North,Kilimani,-1.2874422,36.7845225,89221a3dfb76bdb79652123fd06d8e896924f09c,"Embassy Of Somalia, Nairobi",-1.2843205,36.789568,embassy,0.6592001397598902
 Starehe,Nairobi Central,-1.2832533000000002,36.8172449,b329214a9cceae77e9790addfdec71a695f3b42f,Pacific Bereau,-1.2846396,36.8230035,embassy,0.6580507191589178
 Dagoretti North,Kileleshwa,-1.2723271,36.7996878,d2c7ce60aff21f7c0d9226b367abf56f39fa84f4,Liberia consulate in Kenya,-1.2664221000000002,36.79928049999999,embassy,0.6577521363514095
 Dagoretti North,Kileleshwa,-1.2723271,36.7996878,00dbce650910902cc97894f39b7fea7d6661da42,Embassy Of Eritrea,-1.2664494,36.7993696,embassy,0.6541160494738083
 Dagoretti North,Kilimani,-1.2874422,36.7845225,295429330c9db26c706574812cf2cfcb6770e00f,Embassy of the Federal Republic of Somalia.,-1.2843299,36.789491999999996,embassy,0.6514804399714083
 Lang'ata,South C,-1.3204427,36.83053678,c4a65d3a033be98ac5457e8ce643d69c26217c23,Embassy Of Cook Islands,-1.3190600000000001,36.83603859999999,embassy,0.6302452283791316
 Westlands,Parklands,-1.2630616,36.8106288,6c0a0ca4616c4bb995271440124c2f0a2946dabd,Consulate of Liberia,-1.2666402,36.806310499999995,embassy,0.6231434895423392
 Starehe,Nairobi Central,-1.2832533000000002,36.8172449,9e7c97f27982b356e93fc36c113914ed12756032,Consulate Of The Republic Of Mozambique,-1.287449,36.82092100000001,embassy,0.6198232680588296
 Starehe,Pangani,-1.2648989,36.8372708,6523633dd92e58bfddffbc3bbd277e494d111be1,Embassy of the state of Kuwait,-1.2599358999999999,36.83493199999999,embassy,0.6096577262133008
 Starehe,Nairobi Central,-1.2832533000000002,36.8172449,f6110bcb1a1be75b17d6c4bfa9c5ed925f6cd85d,Princess Foreign Exchange Bureau Ltd,-1.284905,36.82245560000001,embassy,0.6072951591957146
 Dagoretti North,Kilimani,-1.2874422,36.7845225,3f187b7211bf643aabdf7c7299a94f8e019a3e40,Embassy Of The Somali Republic,-1.291643,36.781219,embassy,0.5938107014977629
 Dagoretti North,Kileleshwa,-1.2723271,36.7996878,02d92ca2ab9464ecf74f0d3ca2789f3c3b56381b,Australian Trade Commission,-1.271349,36.804922,embassy,0.5915785043301289
 Dagoretti North,Kilimani,-1.2874422,36.7845225,a943df0b0acab2cfc3263d71dd78620cb1b49d71,Embassy Of Somali,-1.2913,36.780876,embassy,0.5898310239513932
 Dagoretti North,Kileleshwa,-1.2723271,36.7996878,d0444d9dd954578270e97c00c96bd3d2b6fc0b71,Australian High Commision and Consulate,-1.2723662,36.80492949999999,embassy,0.5823571008292308
 Starehe,Nairobi Central,-1.2832533000000002,36.8172449,243a889a5cefce9888c4211654a61d24f985ad7c,Embassy of Greece,-1.2831903,36.822335100000004,embassy,0.5655505267383539
 Starehe,Pangani,-1.2648989,36.8372708,a7c4e1eda7fa4c52b75690c2b7294fc306bd1ca4,Embassy Of Algeria,-1.261341,36.840889000000004,embassy,0.5638289630415051
 Starehe,Pangani,-1.2648989,36.8372708,6e0c52f175542394b11386b37390d26c10cbb70b,Brazillian Embassy Kenya,-1.2626925,36.8417233,embassy,0.5520951686549033
 Starehe,Nairobi Central,-1.2832533000000002,36.8172449,2e5c74befd80f3e0c99c8871fc47d9f6e7971bc4,Mozambique High Commission,-1.2860771999999998,36.8209237,embassy,0.5152800702048254
 Starehe,Nairobi Central,-1.2832533000000002,36.8172449,54286981ed43c71747a1a14234609f47c07f5e0c,Ugandan High Commission (Consular Section),-1.2850163000000001,36.821323,embassy,0.4936096492654306
 Dagoretti North,Kilimani,-1.2874422,36.7845225,a8c633a46e6e5f6b89c0b1564ed4d275ec5ce0c1,South African High Commission,-1.289867,36.788145,embassy,0.484326084892829
 Starehe,Nairobi Central,-1.2832533000000002,36.8172449,a945ebd2edf603c8c0a6ef91fe1e793a0d49ec97,Cyprus High Commission,-1.2830118000000001,36.8215843,embassy,0.48284177868540706
 Starehe,Pangani,-1.2648989,36.8372708,4e09a694f659e16d8985f9a4f5b89e9cbdad331b,Embassy of Saudi Arabia,-1.2606138999999998,36.8370121,embassy,0.4770377104161423
 Starehe,Pangani,-1.2648989,36.8372708,800164dd13a66390314750543254c20e753dac22,Embassy of Algeria,-1.2613421,36.8395201,embassy,0.467620475219274
 Dagoretti North,Kileleshwa,-1.2723271,36.7996878,3821ced233b4928c2368edfa851725639d6768ee,Australian High Commission,-1.270992,36.803553,embassy,0.4543224235052902
 Dagoretti North,Kilimani,-1.2874422,36.7845225,a8347238f9c936190913b6480640b7b93f19e8b6,Wakanda Embassy,-1.2908398,36.78288120000001,embassy,0.4192847568066475
 Starehe,Nairobi Central,-1.2832533000000002,36.8172449,a2071fa42e2ef307c3cd07369ba1ad638f3a5da9,Embassy Of The United Arab Emirates,-1.2844188,36.81371370000001,embassy,0.4131329850023508
 Westlands,Parklands,-1.2630616,36.8106288,cecf25ec85b3c35b001b498ada1df9430d712882,"Vsf - Norway,Nairobi",-1.2630569999999999,36.806993,embassy,0.4039308437196229
 Dagoretti North,Kileleshwa,-1.2723271,36.7996878,ceb3c6f2107fdbe3863c673e497e76b4187ce8c5,French Institute For Research In Africa (Ifra),-1.271981,36.796268,embassy,0.3818736991014193
 Starehe,Nairobi Central,-1.2832533000000002,36.8172449,a6ceefbf8188133550e07e534e8ba8c437a33124,Zambian Embassy,-1.2840631,36.8139169,embassy,0.3805252584241821
 Dagoretti North,Kileleshwa,-1.2723271,36.7996878,c655b449d04285cd17c7051b301cc68b3875d686,Delegation Of German Industry And Commerce Of Kenya,-1.271149,36.802663,embassy,0.35552003842108304
 Starehe,Pangani,-1.2648989,36.8372708,e665b8d8122544653a3e78c89e9f1dac4ebdadb9,Royal Embassy Of Saudi Arabia,-1.261818,36.837326000000004,embassy,0.3424202828934058
 Dagoretti North,Kilimani,-1.2874422,36.7845225,7306b55487446414b1ec83221e8934eb7482d236,Sri Lanka High Commission,-1.289733,36.786503,embassy,0.3364754165056473
 Dagoretti North,Kilimani,-1.2874422,36.7845225,59a00b67b5f1eafafe1fe3a5f0fb00d1c572f668,Ivory Coast High Comission,-1.2902790000000002,36.7847277,embassy,0.3160629529470695
 Westlands,Mountain View,-1.27113135,36.74300262,fafc5f28dfb017f7fcb16fb9ea021bd671014165,Honorary Consulate of Republic of Madagascar,-1.269508,36.740776000000004,embassy,0.3061625977861521
 Dagoretti North,Kilimani,-1.2874422,36.7845225,0b99fa0d0b35ae3e3098e5698148917aedfbbd89,Embassy Of Ivory Coast Nairobi,-1.290036,36.784879,embassy,0.290944698376918
 Dagoretti North,Kilimani,-1.2874422,36.7845225,7a444e04354ab6e4266132fde2d6dc5d8b167920,South Sudan Embassy,-1.2894141000000001,36.78306170000001,embassy,0.2726813599731636
 Dagoretti North,Kilimani,-1.2874422,36.7845225,766e80853897d4f35c4ffc319f59a19ac6067497,Government Of Southern Sudan Mission In Kenya,-1.2893709999999998,36.78307199999999,embassy,0.2681584144900322
 Dagoretti North,Kileleshwa,-1.2723271,36.7996878,1b0aaf5adc3cb86815b324787dc78debe11d91dd,Consulate of Malta,-1.2722765,36.8019807,embassy,0.25479800613543
 Starehe,Nairobi Central,-1.2832533000000002,36.8172449,8592e5e3d9c8e85b26a12905fa3b46906da63f58,India house,-1.2824441999999998,36.8192656,embassy,0.24182991642158386
 Starehe,Nairobi Central,-1.2832533000000002,36.8172449,ae7a9359029d845dff1ea718725ea8f2e0670076,Zambian High Commission,-1.283719,36.815287,embassy,0.2235887434345714
 Dagoretti North,Kilimani,-1.2874422,36.7845225,b65ec00954b35ea62aba9fb1bad9ac62c117d1ee,Srilanka High Commission,-1.2892196000000002,36.7841027,embassy,0.20294542234262206
 Dagoretti North,Kilimani,-1.2874422,36.7845225,0db917c9ab7405d4f060567be36237e0ed38beb4,High Commission Of The Democratic Socialist Republic Of Sri Lanka,-1.286816,36.78307,embassy,0.17573298037005836
 Starehe,Nairobi Central,-1.2832533000000002,36.8172449,a1436b4458a5c3c4a9ffbb6713a3a805bc7a6c17,Cultural Council of the Embassy Islamic Republic of Iran,-1.2821462,36.8162262,embassy,0.16716482799762705
 Starehe,Nairobi Central,-1.2832533000000002,36.8172449,278c6b9099f3c6561d04e315c9ced9f9e0e7f306,Embassy Of France,-1.2845035,36.81770949999999,embassy,0.1482071116236474
 Starehe,Nairobi Central,-1.2832533000000002,36.8172449,d78a4595a3b4f2f8b6e01fcb09dd0806e9c0cbff,Consulat de l'Union des Comores,-1.2843802,36.8173441,embassy,0.12571091073217305
 Starehe,Nairobi Central,-1.2832533000000002,36.8172449,1a2848be9e99db909996c0324a7581a312dd51a9,Libyan People'S Bureau,-1.2839690000000001,36.817991,embassy,0.1148741504792376
 Starehe,Nairobi Central,-1.2832533000000002,36.8172449,bcf368fd8d16e9eaad8d9745772e22fcba029bbb,Libya Embassy Of,-1.283986,36.81793620000001,embassy,0.1119281555947526
 Starehe,Nairobi Central,-1.2832533000000002,36.8172449,e15c812b282da0f030a7c44a4a5ab9545a0f25f4,Libyan Embassy,-1.283986,36.817935999999996,embassy,0.11191291049000664
