,constituency,ward,clat,clon,place_id,place_name,place_lat,place_long,place_type
0, Mathare,Huruma,-1.25764595,36.87259835,a4bebbc4b36833fe3253d79b64446b57f7213ba6,Rescue Data Centre Archdiocese Of Nairobi,-1.2716931,36.8335587,church
1, Mathare,Huruma,-1.25764595,36.87259835,df0668bd4a3175890e7560916d4abbd71f679776,Deliverance Church Umoja,-1.280882,36.890956,church
2, Mathare,Huruma,-1.25764595,36.87259835,4c2bae5f2d18f36e43964c61a94a08bd080a6675,ACK Saint Luke's Church Umoja,-1.2795242,36.887948,church
3, Mathare,Huruma,-1.25764595,36.87259835,2c2f8bbeb77ee4918ff10df85e90707291300830,Holy Trinity Catholic Church Buru Buru,-1.2764328,36.8750793,church
4, Mathare,Huruma,-1.25764595,36.87259835,2e269e63ea10394c5896168f6c9ea6ba7f9579c6,Nairobi Gospel Assembly Church,-1.235547,36.867949,church
5, Mathare,Huruma,-1.25764595,36.87259835,a61e062cb650a65b366ffd9b0d7a0e5193fba24a,AIC Zion Church,-1.2630733,36.8622131,church
6, Mathare,Huruma,-1.25764595,36.87259835,4622afba487daa07a992979202b2a93ef9be6e86,ACK St. James Church,-1.281899,36.87901310000001,church
7, Mathare,Huruma,-1.25764595,36.87259835,d8676aa3ea05bae3cdb9caa38231e9eb5af1a585,PCEA Kariobangi South Church,-1.2660481,36.8834987,church
8, Mathare,Huruma,-1.25764595,36.87259835,872d8ad55012c36651c0b58e73efcb916caa4860,Buruburu Tabernacle of Praise (Worldwide Gospel Church Buruburu),-1.2783957,36.8724293,church
9, Mathare,Huruma,-1.25764595,36.87259835,d55019548a260de603f5f61551d37772693af565,Redeemed Gospel Church Huruma.,-1.2611211,36.8660318,church
10, Mathare,Huruma,-1.25764595,36.87259835,42be74e689a7a89e1104383850b369a10f60f1b1,Narrow Gate Apostolic Ministries,-1.2443533,36.8832493,church
11, Mathare,Huruma,-1.25764595,36.87259835,6994cbbe0bc382c4f9c861ea352aba38cc8e0e8c,Nairobi Gospel Assembly Complex (HOT),-1.2358232,36.8679392,church
12, Mathare,Huruma,-1.25764595,36.87259835,48a8dcd9a3d00ae56e009559bb9969c40377cd53,Baba Dogo Catholic Church,-1.2436534,36.8843651,church
13, Mathare,Huruma,-1.25764595,36.87259835,954b4f9cd5a529385c8069fdf7dabb376eaa1fd7,African Holyghost Christian Church,-1.2587579,36.8743769,church
14, Mathare,Huruma,-1.25764595,36.87259835,6d38e68a443a5af4afbff4c0261c8981f0f4a12f,ACK St. Christopher's Mathare Parish,-1.2559795,36.8675952,church
15, Mathare,Huruma,-1.25764595,36.87259835,7ba91c9625fb2ac8631d6ea393091b946e04a9e4,Kariobangi North Catholic Church,-1.2567927,36.8794443,church
16, Mathare,Huruma,-1.25764595,36.87259835,556f65ea12129bbc337e28e1b980e853e8f13cc4,Jesus Victory Temple,-1.2659576,36.8801322,church
17, Mathare,Huruma,-1.25764595,36.87259835,9e8eb3171c84a871da061eac6702c486c52b91aa,"Redeemed Evangelistic Fellowship HQ,",-1.2563783,36.8609878,church
18, Mathare,Huruma,-1.25764595,36.87259835,5484feb68a28eea3518f753ffaf84d7554e8229f,"The Church Of Jesus Christ Of Latter Day Saints, Lucky Summer Ward",-1.2460551,36.8844574,church
19, Mathare,Huruma,-1.25764595,36.87259835,93724b050dfe463f2b1901fe870d1debf00f0253,Evangelical Mission Of Africa (EMA),-1.2501654,36.8895935,church
20, Mathare,Huruma,-1.25764595,36.87259835,71b9e092c505e5557287c2c7e57943aac7a0b455,Nairobi Calvary Temple,-1.2770842,36.87312259999999,church
21, Mathare,Huruma,-1.25764595,36.87259835,e538681d4b8d59b70a60a105253c8b721cb8e49a,Redeemed Evangelistic Fellowship,-1.2569482,36.8930239,church
22, Mathare,Huruma,-1.25764595,36.87259835,1e64bf869bd9d098710251970327b817cbab49c3,East assembly (KAG) buruburu,-1.277592,36.877853,church
23, Mathare,Huruma,-1.25764595,36.87259835,2aacab793ed5ebb4b8da3e359bfe82c3aa6eb1bc,Jesus Solution Temple - KCC,-1.2733681,36.8869068,church
24, Mathare,Huruma,-1.25764595,36.87259835,05c403479dac695df4e2504ff77765950e391032,JCC Thika Road Church,-1.2364026,36.8703662,church
25, Mathare,Huruma,-1.25764595,36.87259835,75a08e04665b58f7020b3bc8c60384f9e5fdc3d9,Buru Buru 1 FGCK Royalfamily,-1.2775923,36.8808133,church
26, Mathare,Huruma,-1.25764595,36.87259835,8da0f0d4494f3e30be4fe67fe82b23190e3ead2f,Gospel harvest international ministries,-1.2760681,36.88539509999999,church
27, Mathare,Huruma,-1.25764595,36.87259835,3eda193119499a0b3d66e27fb6297df5e3b1a77a,Pcea Eastleigh Church,-1.26812,36.85223759999999,church
28, Mathare,Huruma,-1.25764595,36.87259835,02b65b2e39ac6619da3a45a9e8adbe1e7ad80728,Sanctuary of Truth Centre Ministries,-1.2339468,36.8698793,church
29, Mathare,Huruma,-1.25764595,36.87259835,b9953bf6da6e248b85a973b80317d9b463265e2b,Victory Faith Church,-1.2285487,36.869256,church
30, Mathare,Huruma,-1.25764595,36.87259835,ee552328a71a7722403cdc18755baeff75e6d5ec,Deliverance Church Kangundo Road Campus,-1.2750739,36.890047,church
31, Mathare,Huruma,-1.25764595,36.87259835,8c62ae75866bec79a3405d206db3fb5c94323a00,Sanctuary of Truth Centre,-1.2388591,36.89077209999999,church
32, Mathare,Huruma,-1.25764595,36.87259835,4d0a2401f78979f59a8a5319e1cc62a6642e44a2,Seat of Power and Miracles Ministries (Mountain of God's House),-1.2528539,36.8984869,church
33, Mathare,Huruma,-1.25764595,36.87259835,80df7746eb5166d3189d515901a194a3c40f23e0,Seventh - Day Adventist Church,-1.2818924,36.8885225,church
34, Mathare,Huruma,-1.25764595,36.87259835,ab86f614b6ecb988e325c76038215c5a46240030,Ruaraka Baptist Church,-1.2324559,36.88214049999999,church
35, Mathare,Huruma,-1.25764595,36.87259835,211d1894a3f9f22d1020cbe6d7d3e81b294ff3c8,Redeemed Gospel Church- Buruburu,-1.2852181,36.8741388,church
36, Mathare,Huruma,-1.25764595,36.87259835,806039c860ea2aa53339cfdb9f9f5da9adbdf5a6,Methodist Church In Kenya,-1.2551258,36.9006189,church
37, Mathare,Huruma,-1.25764595,36.87259835,86885b6c2b61c3b482c76c6b667d2f05db2701d3,Maximum Miracle Centre Church,-1.2542445,36.90053270000001,church
38, Mathare,Huruma,-1.25764595,36.87259835,c5f3ff95350616dcc18372181cd6223a1732e70f,Harvesters Christian Church,-1.2768882,36.89573,church
39, Mathare,Huruma,-1.25764595,36.87259835,78d6440df5ba0b656f6efba466f7823f8e1b771a,Umoja Kingdom Hall,-1.2769664,36.8936536,church
40, Mathare,Huruma,-1.25764595,36.87259835,5bb023f6e6b0946a9eb89da766c4ae7f6ce35f0a,Kingdom Hall of Jehovah's Witnesses,-1.2543525,36.9009984,church
41, Mathare,Huruma,-1.25764595,36.87259835,4a5af5894a1d2941b9f43b09f85595b1037499c7,Kenya Evangelical Lutheran Church (Head Office),-1.2875236,36.866641,church
42, Mathare,Huruma,-1.25764595,36.87259835,52e769132b82f411a9d4b56370d8a166bdbe4144,"Ctk Nairobi, Lucky Summer",-1.2411541,36.8990314,church
43, Mathare,Huruma,-1.25764595,36.87259835,22ce70c52e2deec858d300e117c1069d498634af,Kingdom Hall of Jehovah's Witnesses,-1.2846741,36.8579048,church
44, Mathare,Huruma,-1.25764595,36.87259835,ec72142aff6e415b1c9da44c3dd2fbc9784bac0b,Friends Church Quakers Dandora,-1.2538265,36.9012294,church
45, Mathare,Huruma,-1.25764595,36.87259835,b62df3b6a9066d65925ca9f3f848a7e002704d0d,Economic Dimension Enterprises Empowerment Limited (EDEEL),-1.229806,36.88065,church
46, Mathare,Huruma,-1.25764595,36.87259835,9411e88cffc84a1664577f6662c1979e0cadc1bb,Overcoming Faith Church (OFC),-1.2290747,36.8790893,church
47, Mathare,Huruma,-1.25764595,36.87259835,9b1dde5a3d81096e1fcc1bec371c5c43ed060c1c,Riverside Christian Church,-1.2289238,36.878425,church
48, Mathare,Huruma,-1.25764595,36.87259835,ea5a1d4bab5a8964889429eda76b0d9825af98b5,Pcea Thome Church,-1.226561,36.869086,church
49, Mathare,Huruma,-1.25764595,36.87259835,913abf3150d0177e54b314c815820ea8fa018824,Buruburu Community Centre Church Of God,-1.2886495,36.8812681,church
50, Mathare,Huruma,-1.25764595,36.87259835,422618dab3bc337458383f3632fdd3b7a37b4954,Corner Stone Christian Church,-1.286729,36.891285,church
51, Mathare,Huruma,-1.25764595,36.87259835,821f7b523c3a27d5bc5ef2b958546a96ff4b0dc4,Seventh Day Adventist Church Starehe,-1.2792862,36.846505,church
52, Mathare,Huruma,-1.25764595,36.87259835,83e0a6e09ac59bd157dde0c7f0a0ca6952e43322,Dandora Baptist Church,-1.2442634,36.9039251,church
53, Mathare,Huruma,-1.25764595,36.87259835,ba1988a22c67803d1f30d3aabcc3beb551299ade,Buruburu Baptist Church & School,-1.2914832,36.8779378,church
54, Mathare,Huruma,-1.25764595,36.87259835,aa071c11de95360ac791e4ee825e9d4c382ae821,Umoja P.A.G. Church,-1.2850802,36.8935031,church
55, Mathare,Huruma,-1.25764595,36.87259835,5cc9a57d10a3e4b3b62485e71b1b13f951e4f5b8,Thika Road Baptist Church,-1.224196,36.88586,church
56, Mathare,Huruma,-1.25764595,36.87259835,ec1ebc083bb01b781c55934dbb36fbf11c5c8074,Jerusalem's Shiners Chapel International,-1.2859093,36.8935785,church
57, Mathare,Huruma,-1.25764595,36.87259835,4ff3f2ad63a848fc10eee42baedeba18dfc81981,Fountain of Wisdom Chapel,-1.2789864,36.9007363,church
58, Mathare,Huruma,-1.25764595,36.87259835,986fc25a6e0670e8aa31e1cd4aae1d99a6596191,Thika Road Baptist Church Ministries,-1.224597,36.8856052,church
59, Mathare,Huruma,-1.25764595,36.87259835,cd8f83838f3370e63ebd2819ffc44ed1d1854ad4,God's Light Christian Church,-1.2875451,36.8923795,church
