,constituency,ward,clat,clon,place_id,place_name,place_lat,place_long,place_type
0, Dagoretti North,Kabiro,-1.2878118,36.751501399999995,cad598a774060e75ac5982176c6168ada6ad9588,Guadalupe Catholic Church,-1.3010668,36.7790977,church
1, Dagoretti North,Kabiro,-1.2878118,36.751501399999995,c9bbb2f4cd41d7f295446040551c7998c24fcf4b,Nairobi Chapel,-1.305269,36.75459299999999,church
2, Dagoretti North,Kabiro,-1.2878118,36.751501399999995,13c141b3d42730e2cb93e9d8126d961c18107a11,Seventh Day Adventist Church Lavington,-1.2904036,36.7642289,church
3, Dagoretti North,Kabiro,-1.2878118,36.751501399999995,836068b359f9bb7f0c6097d5de90a42df9736b00,Prayer Palace Church,-1.2957425,36.74895639999999,church
4, Dagoretti North,Kabiro,-1.2878118,36.751501399999995,61c061cdaade875f8a8f7fae49b3cac4b4669c87,Christ The King Catholic Church,-1.2686127,36.7519383,church
5, Dagoretti North,Kabiro,-1.2878118,36.751501399999995,53d42e1c346c5e866a74f8597a6d31e327c77104,Methodist Church of Kenya,-1.2893578,36.7713046,church
6, Dagoretti North,Kabiro,-1.2878118,36.751501399999995,99f9f212d216ce917227eb72aac3cf286e9cac16,"Calvary Worship Centre, International Pentecostal Holiness Church",-1.2981452,36.7684964,church
7, Dagoretti North,Kabiro,-1.2878118,36.751501399999995,8f88758002b338fa740c7641dc59bfcf64462c6e,True Vine Ministries,-1.2917068,36.7466229,church
8, Dagoretti North,Kabiro,-1.2878118,36.751501399999995,a18e820325128a41b5d595d10498a84180590f58,Harvest Jubilee Church,-1.2677244,36.7490101,church
9, Dagoretti North,Kabiro,-1.2878118,36.751501399999995,874271e77eeb246c6152b66253adf9e5699faf0d,The Church of Christ of Latter Day Saints,-1.2915093,36.7444389,church
10, Dagoretti North,Kabiro,-1.2878118,36.751501399999995,a3c03105f85ec79131961b3c37f17c82f56f7f06,Kingdom Hall of Jehovah’s Witnesses,-1.2662165,36.743235,church
11, Dagoretti North,Kabiro,-1.2878118,36.751501399999995,6dbab6379d1a0f8b69425ed4fa43bf941b188ae6,Kingdom Hall of Jehovah’s Witnesses,-1.2848501,36.751505,church
12, Dagoretti North,Kabiro,-1.2878118,36.751501399999995,74072ddb59f37b8570d38440b3a8af858c95bc27,"Metropolitan Christian Church, Nairobi",-1.2825388,36.7560039,church
13, Dagoretti North,Kabiro,-1.2878118,36.751501399999995,e1616539234ea094fa3d0f13a2fe75c63b3b711b,Bethel Evangelistic & Prophetic Ministries,-1.2948338,36.754165,church
14, Dagoretti North,Kabiro,-1.2878118,36.751501399999995,a615abc1a54ad32cd5966f5f56ea9aa8f144912e,Kawangware Vineyard Church,-1.2844666,36.74300189999999,church
15, Dagoretti North,Kabiro,-1.2878118,36.751501399999995,7de8dc9dbfc9924c8bd6a431068dd022e3572b8f,Solid Rock Church of Jesus Christ,-1.2984586,36.74645170000001,church
16, Dagoretti North,Kabiro,-1.2878118,36.751501399999995,8bd23cfec26cc2e68f899f3b67b61e1e93de2897,New Testament Agape Restoration Centre,-1.28374,36.7403492,church
17, Dagoretti North,Kabiro,-1.2878118,36.751501399999995,ce29558bfd765346ec0d58c3b7cb69d151c4368a,Revival Sanctuary Of Glory,-1.2916588,36.740147,church
18, Dagoretti North,Kabiro,-1.2878118,36.751501399999995,56204e69be8516c37242de2a203ca3f64402394f,Cornerstone Faith Assembly,-1.3003275,36.7536925,church
19, Dagoretti North,Kabiro,-1.2878118,36.751501399999995,339644c05b41e88d2bd75cebfe8016d821158f02,Lavington SDA Church,-1.2905893,36.7642967,church
20, Dagoretti North,Kabiro,-1.2878118,36.751501399999995,50a84a6ed36bc83b8eef8013316fcce9fb45d3a8,Jesus Breakthrough Assembly - JBA,-1.2990334,36.7585652,church
21, Dagoretti North,Kabiro,-1.2878118,36.751501399999995,5a38dd7bf119eda250a8666784592a467f35f62f,Healing & Encouragement Church,-1.2744128,36.753225,church
22, Dagoretti North,Kabiro,-1.2878118,36.751501399999995,5acab311e11f5744225c0b0a02f3f29476bc2d4a,Kingdom Reality Ministries,-1.3009142,36.7440885,church
23, Dagoretti North,Kabiro,-1.2878118,36.751501399999995,62c7a72fb517459e44efe9d175bc3a56c35f263c,African Inland Church Riruta,-1.2841198,36.7349659,church
24, Dagoretti North,Kabiro,-1.2878118,36.751501399999995,2407f1dca186f2cee5f2c40a3b37964999d97ff3,Christ Supremacy Church,-1.2665352,36.7490765,church
25, Dagoretti North,Kabiro,-1.2878118,36.751501399999995,85eb8a7ae26b17e3b392fa413483039009390a96,Cornerstone Sabbath Church,-1.2819851,36.7275242,church
26, Dagoretti North,Kabiro,-1.2878118,36.751501399999995,f0836f5ae9c6be2f8dd5bf616235b29faca37f41,Maryknoll Fathers & Brothers,-1.263384,36.767047,church
27, Dagoretti North,Kabiro,-1.2878118,36.751501399999995,a9e51e1666c9641116cef5dfeef0397aed6d0b07,"Kingdom Hall of Jehovah's Witnesses, Elgeyo",-1.2942699,36.7794542,church
28, Dagoretti North,Kabiro,-1.2878118,36.751501399999995,f7263c5f2428dd7f64c1fa4a1077a049e1d3a0ee,PCEA Mugumoini,-1.3050983,36.7278475,church
29, Dagoretti North,Kabiro,-1.2878118,36.751501399999995,bb29628452c99c516a0327d6c182383c7d483aa3,Waithaka Mission Center,-1.2815813,36.7218527,church
30, Dagoretti North,Kabiro,-1.2878118,36.751501399999995,cc8697fc90e65243ca0084d5b0431c1e77b10b42,Kings Outreach Yaya Church,-1.2935081,36.7821015,church
31, Dagoretti North,Kabiro,-1.2878118,36.751501399999995,1ec83706e1b6a3d639cded111d3c87da74fbc245,Jesuits Of Eastern Africa,-1.297697,36.783745,church
32, Dagoretti North,Kabiro,-1.2878118,36.751501399999995,0fc892fc5776d8acb197d1a96b5abe6959ab6ac1,P C E A Loresho Community Church,-1.252686,36.752004,church
33, Dagoretti North,Kabiro,-1.2878118,36.751501399999995,27eeed27f7f9d367a5a9be7e9a164b1e743bd4e1,Christian Resource & Equipping Ministry - CREM,-1.291444,36.7197278,church
34, Dagoretti North,Kabiro,-1.2878118,36.751501399999995,1b52460245c113db042eef6af0f9494997692c86,Christian Resource & Equipping Ministry - Church HQ,-1.2914429,36.7197133,church
35, Dagoretti North,Kabiro,-1.2878118,36.751501399999995,74adb475bcbba81be593913b79f8235ab73f730a,Musmark Cristian Retreat House,-1.2754722,36.7824134,church
36, Dagoretti North,Kabiro,-1.2878118,36.751501399999995,016e3817bef928eb13a2676ec167b6500e7c2934,Free Pentecostal Fellowship of Kenya guest house,-1.2989281,36.7850203,church
37, Dagoretti North,Kabiro,-1.2878118,36.751501399999995,5aabee57784c02c3ee702ffc715811160a3d7992,Springs Of Life Lutheran Church Kibera,-1.3112301,36.7791903,church
38, Dagoretti North,Kabiro,-1.2878118,36.751501399999995,1eeece7170cd0fc04fe577fe032058d3436ea255,World Harvest Int'l Church,-1.2907109,36.7888302,church
39, Dagoretti North,Kabiro,-1.2878118,36.751501399999995,52061f57ad20f761785605b71cb2648144406d99,German Speaking Evangelical Lutheran Congragation In Kenya,-1.2686361,36.7842968,church
40, Dagoretti North,Kabiro,-1.2878118,36.751501399999995,2bf9dd904ff482aa92d6d45efd7e3bdbc69818f8,CMS-Africa,-1.2950345,36.78892280000001,church
41, Dagoretti North,Kabiro,-1.2878118,36.751501399999995,fa4fea544577ac50ec8e56d16a4952b67b7d2941,Flames of Hope Worship Center,-1.3147686,36.7787692,church
42, Dagoretti North,Kabiro,-1.2878118,36.751501399999995,71e16428ca0e8130f3daf8a1aa624f7dfd597d39,Good Shepherd Africa Gospel Church,-1.299068,36.78947000000001,church
43, Dagoretti North,Kabiro,-1.2878118,36.751501399999995,30b665e1f9eea54e27566d9493ba086ddbbf92cf,A.I.P.C.A Kiranga Church,-1.2757307,36.7891553,church
44, Dagoretti North,Kabiro,-1.2878118,36.751501399999995,dbb1de7529bca9c8b35213c9765a1991e6b40eeb,Church on the Rock,-1.317503,36.7777526,church
45, Dagoretti North,Kabiro,-1.2878118,36.751501399999995,24891e0ead40775421f77db6fa7e17601e158e1f,"Friends International Centre (FIC), Ngong Road",-1.3004715,36.789186,church
46, Dagoretti North,Kabiro,-1.2878118,36.751501399999995,226f78e2585e98f542db91f6e93c94a22763db96,Green Pastures Tabernacle,-1.2951765,36.7103663,church
47, Dagoretti North,Kabiro,-1.2878118,36.751501399999995,bb552d62f779e8cad48e7ad7b95b41cc87232754,Dimkes Sacco Society,-1.2987297,36.7908552,church
48, Dagoretti North,Kabiro,-1.2878118,36.751501399999995,bbc5275d5f8fe91bade00775d5ab49ffec4122cb,St. Francis Karen,-1.3158333,36.7202778,church
49, Dagoretti North,Kabiro,-1.2878118,36.751501399999995,ee5651687db2e7d12e113968134c8e988c088d4b,Nairobi Baptist Church - Kibera,-1.3087244,36.7898682,church
50, Dagoretti North,Kabiro,-1.2878118,36.751501399999995,5660ac56fded7c495497d50b21d2a8b6e1faf437,Eucharistic Apostles of Divine Mercy,-1.287702,36.7962351,church
51, Dagoretti North,Kabiro,-1.2878118,36.751501399999995,996408e9f7173d7a2f670991b8fe2c1c599aea28,Vincentian Prayer House,-1.2855556,36.76,church
52, Dagoretti North,Kabiro,-1.2878118,36.751501399999995,d6b1ab292bf9eb685da29c89e8eab2597a99badf,Evangelical Lutheran Church,-1.2830079,36.7489564,church
53, Dagoretti North,Kabiro,-1.2878118,36.751501399999995,79bf531e309c75cb4e9e501283bd968fdd529d00,Gatina United Church,-1.2751025,36.7571118,church
54, Dagoretti North,Kabiro,-1.2878118,36.751501399999995,9a45ff2c68bdfeb0f2bec72dec4c7f18c43c4e6e,St. Joseph Holy Rosary Church,-1.288323,36.7525398,church
55, Dagoretti North,Kabiro,-1.2878118,36.751501399999995,ea74017dff76904f0e82f594453a3fbd5755913a,Bernard P. A. G Assembly,-1.2883773,36.752625,church
56, Dagoretti North,Kabiro,-1.2878118,36.751501399999995,2c66436a15ec41756a0eb07e3ba2f9eabb3fcfce,Christ's Restoration Centre,-1.2885506,36.75025219999999,church
57, Dagoretti North,Kabiro,-1.2878118,36.751501399999995,1145923c1de25ad2efda943722784af926cf61a7,Seventh Day Adventist Church,-1.2893812,36.7516755,church
58, Dagoretti North,Kabiro,-1.2878118,36.751501399999995,c5abaea75d03a81614c3508b19a4196d6c985184,Benard PAG Assemblies,-1.2885413,36.75295699999999,church
59, Dagoretti North,Kabiro,-1.2878118,36.751501399999995,98b0b5052b4a34d56e3cc8a90f4de8a88aca507c,Huduma Church,-1.2877458,36.7534018,church
