,constituency,ward,clat,clon,place_id,place_name,place_lat,place_long,place_type
0, Embakasi Central,Kayole North,-1.2659842,36.916945500000004,1142dab3a3edae6bb005971f050cd6f2ab47eb00,Divine Word Parish - Kayole,-1.2699073,36.9145501,church
1, Embakasi Central,Kayole North,-1.2659842,36.916945500000004,df0668bd4a3175890e7560916d4abbd71f679776,Deliverance Church Umoja,-1.280882,36.890956,church
2, Embakasi Central,Kayole North,-1.2659842,36.916945500000004,4c2bae5f2d18f36e43964c61a94a08bd080a6675,ACK Saint Luke's Church Umoja,-1.2795242,36.887948,church
3, Embakasi Central,Kayole North,-1.2659842,36.916945500000004,28229315455402694a8d1d3c043a373bc05cd371,Njiru Catholic Church,-1.2528244,36.93609949999999,church
4, Embakasi Central,Kayole North,-1.2659842,36.916945500000004,13f587b7a2a65264065b56fde59ff36dd9878b32,Abba Faith Church,-1.2710183,36.9192679,church
5, Embakasi Central,Kayole North,-1.2659842,36.916945500000004,c5f6a69b0a1bd2773ff410ffc1f2f1240875f89f,Mwangaza SDA Church,-1.273841,36.91096150000001,church
6, Embakasi Central,Kayole North,-1.2659842,36.916945500000004,c5f3ff95350616dcc18372181cd6223a1732e70f,Harvesters Christian Church,-1.2768882,36.89573,church
7, Embakasi Central,Kayole North,-1.2659842,36.916945500000004,0f024fdd0867f48b60b7bd5b4317551629974c7f,Gospel Celebration Church,-1.2635492,36.9181414,church
8, Embakasi Central,Kayole North,-1.2659842,36.916945500000004,d73d7d9b39610b715b74feb9db32daabc6c58ee8,AIC Upendo Fellowship,-1.2616232,36.9182376,church
9, Embakasi Central,Kayole North,-1.2659842,36.916945500000004,1c7f8d84d633ad0fc491f2ed5508147d61e78568,Mountain of Fire and Miracles Ministries,-1.2660123,36.92309609999999,church
10, Embakasi Central,Kayole North,-1.2659842,36.916945500000004,1bf194f211114605246f9f5fb44eb56e5b8c8d00,Redeemed Gospel Church Komarock,-1.270181,36.9122157,church
11, Embakasi Central,Kayole North,-1.2659842,36.916945500000004,afb04adec2a30c8f260c079ba31168de870347f4,Universal Church Of The Kingdom Of God,-1.2707348,36.9123475,church
12, Embakasi Central,Kayole North,-1.2659842,36.916945500000004,578ff090cd0547344cde1e3a31964fb642ecec5a,A. C. K - Diocese Of Nairobi,-1.2708709,36.911848,church
13, Embakasi Central,Kayole North,-1.2659842,36.916945500000004,c07f56bd25c519f070188923b6cb00698c9cf501,Saints Transformation Church,-1.2746133,36.9184598,church
14, Embakasi Central,Kayole North,-1.2659842,36.916945500000004,d6832fd19366b110f1e3bf172812fc1a6d8775da,HPRM,-1.2758231,36.9191203,church
15, Embakasi Central,Kayole North,-1.2659842,36.916945500000004,17a81fcbfd4de2cc34d5ed645e559616c7269182,The Good News Mission,-1.2550813,36.9161929,church
16, Embakasi Central,Kayole North,-1.2659842,36.916945500000004,ed476aa86170011c118ffbbbe9979dda3d018248,Free Pentecostal Fellowship in Kenya Kayole,-1.2770478,36.9125986,church
17, Embakasi Central,Kayole North,-1.2659842,36.916945500000004,17c1fd09721dcfadde3abaaee115bf4e4002d8b2,Deliverance Church Kayole,-1.2777803,36.9113461,church
18, Embakasi Central,Kayole North,-1.2659842,36.916945500000004,07f8862285bace2e86a434098c68f3873f204e8b,Jesus Power Celebration Church,-1.2765517,36.909145,church
19, Embakasi Central,Kayole North,-1.2659842,36.916945500000004,2b1ea3bcad932c65881523ce4e428902693ddbf0,The Good News Fellowship International,-1.2527606,36.9147438,church
20, Embakasi Central,Kayole North,-1.2659842,36.916945500000004,3746ae829d89e699dbe70367397879a6eeb1a27d,African Brotherhood Church - Kayole,-1.2786698,36.9120344,church
21, Embakasi Central,Kayole North,-1.2659842,36.916945500000004,806039c860ea2aa53339cfdb9f9f5da9adbdf5a6,Methodist Church In Kenya,-1.2551258,36.9006189,church
22, Embakasi Central,Kayole North,-1.2659842,36.916945500000004,5bb023f6e6b0946a9eb89da766c4ae7f6ce35f0a,Kingdom Hall of Jehovah's Witnesses,-1.2543525,36.9009984,church
23, Embakasi Central,Kayole North,-1.2659842,36.916945500000004,ec72142aff6e415b1c9da44c3dd2fbc9784bac0b,Friends Church Quakers Dandora,-1.2538265,36.9012294,church
24, Embakasi Central,Kayole North,-1.2659842,36.916945500000004,86885b6c2b61c3b482c76c6b667d2f05db2701d3,Maximum Miracle Centre Church,-1.2542445,36.90053270000001,church
25, Embakasi Central,Kayole North,-1.2659842,36.916945500000004,2578dfeb0f5490ebf14ef852bbb14169c1c51049,Jesus Miracle Anointing Ministry,-1.2863452,36.9128909,church
26, Embakasi Central,Kayole North,-1.2659842,36.916945500000004,4ff3f2ad63a848fc10eee42baedeba18dfc81981,Fountain of Wisdom Chapel,-1.2789864,36.9007363,church
27, Embakasi Central,Kayole North,-1.2659842,36.916945500000004,74d80d66544c679dd29b2019d97289c8ed552c60,Glory Mission Centre,-1.2456833,36.9116271,church
28, Embakasi Central,Kayole North,-1.2659842,36.916945500000004,4d0a2401f78979f59a8a5319e1cc62a6642e44a2,Seat of Power and Miracles Ministries (Mountain of God's House),-1.2528539,36.8984869,church
29, Embakasi Central,Kayole North,-1.2659842,36.916945500000004,a6599a921bc74a30ce7a671642a30712c81f9d0a,Kingdom Hall Of Jehova Witnesses,-1.2514403,36.9352654,church
30, Embakasi Central,Kayole North,-1.2659842,36.916945500000004,804b91cecd3b6c179254c718fac2480cf621284b,Gloryland Church Dandora,-1.2429106,36.91101549999999,church
31, Embakasi Central,Kayole North,-1.2659842,36.916945500000004,672979c9787063df133b3acfba107507e6740c27,All Nations Fellowship Church,-1.2893739,36.90767889999999,church
32, Embakasi Central,Kayole North,-1.2659842,36.916945500000004,83e0a6e09ac59bd157dde0c7f0a0ca6952e43322,Dandora Baptist Church,-1.2442634,36.9039251,church
33, Embakasi Central,Kayole North,-1.2659842,36.916945500000004,e538681d4b8d59b70a60a105253c8b721cb8e49a,Redeemed Evangelistic Fellowship,-1.2569482,36.8930239,church
34, Embakasi Central,Kayole North,-1.2659842,36.916945500000004,78d6440df5ba0b656f6efba466f7823f8e1b771a,Umoja Kingdom Hall,-1.2769664,36.8936536,church
35, Embakasi Central,Kayole North,-1.2659842,36.916945500000004,e89b6a0384d9cc7297de7a7a845bf4a8790f13c3,Gethsemane Ministry,-1.2858409,36.8998146,church
36, Embakasi Central,Kayole North,-1.2659842,36.916945500000004,f913cb8cacc6f85772facbfaee86eef199973dca,Gilead Healing Ministries,-1.2416717,36.9056645,church
37, Embakasi Central,Kayole North,-1.2659842,36.916945500000004,6979369aa4f4e12b2abbe4ff532775f48a2a17b8,Unfailing Love Ministries,-1.286333,36.895201,church
38, Embakasi Central,Kayole North,-1.2659842,36.916945500000004,52e769132b82f411a9d4b56370d8a166bdbe4144,"Ctk Nairobi, Lucky Summer",-1.2411541,36.8990314,church
39, Embakasi Central,Kayole North,-1.2659842,36.916945500000004,ee552328a71a7722403cdc18755baeff75e6d5ec,Deliverance Church Kangundo Road Campus,-1.2750739,36.890047,church
