,constituency,ward,clat,clon,place_id,place_name,place_lat,place_long,place_type
0, Makadara,Makongeni,-1.2873101,36.87210716,0a35194c9313c05ebfcfb3401c76bb08160ed578,FGCK Imara Daima Worship Centre,-1.324383,36.8874587,church
1, Makadara,Makongeni,-1.2873101,36.87210716,a4bebbc4b36833fe3253d79b64446b57f7213ba6,Rescue Data Centre Archdiocese Of Nairobi,-1.2716931,36.8335587,church
2, Makadara,Makongeni,-1.2873101,36.87210716,df0668bd4a3175890e7560916d4abbd71f679776,Deliverance Church Umoja,-1.280882,36.890956,church
3, Makadara,Makongeni,-1.2873101,36.87210716,4c2bae5f2d18f36e43964c61a94a08bd080a6675,ACK Saint Luke's Church Umoja,-1.2795242,36.887948,church
4, Makadara,Makongeni,-1.2873101,36.87210716,aa376f3bf8eff8c851cf789bed4f85ab30594e54,Trinity Baptist Church Nairobi,-1.2952826,36.8931034,church
5, Makadara,Makongeni,-1.2873101,36.87210716,2c2f8bbeb77ee4918ff10df85e90707291300830,Holy Trinity Catholic Church Buru Buru,-1.2764328,36.8750793,church
6, Makadara,Makongeni,-1.2873101,36.87210716,4622afba487daa07a992979202b2a93ef9be6e86,ACK St. James Church,-1.281899,36.87901310000001,church
7, Makadara,Makongeni,-1.2873101,36.87210716,872d8ad55012c36651c0b58e73efcb916caa4860,Buruburu Tabernacle of Praise (Worldwide Gospel Church Buruburu),-1.2783957,36.8724293,church
8, Makadara,Makongeni,-1.2873101,36.87210716,ee6013eb76af714ce5f310d0a04ab0f9c132e370,World Dominion Ministries International,-1.2959997,36.8772412,church
9, Makadara,Makongeni,-1.2873101,36.87210716,422618dab3bc337458383f3632fdd3b7a37b4954,Corner Stone Christian Church,-1.286729,36.891285,church
10, Makadara,Makongeni,-1.2873101,36.87210716,22ce70c52e2deec858d300e117c1069d498634af,Kingdom Hall of Jehovah's Witnesses,-1.2846741,36.8579048,church
11, Makadara,Makongeni,-1.2873101,36.87210716,4a5af5894a1d2941b9f43b09f85595b1037499c7,Kenya Evangelical Lutheran Church (Head Office),-1.2875236,36.866641,church
12, Makadara,Makongeni,-1.2873101,36.87210716,a61e062cb650a65b366ffd9b0d7a0e5193fba24a,AIC Zion Church,-1.2630733,36.8622131,church
13, Makadara,Makongeni,-1.2873101,36.87210716,80df7746eb5166d3189d515901a194a3c40f23e0,Seventh - Day Adventist Church,-1.2818924,36.8885225,church
14, Makadara,Makongeni,-1.2873101,36.87210716,d8676aa3ea05bae3cdb9caa38231e9eb5af1a585,PCEA Kariobangi South Church,-1.2660481,36.8834987,church
15, Makadara,Makongeni,-1.2873101,36.87210716,81e90e81aa1b4a7979e316ea4e1c32a3f056aa6b,PCEA Tena Parish,-1.2919401,36.8901747,church
16, Makadara,Makongeni,-1.2873101,36.87210716,2cdba2c2ad62188713771ae965375d339bc16110,Deliverance Church Donholm,-1.2992105,36.8917656,church
17, Makadara,Makongeni,-1.2873101,36.87210716,6979369aa4f4e12b2abbe4ff532775f48a2a17b8,Unfailing Love Ministries,-1.286333,36.895201,church
18, Makadara,Makongeni,-1.2873101,36.87210716,913abf3150d0177e54b314c815820ea8fa018824,Buruburu Community Centre Church Of God,-1.2886495,36.8812681,church
19, Makadara,Makongeni,-1.2873101,36.87210716,ba1988a22c67803d1f30d3aabcc3beb551299ade,Buruburu Baptist Church & School,-1.2914832,36.8779378,church
20, Makadara,Makongeni,-1.2873101,36.87210716,cd8f83838f3370e63ebd2819ffc44ed1d1854ad4,God's Light Christian Church,-1.2875451,36.8923795,church
21, Makadara,Makongeni,-1.2873101,36.87210716,211d1894a3f9f22d1020cbe6d7d3e81b294ff3c8,Redeemed Gospel Church- Buruburu,-1.2852181,36.8741388,church
22, Makadara,Makongeni,-1.2873101,36.87210716,e9355b0aff82c97e8b5110d2f870ff9c14ed85c0,PCEA Makadara Parish,-1.294403,36.87285999999999,church
23, Makadara,Makongeni,-1.2873101,36.87210716,d55019548a260de603f5f61551d37772693af565,Redeemed Gospel Church Huruma.,-1.2611211,36.8660318,church
24, Makadara,Makongeni,-1.2873101,36.87210716,71b9e092c505e5557287c2c7e57943aac7a0b455,Nairobi Calvary Temple,-1.2770842,36.87312259999999,church
25, Makadara,Makongeni,-1.2873101,36.87210716,47ff9226de3a8af017847524c56efea8d65a23e1,Lightstand Church,-1.2952423,36.8798677,church
26, Makadara,Makongeni,-1.2873101,36.87210716,1e64bf869bd9d098710251970327b817cbab49c3,East assembly (KAG) buruburu,-1.277592,36.877853,church
27, Makadara,Makongeni,-1.2873101,36.87210716,9ff77690f6be8c6bc4c20047c72a30fca7ee5a38,Citam Buruburu,-1.295354,36.88120579999999,church
28, Makadara,Makongeni,-1.2873101,36.87210716,39ff67abbcc156bea4c152685633047306f4f51b,Marianists. The,-1.2917191,36.86040819999999,church
29, Makadara,Makongeni,-1.2873101,36.87210716,75a08e04665b58f7020b3bc8c60384f9e5fdc3d9,Buru Buru 1 FGCK Royalfamily,-1.2775923,36.8808133,church
30, Makadara,Makongeni,-1.2873101,36.87210716,30e6cf8faea047f03be3c6ea55c84bae33af43a0,Nairobi East SDA Church,-1.3010511,36.8810541,church
31, Makadara,Makongeni,-1.2873101,36.87210716,d44b927d77e07f92239403037157a81df4709bdb,Maximum Restoration Centre,-1.2966931,36.8582565,church
32, Makadara,Makongeni,-1.2873101,36.87210716,22b4f4109b75ebe64937d528affc9791e6ab11ff,Redemption Powerhouse,-1.2943165,36.8878841,church
33, Makadara,Makongeni,-1.2873101,36.87210716,8da0f0d4494f3e30be4fe67fe82b23190e3ead2f,Gospel harvest international ministries,-1.2760681,36.88539509999999,church
34, Makadara,Makongeni,-1.2873101,36.87210716,c5f3ff95350616dcc18372181cd6223a1732e70f,Harvesters Christian Church,-1.2768882,36.89573,church
35, Makadara,Makongeni,-1.2873101,36.87210716,2aacab793ed5ebb4b8da3e359bfe82c3aa6eb1bc,Jesus Solution Temple - KCC,-1.2733681,36.8869068,church
36, Makadara,Makongeni,-1.2873101,36.87210716,aa071c11de95360ac791e4ee825e9d4c382ae821,Umoja P.A.G. Church,-1.2850802,36.8935031,church
37, Makadara,Makongeni,-1.2873101,36.87210716,ec1ebc083bb01b781c55934dbb36fbf11c5c8074,Jerusalem's Shiners Chapel International,-1.2859093,36.8935785,church
38, Makadara,Makongeni,-1.2873101,36.87210716,66b351a2dfbffe0f76b7f0b55d8ecef477ff29e6,Rhema Fellowship International,-1.2939345,36.8515414,church
39, Makadara,Makongeni,-1.2873101,36.87210716,ee552328a71a7722403cdc18755baeff75e6d5ec,Deliverance Church Kangundo Road Campus,-1.2750739,36.890047,church
