,constituency,ward,clat,clon,place_id,place_name,place_lat,place_long,place_type
0, Embakasi Central,Spring Valley,-1.2477029,36.789235600000005,9a44def8a737ada398d836000cdd78fbc03e9aae,Christ Embassy,-1.2640279,36.8094188,church
1, Embakasi Central,Spring Valley,-1.2477029,36.789235600000005,a33de4227908c6c45dd1c9b8329d8dc854c12fe7,Kingdom Hall of Jehovahs Witnesses,-1.2492474,36.7898782,church
2, Embakasi Central,Spring Valley,-1.2477029,36.789235600000005,52061f57ad20f761785605b71cb2648144406d99,German Speaking Evangelical Lutheran Congragation In Kenya,-1.2686361,36.7842968,church
3, Embakasi Central,Spring Valley,-1.2477029,36.789235600000005,d4025b71afa007220d77f40ef1de9b45189ce5b7,CITAM PARKLANDS,-1.2604978,36.815661,church
4, Embakasi Central,Spring Valley,-1.2477029,36.789235600000005,a6134bd831a0effbd169718d6c4da0b67cd5fe03,ACK Diocese of Nairobi Bishop's Office,-1.2591759,36.7948268,church
5, Embakasi Central,Spring Valley,-1.2477029,36.789235600000005,47849e48e7521aadeea0c9e9221681c90aa70b11,Chemchemi ya ukweli,-1.2651756,36.803239,church
6, Embakasi Central,Spring Valley,-1.2477029,36.789235600000005,5a7174b59655173e0f2e1284b948b7b905d17cd3,Kenya Students Christian Fellowship,-1.2629331,36.7961478,church
7, Embakasi Central,Spring Valley,-1.2477029,36.789235600000005,e687b4d75ab464613ca940644634370a32efa000,Kingdom Hall of Jehovah’s Witnesses,-1.2492338,36.78991339999999,church
8, Embakasi Central,Spring Valley,-1.2477029,36.789235600000005,fe8f94b1b915b95386305ab29c26ee705d6020a3,"Nairobi Chapel, Waiyaki Way",-1.2595574,36.78883520000001,church
9, Embakasi Central,Spring Valley,-1.2477029,36.789235600000005,f0836f5ae9c6be2f8dd5bf616235b29faca37f41,Maryknoll Fathers & Brothers,-1.263384,36.767047,church
10, Embakasi Central,Spring Valley,-1.2477029,36.789235600000005,30b665e1f9eea54e27566d9493ba086ddbbf92cf,A.I.P.C.A Kiranga Church,-1.2757307,36.7891553,church
11, Embakasi Central,Spring Valley,-1.2477029,36.789235600000005,74adb475bcbba81be593913b79f8235ab73f730a,Musmark Cristian Retreat House,-1.2754722,36.7824134,church
12, Embakasi Central,Spring Valley,-1.2477029,36.789235600000005,3c309ea6aedef347a9d4e47f528f7ec3c73404d8,Gachie Worship Centre,-1.2199843,36.7767667,church
13, Embakasi Central,Spring Valley,-1.2477029,36.789235600000005,0fc892fc5776d8acb197d1a96b5abe6959ab6ac1,P C E A Loresho Community Church,-1.252686,36.752004,church
14, Embakasi Central,Spring Valley,-1.2477029,36.789235600000005,41fd93a35cc9d34cba4fa920dec86142d0754388,Nairobi Chapel CBD,-1.2798051,36.813291,church
15, Embakasi Central,Spring Valley,-1.2477029,36.789235600000005,8c3506d82cfeed6faaa9d6ee332bc3659f34c72e,Kihara A.I.P.C.A Church,-1.2177438,36.7619651,church
16, Embakasi Central,Spring Valley,-1.2477029,36.789235600000005,5660ac56fded7c495497d50b21d2a8b6e1faf437,Eucharistic Apostles of Divine Mercy,-1.287702,36.7962351,church
17, Embakasi Central,Spring Valley,-1.2477029,36.789235600000005,551971fb6a309dd8c72699cd620c5a8d800c26b1,Mamlaka Hill Chapel Ruaka,-1.2064918,36.7950529,church
18, Embakasi Central,Spring Valley,-1.2477029,36.789235600000005,80fd987f643bf8f4219eaf3ee605bef26d57f663,St. Paul's Catholic Chapel,-1.2815892,36.814399,church
19, Embakasi Central,Spring Valley,-1.2477029,36.789235600000005,61c061cdaade875f8a8f7fae49b3cac4b4669c87,Christ The King Catholic Church,-1.2686127,36.7519383,church
20, Embakasi Central,Spring Valley,-1.2477029,36.789235600000005,07caa1d876113ba7775c248722cbda9ced1f3eff,Lutheran Church of Kenya,-1.2823154,36.8146885,church
21, Embakasi Central,Spring Valley,-1.2477029,36.789235600000005,1eeece7170cd0fc04fe577fe032058d3436ea255,World Harvest Int'l Church,-1.2907109,36.7888302,church
22, Embakasi Central,Spring Valley,-1.2477029,36.789235600000005,11994c77bdad0420deb26a9f76196da3aa44c110,Main Campus Christian Union - Universty of Nairobi,-1.2806191,36.8170712,church
23, Embakasi Central,Spring Valley,-1.2477029,36.789235600000005,be9b834e2db2f3cbc6610f19b22554e90a9c0163,Parklands Baptist Church,-1.265992,36.7998837,church
24, Embakasi Central,Spring Valley,-1.2477029,36.789235600000005,053dd729fb13a0c690802a3cce662c2f6ca8de08,Fountain Gate Church,-1.2754138,36.8235909,church
25, Embakasi Central,Spring Valley,-1.2477029,36.789235600000005,e10ece041c7dc4ce8c78006e2b72733cb20c35a7,Full Gospel Church,-1.2046311,36.7796442,church
26, Embakasi Central,Spring Valley,-1.2477029,36.789235600000005,2407f1dca186f2cee5f2c40a3b37964999d97ff3,Christ Supremacy Church,-1.2665352,36.7490765,church
27, Embakasi Central,Spring Valley,-1.2477029,36.789235600000005,5a38dd7bf119eda250a8666784592a467f35f62f,Healing & Encouragement Church,-1.2744128,36.753225,church
28, Embakasi Central,Spring Valley,-1.2477029,36.789235600000005,a18e820325128a41b5d595d10498a84180590f58,Harvest Jubilee Church,-1.2677244,36.7490101,church
29, Embakasi Central,Spring Valley,-1.2477029,36.789235600000005,892b1282e9b486dd7a1098961ab4887dadab77bf,St Austins Parish Church.,-1.264366,36.778169,church
30, Embakasi Central,Spring Valley,-1.2477029,36.789235600000005,6261527cb0192d238b8eed07c9e25d4dce43abe3,Lower Kabete K.A.G Church,-1.2547315,36.79495860000001,church
31, Embakasi Central,Spring Valley,-1.2477029,36.789235600000005,952927e3f6367b39b9854b37f532e21fab3f6822,United Bible Societies Africa Area Service Centre,-1.257998,36.791882,church
32, Embakasi Central,Spring Valley,-1.2477029,36.789235600000005,f59babfbab95b80972cc1d0d2a56825948a8e780,Gloryland SDA Church,-1.2585666,36.7909367,church
33, Embakasi Central,Spring Valley,-1.2477029,36.789235600000005,beca47f24c11a54cd4ccca71baa8b2536040fc1e,Interchristian Fellowships Evangelical Mission (Icfem-Mission),-1.260571,36.78691999999999,church
34, Embakasi Central,Spring Valley,-1.2477029,36.789235600000005,1f2cb6998f8bd79796e8f2f45eb0173a096b7405,Norwegian Church Aid,-1.260646,36.792971,church
35, Embakasi Central,Spring Valley,-1.2477029,36.789235600000005,3ead5ae1c77df18ccdf071560e48ac08cdb79ecf,Eagles Faith Christian Centre,-1.255088,36.80105199999999,church
36, Embakasi Central,Spring Valley,-1.2477029,36.789235600000005,ddb444fccc314fcf484d6974e87af4112bfc8283,"ACK Christ Church, Westlands",-1.2621323,36.7882935,church
37, Embakasi Central,Spring Valley,-1.2477029,36.789235600000005,bc7e2cba9b52195c9a99f388d5371ecd07dc2f48,St Marks Church Westlands,-1.260219,36.79660199999999,church
38, Embakasi Central,Spring Valley,-1.2477029,36.789235600000005,f0c67bbb38e2138b0a9d5e24dacad9319890eab7,ACK ST MARKS CHURCH WESTLANDS,-1.2605439,36.7970471,church
39, Embakasi Central,Spring Valley,-1.2477029,36.789235600000005,6e17a05e7da5c64dc104d47789e3e42ef2d6092e,Baptist Mission Hampton House,-1.2622352,36.78409490000001,church
40, Embakasi Central,Spring Valley,-1.2477029,36.789235600000005,ba547de1626a124059b768565e33e25fec206e27,Kandisi Pcea Church,-1.2633142,36.78827700000001,church
41, Embakasi Central,Spring Valley,-1.2477029,36.789235600000005,ef19d80d52c365e44100f6c46d49c7b1a7a4c087,Kivulini Residence,-1.26345,36.78817000000001,church
42, Embakasi Central,Spring Valley,-1.2477029,36.789235600000005,9c6f6169cfa8c8316afe51d5bdc719d2a0d6ccdd,Mennonite Board In Eastern Africa,-1.26354,36.787934,church
43, Embakasi Central,Spring Valley,-1.2477029,36.789235600000005,2aaa207f8b9e92dced152f1e1d42bdc053a71e6b,Little Daughters of St Joseph,-1.2569741,36.80267480000001,church
44, Embakasi Central,Spring Valley,-1.2477029,36.789235600000005,6a34cacb6b977dda800e4e4d15116c238de3f06b,Worship Tabernacle Church (WTC),-1.2629365,36.7961181,church
45, Embakasi Central,Spring Valley,-1.2477029,36.789235600000005,a19850a0f02ec2c76af549417d1cbab506d6c2e6,St. Jude Catholic Church Rhapta Rd.,-1.2646561,36.7909471,church
46, Embakasi Central,Spring Valley,-1.2477029,36.789235600000005,2d6f16b2829ecd79d832c5d1750975e716f4d192,St Austin Catholic Church,-1.260065,36.777393,church
47, Embakasi Central,Spring Valley,-1.2477029,36.789235600000005,a250dda8bde8282e27090fceee0031b3f469195c,Saint Jude’s Catholic Chapel,-1.2651347,36.7911593,church
48, Embakasi Central,Spring Valley,-1.2477029,36.789235600000005,61c4e08ab43d327ebba17c5175c131e6d041dce2,C3 Church Nairobi,-1.2559467,36.77282539999999,church
49, Embakasi Central,Spring Valley,-1.2477029,36.789235600000005,c42f14eacea2bc6e57fbe13000ed33f20464b927,Religious Superior Conference of Kenya,-1.2639716,36.7989066,church
50, Embakasi Central,Spring Valley,-1.2477029,36.789235600000005,7406055110237adf069822d8f6f9075974ca6ea3,Living faith international,-1.2655152,36.7956936,church
51, Embakasi Central,Spring Valley,-1.2477029,36.789235600000005,008770301d406affdd281061c464ca511ca85913,Living Faith International,-1.2655953,36.7957148,church
52, Embakasi Central,Spring Valley,-1.2477029,36.789235600000005,1ee4a30b25a94ee0b027a4846c6a4ad8741dc208,Global Impact Ministries,-1.2602338,36.8036473,church
53, Embakasi Central,Spring Valley,-1.2477029,36.789235600000005,fb5b84cf112e8d1ce8a44a418795e9f5b7e04cfb,Living Faith International,-1.265792,36.796372,church
54, Embakasi Central,Spring Valley,-1.2477029,36.789235600000005,715702f843d7f76876cb929b83ad7cb29a073044,Hosim church,-1.25708,36.77184140000001,church
55, Embakasi Central,Spring Valley,-1.2477029,36.789235600000005,25e59847fdf6c32a4c4b24db3008262ac5cbeee9,Parklands Baptist Church,-1.26561,36.79817759999999,church
56, Embakasi Central,Spring Valley,-1.2477029,36.789235600000005,318f9321505a63d2f27f5538981a91952fb7c7dd,St Austin's Catholic Church Parish Office.,-1.2647037,36.7785895,church
57, Embakasi Central,Spring Valley,-1.2477029,36.789235600000005,631caaf95bb2a4213313de638a88a70ab78eb89d,St. Catherine of Siena Catholic Church,-1.2333586,36.775218,church
58, Embakasi Central,Spring Valley,-1.2477029,36.789235600000005,26a61fab78983173681ce11c8f13f39123894932,Sozo Church of God,-1.2662251,36.7978094,church
59, Embakasi Central,Spring Valley,-1.2477029,36.789235600000005,6cac256ab03cab33aa0d03fb8fd712d54da56bb3,ACK St Bartholomew,-1.227341,36.78721780000001,church
