,constituency,ward,clat,clon,place_id,place_name,place_lat,place_long,place_type
0, Mathare,Kiamaiko,-1.25377765,36.87573249,df0668bd4a3175890e7560916d4abbd71f679776,Deliverance Church Umoja,-1.280882,36.890956,church
1, Mathare,Kiamaiko,-1.25377765,36.87573249,4c2bae5f2d18f36e43964c61a94a08bd080a6675,ACK Saint Luke's Church Umoja,-1.2795242,36.887948,church
2, Mathare,Kiamaiko,-1.25377765,36.87573249,2e269e63ea10394c5896168f6c9ea6ba7f9579c6,Nairobi Gospel Assembly Church,-1.235547,36.867949,church
3, Mathare,Kiamaiko,-1.25377765,36.87573249,2c2f8bbeb77ee4918ff10df85e90707291300830,Holy Trinity Catholic Church Buru Buru,-1.2764328,36.8750793,church
4, Mathare,Kiamaiko,-1.25377765,36.87573249,a61e062cb650a65b366ffd9b0d7a0e5193fba24a,AIC Zion Church,-1.2630733,36.8622131,church
5, Mathare,Kiamaiko,-1.25377765,36.87573249,d8676aa3ea05bae3cdb9caa38231e9eb5af1a585,PCEA Kariobangi South Church,-1.2660481,36.8834987,church
6, Mathare,Kiamaiko,-1.25377765,36.87573249,d55019548a260de603f5f61551d37772693af565,Redeemed Gospel Church Huruma.,-1.2611211,36.8660318,church
7, Mathare,Kiamaiko,-1.25377765,36.87573249,42be74e689a7a89e1104383850b369a10f60f1b1,Narrow Gate Apostolic Ministries,-1.2443533,36.8832493,church
8, Mathare,Kiamaiko,-1.25377765,36.87573249,872d8ad55012c36651c0b58e73efcb916caa4860,Buruburu Tabernacle of Praise (Worldwide Gospel Church Buruburu),-1.2783957,36.8724293,church
9, Mathare,Kiamaiko,-1.25377765,36.87573249,6994cbbe0bc382c4f9c861ea352aba38cc8e0e8c,Nairobi Gospel Assembly Complex (HOT),-1.2358232,36.8679392,church
10, Mathare,Kiamaiko,-1.25377765,36.87573249,4622afba487daa07a992979202b2a93ef9be6e86,ACK St. James Church,-1.281899,36.87901310000001,church
11, Mathare,Kiamaiko,-1.25377765,36.87573249,b9953bf6da6e248b85a973b80317d9b463265e2b,Victory Faith Church,-1.2285487,36.869256,church
12, Mathare,Kiamaiko,-1.25377765,36.87573249,48a8dcd9a3d00ae56e009559bb9969c40377cd53,Baba Dogo Catholic Church,-1.2436534,36.8843651,church
13, Mathare,Kiamaiko,-1.25377765,36.87573249,52e769132b82f411a9d4b56370d8a166bdbe4144,"Ctk Nairobi, Lucky Summer",-1.2411541,36.8990314,church
14, Mathare,Kiamaiko,-1.25377765,36.87573249,7ba91c9625fb2ac8631d6ea393091b946e04a9e4,Kariobangi North Catholic Church,-1.2567927,36.8794443,church
15, Mathare,Kiamaiko,-1.25377765,36.87573249,954b4f9cd5a529385c8069fdf7dabb376eaa1fd7,African Holyghost Christian Church,-1.2587579,36.8743769,church
16, Mathare,Kiamaiko,-1.25377765,36.87573249,6d38e68a443a5af4afbff4c0261c8981f0f4a12f,ACK St. Christopher's Mathare Parish,-1.2559795,36.8675952,church
17, Mathare,Kiamaiko,-1.25377765,36.87573249,5484feb68a28eea3518f753ffaf84d7554e8229f,"The Church Of Jesus Christ Of Latter Day Saints, Lucky Summer Ward",-1.2460551,36.8844574,church
18, Mathare,Kiamaiko,-1.25377765,36.87573249,556f65ea12129bbc337e28e1b980e853e8f13cc4,Jesus Victory Temple,-1.2659576,36.8801322,church
19, Mathare,Kiamaiko,-1.25377765,36.87573249,93724b050dfe463f2b1901fe870d1debf00f0253,Evangelical Mission Of Africa (EMA),-1.2501654,36.8895935,church
20, Mathare,Kiamaiko,-1.25377765,36.87573249,9e8eb3171c84a871da061eac6702c486c52b91aa,"Redeemed Evangelistic Fellowship HQ,",-1.2563783,36.8609878,church
21, Mathare,Kiamaiko,-1.25377765,36.87573249,e538681d4b8d59b70a60a105253c8b721cb8e49a,Redeemed Evangelistic Fellowship,-1.2569482,36.8930239,church
22, Mathare,Kiamaiko,-1.25377765,36.87573249,05c403479dac695df4e2504ff77765950e391032,JCC Thika Road Church,-1.2364026,36.8703662,church
23, Mathare,Kiamaiko,-1.25377765,36.87573249,02b65b2e39ac6619da3a45a9e8adbe1e7ad80728,Sanctuary of Truth Centre Ministries,-1.2339468,36.8698793,church
24, Mathare,Kiamaiko,-1.25377765,36.87573249,8c62ae75866bec79a3405d206db3fb5c94323a00,Sanctuary of Truth Centre,-1.2388591,36.89077209999999,church
25, Mathare,Kiamaiko,-1.25377765,36.87573249,ab86f614b6ecb988e325c76038215c5a46240030,Ruaraka Baptist Church,-1.2324559,36.88214049999999,church
26, Mathare,Kiamaiko,-1.25377765,36.87573249,2aacab793ed5ebb4b8da3e359bfe82c3aa6eb1bc,Jesus Solution Temple - KCC,-1.2733681,36.8869068,church
27, Mathare,Kiamaiko,-1.25377765,36.87573249,4d0a2401f78979f59a8a5319e1cc62a6642e44a2,Seat of Power and Miracles Ministries (Mountain of God's House),-1.2528539,36.8984869,church
28, Mathare,Kiamaiko,-1.25377765,36.87573249,71b9e092c505e5557287c2c7e57943aac7a0b455,Nairobi Calvary Temple,-1.2770842,36.87312259999999,church
29, Mathare,Kiamaiko,-1.25377765,36.87573249,1e64bf869bd9d098710251970327b817cbab49c3,East assembly (KAG) buruburu,-1.277592,36.877853,church
30, Mathare,Kiamaiko,-1.25377765,36.87573249,8da0f0d4494f3e30be4fe67fe82b23190e3ead2f,Gospel harvest international ministries,-1.2760681,36.88539509999999,church
31, Mathare,Kiamaiko,-1.25377765,36.87573249,75a08e04665b58f7020b3bc8c60384f9e5fdc3d9,Buru Buru 1 FGCK Royalfamily,-1.2775923,36.8808133,church
32, Mathare,Kiamaiko,-1.25377765,36.87573249,b62df3b6a9066d65925ca9f3f848a7e002704d0d,Economic Dimension Enterprises Empowerment Limited (EDEEL),-1.229806,36.88065,church
33, Mathare,Kiamaiko,-1.25377765,36.87573249,86885b6c2b61c3b482c76c6b667d2f05db2701d3,Maximum Miracle Centre Church,-1.2542445,36.90053270000001,church
34, Mathare,Kiamaiko,-1.25377765,36.87573249,806039c860ea2aa53339cfdb9f9f5da9adbdf5a6,Methodist Church In Kenya,-1.2551258,36.9006189,church
35, Mathare,Kiamaiko,-1.25377765,36.87573249,9411e88cffc84a1664577f6662c1979e0cadc1bb,Overcoming Faith Church (OFC),-1.2290747,36.8790893,church
36, Mathare,Kiamaiko,-1.25377765,36.87573249,9b1dde5a3d81096e1fcc1bec371c5c43ed060c1c,Riverside Christian Church,-1.2289238,36.878425,church
37, Mathare,Kiamaiko,-1.25377765,36.87573249,5bb023f6e6b0946a9eb89da766c4ae7f6ce35f0a,Kingdom Hall of Jehovah's Witnesses,-1.2543525,36.9009984,church
38, Mathare,Kiamaiko,-1.25377765,36.87573249,ec72142aff6e415b1c9da44c3dd2fbc9784bac0b,Friends Church Quakers Dandora,-1.2538265,36.9012294,church
39, Mathare,Kiamaiko,-1.25377765,36.87573249,ee552328a71a7722403cdc18755baeff75e6d5ec,Deliverance Church Kangundo Road Campus,-1.2750739,36.890047,church
40, Mathare,Kiamaiko,-1.25377765,36.87573249,3eda193119499a0b3d66e27fb6297df5e3b1a77a,Pcea Eastleigh Church,-1.26812,36.85223759999999,church
41, Mathare,Kiamaiko,-1.25377765,36.87573249,5cc9a57d10a3e4b3b62485e71b1b13f951e4f5b8,Thika Road Baptist Church,-1.224196,36.88586,church
42, Mathare,Kiamaiko,-1.25377765,36.87573249,ea5a1d4bab5a8964889429eda76b0d9825af98b5,Pcea Thome Church,-1.226561,36.869086,church
43, Mathare,Kiamaiko,-1.25377765,36.87573249,c5f3ff95350616dcc18372181cd6223a1732e70f,Harvesters Christian Church,-1.2768882,36.89573,church
44, Mathare,Kiamaiko,-1.25377765,36.87573249,78d6440df5ba0b656f6efba466f7823f8e1b771a,Umoja Kingdom Hall,-1.2769664,36.8936536,church
45, Mathare,Kiamaiko,-1.25377765,36.87573249,80df7746eb5166d3189d515901a194a3c40f23e0,Seventh - Day Adventist Church,-1.2818924,36.8885225,church
46, Mathare,Kiamaiko,-1.25377765,36.87573249,83e0a6e09ac59bd157dde0c7f0a0ca6952e43322,Dandora Baptist Church,-1.2442634,36.9039251,church
47, Mathare,Kiamaiko,-1.25377765,36.87573249,986fc25a6e0670e8aa31e1cd4aae1d99a6596191,Thika Road Baptist Church Ministries,-1.224597,36.8856052,church
48, Mathare,Kiamaiko,-1.25377765,36.87573249,1142dab3a3edae6bb005971f050cd6f2ab47eb00,Divine Word Parish - Kayole,-1.2699073,36.9145501,church
49, Mathare,Kiamaiko,-1.25377765,36.87573249,211d1894a3f9f22d1020cbe6d7d3e81b294ff3c8,Redeemed Gospel Church- Buruburu,-1.2852181,36.8741388,church
50, Mathare,Kiamaiko,-1.25377765,36.87573249,aee760aa1d8f4537e6ed0fba4944dc64f1f5129c,Good News Mission KENYA Church,-1.221938,36.87831499999999,church
51, Mathare,Kiamaiko,-1.25377765,36.87573249,f913cb8cacc6f85772facbfaee86eef199973dca,Gilead Healing Ministries,-1.2416717,36.9056645,church
52, Mathare,Kiamaiko,-1.25377765,36.87573249,8fb11de792089948094c92389c8d292ffdd98f1f,Nairobi Chapel Northway,-1.2270578,36.89601069999999,church
53, Mathare,Kiamaiko,-1.25377765,36.87573249,cd1f1d9706a31963a6475539b83cf67b9eb77b96,KINGDOM HALL OF JEHOVAH'S WITNESSES,-1.2209452,36.8844173,church
54, Mathare,Kiamaiko,-1.25377765,36.87573249,8eb0dbcec301e9e05695ad5c063fb814ed8fc62b,ACK ST. JOSEPH OF ARIMATHEA,-1.2194416,36.87637340000001,church
55, Mathare,Kiamaiko,-1.25377765,36.87573249,4a5af5894a1d2941b9f43b09f85595b1037499c7,Kenya Evangelical Lutheran Church (Head Office),-1.2875236,36.866641,church
56, Mathare,Kiamaiko,-1.25377765,36.87573249,22ce70c52e2deec858d300e117c1069d498634af,Kingdom Hall of Jehovah's Witnesses,-1.2846741,36.8579048,church
57, Mathare,Kiamaiko,-1.25377765,36.87573249,913abf3150d0177e54b314c815820ea8fa018824,Buruburu Community Centre Church Of God,-1.2886495,36.8812681,church
58, Mathare,Kiamaiko,-1.25377765,36.87573249,4ff3f2ad63a848fc10eee42baedeba18dfc81981,Fountain of Wisdom Chapel,-1.2789864,36.9007363,church
59, Mathare,Kiamaiko,-1.25377765,36.87573249,422618dab3bc337458383f3632fdd3b7a37b4954,Corner Stone Christian Church,-1.286729,36.891285,church
