,constituency,ward,clat,clon,place_id,place_name,place_lat,place_long,place_type
0, Roysambu,Roysambu,-1.2188396000000001,36.88673920000001,bec66611f6b6eec10a91e280bc01c401ffe87f9d,Winet Wines & Spirits,-1.217945,36.9003135,liquor_store
1, Roysambu,Roysambu,-1.2188396000000001,36.88673920000001,32a57014bdeef9dfbb311d7c291e6e0929a1bf1c,Moran Wines & Spirits,-1.2022012,36.9177264,liquor_store
2, Roysambu,Roysambu,-1.2188396000000001,36.88673920000001,24651896f99114786ccbe0a9439d538e34a254c8,Obomo Wines And Spirits,-1.2550335,36.8666921,liquor_store
3, Roysambu,Roysambu,-1.2188396000000001,36.88673920000001,855525ec201731a852141091629689947a91b488,Fiesta wines and spirits,-1.218674,36.88674899999999,liquor_store
4, Roysambu,Roysambu,-1.2188396000000001,36.88673920000001,3d112eac939aff0f52a41f3b2d73f8336dc6da16,Buzz A Booze Liquor Store.,-1.2185881,36.8866624,liquor_store
5, Roysambu,Roysambu,-1.2188396000000001,36.88673920000001,2190a8d849adda92b7c7d6bb569cb0c57d56196d,Druzia Liquor Store,-1.2184338,36.8865463,liquor_store
6, Roysambu,Roysambu,-1.2188396000000001,36.88673920000001,4653b315a9c0a3692e40b3af34dece758f02efd3,Red Plate Food & Liquor,-1.218468,36.8862694,liquor_store
7, Roysambu,Roysambu,-1.2188396000000001,36.88673920000001,f6d7c2ba67a9bdf968f6683ce36ecef105b684da,Tallyho Wines N Spirits,-1.2182115,36.8866205,liquor_store
8, Roysambu,Roysambu,-1.2188396000000001,36.88673920000001,2e938043f83109183c032250f94afbea86089836,The Fix Liquor Store,-1.2179021,36.886598,liquor_store
9, Roysambu,Roysambu,-1.2188396000000001,36.88673920000001,2bd678fe64c0f90ba2ad3757c0419e552b8494f2,Quest Liqor Store,-1.2189231,36.885154,liquor_store
10, Roysambu,Roysambu,-1.2188396000000001,36.88673920000001,77cfdfc84a6c3f727ae66875fa29a48b6087b064,Celebrity Wines,-1.2187277,36.8850991,liquor_store
11, Roysambu,Roysambu,-1.2188396000000001,36.88673920000001,c7bec4b037cf26c68ac144933dbe86a62b410faf,Junior Wines and Spirit,-1.2163069,36.8878572,liquor_store
12, Roysambu,Roysambu,-1.2188396000000001,36.88673920000001,ea45cf96ef1675e981755ca1b6e579beaa36a81c,Lumumba Drive Wine & Spirits,-1.2162545,36.8878194,liquor_store
13, Roysambu,Roysambu,-1.2188396000000001,36.88673920000001,1e3840fbd541b615d73d81eff1ab2ee9a94497fe,Sippers Liquor Hub,-1.2161376,36.8879037,liquor_store
14, Roysambu,Roysambu,-1.2188396000000001,36.88673920000001,da1d31e0cf970e1372d743aee13a5bd3b492ead2,Interworld Wine Agency,-1.2157111,36.8875344,liquor_store
15, Roysambu,Roysambu,-1.2188396000000001,36.88673920000001,a76be7bf6056dbacf3a31d0160d4ee409c7b1094,H - Zone,-1.215871,36.8880806,liquor_store
16, Roysambu,Roysambu,-1.2188396000000001,36.88673920000001,0c3e563803506ffc1cc45d349b337a55aedf4e90,Capital Wines & Spirits,-1.2154855,36.8870897,liquor_store
17, Roysambu,Roysambu,-1.2188396000000001,36.88673920000001,83a4195e74703e162804757abe32eb9cf64092af,Dew Drops Wines & Spirits,-1.2153977,36.8875988,liquor_store
18, Roysambu,Roysambu,-1.2188396000000001,36.88673920000001,655dc42debaf91b254edab8dfd3cf081315f7004,Baroness Wines & Spirits,-1.2163614,36.88941629999999,liquor_store
19, Roysambu,Roysambu,-1.2188396000000001,36.88673920000001,43470edb706dba1c15ac2c1ffcf2e1b3124f4b94,Sweet Waters Wines & Spirits,-1.2159535,36.8889734,liquor_store
20, Roysambu,Roysambu,-1.2188396000000001,36.88673920000001,27007565dca6552ef3a6f2d9958d04da408d147f,Wines And Spirits Sparkles,-1.2160524,36.8891474,liquor_store
21, Roysambu,Roysambu,-1.2188396000000001,36.88673920000001,386a816c06ffa75da6481148995ecbc8177cbba4,Malkar Wine & Spirits,-1.2156119,36.8885241,liquor_store
22, Roysambu,Roysambu,-1.2188396000000001,36.88673920000001,4c586400d970e596a85248dc183428c3615aa95d,Randways Wines Spirits,-1.2159702,36.8890875,liquor_store
23, Roysambu,Roysambu,-1.2188396000000001,36.88673920000001,fc3989b5323d5c80075fd1f64e3baebf54fc8c6d,Signature Liquor Store,-1.2154298,36.8883038,liquor_store
24, Roysambu,Roysambu,-1.2188396000000001,36.88673920000001,911aea1d8d2d0909770673fb2328d557f0c853cd,Shobol Wines Agencies,-1.216779,36.8899779,liquor_store
25, Roysambu,Roysambu,-1.2188396000000001,36.88673920000001,0f5c5fe623db5313d048e3d990ab51abe8ff2e40,Springs Liquor Store,-1.2157432,36.889225,liquor_store
26, Roysambu,Roysambu,-1.2188396000000001,36.88673920000001,17e94c4e7fe26f60e33dfdada9d0049489ade902,Three Berries Wines & Spirits,-1.2148798,36.88721080000001,liquor_store
27, Roysambu,Roysambu,-1.2188396000000001,36.88673920000001,2cb39f8be663461aef10eedeec4cfc5954f0fc2b,Roysambu Drinks Delivery,-1.2146681,36.887239,liquor_store
28, Roysambu,Roysambu,-1.2188396000000001,36.88673920000001,4917e9a5db9ac90045579b19998e738745f5a020,Tycco Wines And Spirits,-1.2161948,36.8902008,liquor_store
29, Roysambu,Roysambu,-1.2188396000000001,36.88673920000001,e4899e7fe8343b0068763696b96f6751a352571c,Tradecom Wines & Spirits,-1.2163135,36.8903393,liquor_store
30, Roysambu,Roysambu,-1.2188396000000001,36.88673920000001,b2876e4732ef7a212da3ae5fa37f3a603054a7bb,Winky's Wines And Liquor,-1.215494,36.889686,liquor_store
31, Roysambu,Roysambu,-1.2188396000000001,36.88673920000001,5014fac56f9c2dcad7dcc64cddf6d8d32e9b2e32,The Eclipse Wines & Spirits,-1.2163779,36.89074230000001,liquor_store
32, Roysambu,Roysambu,-1.2188396000000001,36.88673920000001,f8f150eba2d044dafe7711ebbda292bf53f57a40,Werbung Wines & Spirits,-1.2167077,36.8912211,liquor_store
33, Roysambu,Roysambu,-1.2188396000000001,36.88673920000001,8b6b6508d12f7a2c8b0393b5e3009494e3cabf70,Werbung Wine & Sprit,-1.216625,36.891279,liquor_store
34, Roysambu,Roysambu,-1.2188396000000001,36.88673920000001,3b70b09aac9ac9f46920b4bb0da230e06a833649,Amigos food and liquor store,-1.2103832,36.88545570000001,liquor_store
35, Roysambu,Roysambu,-1.2188396000000001,36.88673920000001,b9a805fe50af84df08e1023b76d1c48b858075ba,Friends Corner Wines Spirits,-1.2169467,36.8951458,liquor_store
36, Roysambu,Roysambu,-1.2188396000000001,36.88673920000001,27d3cc10c717177690a477928f561dab5220969c,Kasarani Wines & Spirits,-1.2193381,36.8954745,liquor_store
37, Roysambu,Roysambu,-1.2188396000000001,36.88673920000001,cdb35cdff03ad54f8920fb8c621b18addaf43230,Josnic Wines & Spirits,-1.2180359,36.8954585,liquor_store
38, Roysambu,Roysambu,-1.2188396000000001,36.88673920000001,df18e85515e001264b2515cbe0df0073ad382ec0,Pub Smiles,-1.2131522,36.8941712,liquor_store
39, Roysambu,Roysambu,-1.2188396000000001,36.88673920000001,43e4db44acd7ffd3c9f1b00d3d2d293751ca9d12,Dibbet Wines & Spirits,-1.2130862,36.8941849,liquor_store
