,constituency,ward,clat,clon,place_id,place_name,place_lat,place_long,place_type
0, Lang'ata,South C,-1.3204426999999999,36.83053678,e705afc510a1e327fbfbb43051a0e12d92d74e51,Tach Ventures,-1.2860957,36.8275961,liquor_store
1, Lang'ata,South C,-1.3204426999999999,36.83053678,0fc448f2199a27f107473ee31899836ad9f81c98,Limkolyne Traders,-1.2844425,36.8263502,liquor_store
2, Lang'ata,South C,-1.3204426999999999,36.83053678,27bf03471deec5d8decb1fe55453d3f1d61547a8,Whisky Delivery Nairobi - Drinks Delivery Kenya,-1.2843427,36.827096,liquor_store
3, Lang'ata,South C,-1.3204426999999999,36.83053678,b72b42841b090a81279a212e6a19e39f5bf2a7e7,Dial A Drink Nairobi,-1.2834635,36.8257657,liquor_store
4, Lang'ata,South C,-1.3204426999999999,36.83053678,830faaefe54fde17c3bcd57355d203d2d12f5442,DIAL A DRINK KENYA,-1.2829442,36.8249441,liquor_store
5, Lang'ata,South C,-1.3204426999999999,36.83053678,dd466b4f79c0dc865561d226f14b44b7d30b8524,NAIROBI DRINKS - Alcohol Delivery Kenya,-1.2828549,36.8217024,liquor_store
6, Lang'ata,South C,-1.3204426999999999,36.83053678,1c217ad7c1bb6022f98f97244a26ee223b04538f,Alcohol Delivery Nairobi,-1.2835128,36.8175093,liquor_store
7, Lang'ata,South C,-1.3204426999999999,36.83053678,0008ba44b01fe89cb166792953ac3f69b75ea331,Museum Hill Wines,-1.2814593,36.82065459999999,liquor_store
8, Lang'ata,South C,-1.3204426999999999,36.83053678,614ef6c28e242943ad3bfa736b43709af6dd9f85,Whisky Sundays,-1.2944573,36.7986498,liquor_store
9, Lang'ata,South C,-1.3204426999999999,36.83053678,8fa21717c3f2f2af89a32cef35459d83249f0217,Urban WineHouse,-1.2815,36.8172535,liquor_store
10, Lang'ata,South C,-1.3204426999999999,36.83053678,f8598fe5e6e86e36d62fcc712d1854c0b62dd7c1,Nairobi Alcohol Delivery-Drinks Delivery Kenya,-1.280676,36.819278,liquor_store
11, Lang'ata,South C,-1.3204426999999999,36.83053678,7ac5f5a16158a0bd4ac9539c0a910601a85c32d2,Geostan Liquor Store,-1.3232436,36.7865972,liquor_store
12, Lang'ata,South C,-1.3204426999999999,36.83053678,213cb305360a8a9ba49a4c8708e71876d34232f5,Container Joint,-1.3233272,36.8271348,liquor_store
13, Lang'ata,South C,-1.3204426999999999,36.83053678,d9f4cf2435f36167070eb254b95bc8f1b5e759f3,the Cellar Liquor Store,-1.316448,36.834826,liquor_store
14, Lang'ata,South C,-1.3204426999999999,36.83053678,b1beb08e223128dc9bcf9dddb9de96bb6d6463b9,Asali Agency,-1.313566,36.827613,liquor_store
15, Lang'ata,South C,-1.3204426999999999,36.83053678,c3adff2c60d37b3d8e3651577023648c497cf701,Jay Jay Wines,-1.3183422,36.8388612,liquor_store
16, Lang'ata,South C,-1.3204426999999999,36.83053678,52756dc8466ac9e6278c3c9ad9fd83e56d04cf37,Mt.Kenya Wines & Spirits,-1.3186683,36.8399737,liquor_store
17, Lang'ata,South C,-1.3204426999999999,36.83053678,c1a9b277b8b63287e540a54b3dc7d46a959f6f42,Southern Sips Whiskey,-1.3112985,36.8357101,liquor_store
18, Lang'ata,South C,-1.3204426999999999,36.83053678,687f01732c1793fe4846964181cec45220f1f120,# JICHO NY ANY A Wines & Spirits,-1.3107936,36.8349787,liquor_store
19, Lang'ata,South C,-1.3204426999999999,36.83053678,ccc6acbe812544dcdea6fab3ba30e88b49dfe592,Strategic Wines and Spirits,-1.3114527,36.83640999999999,liquor_store
20, Lang'ata,South C,-1.3204426999999999,36.83053678,e655608fc3a360d352d75344138cb378691045b0,Balozi Wines,-1.3109509,36.8363019,liquor_store
21, Lang'ata,South C,-1.3204426999999999,36.83053678,97dfa552f339eee7cc793bab57d8e1e80496cf65,Mwenda Auntu Wines & Spirits,-1.311709,36.8379912,liquor_store
22, Lang'ata,South C,-1.3204426999999999,36.83053678,91c6f3e98ce7bf19d2a9a6ac2b534fe810e50653,Munki Wines & Spirits,-1.3117655,36.8381292,liquor_store
23, Lang'ata,South C,-1.3204426999999999,36.83053678,09cf0425d64a3befd5be7d68b265b4c624a1892b,Bigtime Liquors,-1.3113569,36.837968,liquor_store
24, Lang'ata,South C,-1.3204426999999999,36.83053678,eca785ccef8b1b82cbef08f03bdfb931f37c6024,Arawa Wines & Kiosk,-1.3114418,36.83821830000001,liquor_store
25, Lang'ata,South C,-1.3204426999999999,36.83053678,16db327d1c3b982262ee93d9a25b0112f3a5f817,G-Sport Wines and Mpesa,-1.3191493,36.842832,liquor_store
26, Lang'ata,South C,-1.3204426999999999,36.83053678,7bfea92cc04060ce9c4064150a5c37db8802c761,Matata Wines and Spirits,-1.309821,36.837564,liquor_store
27, Lang'ata,South C,-1.3204426999999999,36.83053678,f2d6ead96f2d7710a96a7d3e5a5d0b9014c1fd2b,Bubbly Liquor shop,-1.3241994,36.8435293,liquor_store
28, Lang'ata,South C,-1.3204426999999999,36.83053678,317cb030514b8f34540a768500a413e81ba2ae54,Wallys Liquor Store,-1.3131001,36.819038,liquor_store
29, Lang'ata,South C,-1.3204426999999999,36.83053678,d9b71c5c848b8a52b3a4c66693dd1decd5cdd1a1,Liquor Store,-1.3093009,36.8221589,liquor_store
30, Lang'ata,South C,-1.3204426999999999,36.83053678,5eac5a2414dfa7b988fa0f829afe302cf5c3c51e,Jurassic Wines Nairobi West,-1.3094075,36.8219715,liquor_store
31, Lang'ata,South C,-1.3204426999999999,36.83053678,51ab913af2128e3db54fa65d81fe003ea6d5c68b,Liquor Store,-1.309405,36.82196400000001,liquor_store
32, Lang'ata,South C,-1.3204426999999999,36.83053678,2316379e87697578f7bbcd994ddc9c6147077016,Ace Liquor Store,-1.3236764,36.844255,liquor_store
33, Lang'ata,South C,-1.3204426999999999,36.83053678,af65022726371652f0e46ed3cf8dba84ab4ff3cf,Tripple M Wine And Spirit,-1.3078492,36.82423250000001,liquor_store
34, Lang'ata,South C,-1.3204426999999999,36.83053678,f69e42927196300e804d3d3ce12862665a490d01,G III Wine & Spirits,-1.3075011,36.8239037,liquor_store
35, Lang'ata,South C,-1.3204426999999999,36.83053678,e8d4c52c07e606ef22f611bff288fa2bb454b52a,Nissy Liquor Wines And Spirits Limited,-1.3072652,36.8243651,liquor_store
36, Lang'ata,South C,-1.3204426999999999,36.83053678,2d513a5e550f2001896362b9cb911d475d24688b,Nelac Wines & 'Spirits,-1.3169178,36.8161985,liquor_store
37, Lang'ata,South C,-1.3204426999999999,36.83053678,ae41e57077983b7c7652b06c3504657d4c242682,Suresh Wines & Spirits,-1.3079275,36.8224938,liquor_store
38, Lang'ata,South C,-1.3204426999999999,36.83053678,098cc7b45a80c030b954cc842a65a867fc482ca8,Bubbly Chill Wines & Spirits,-1.3070242,36.82405079999999,liquor_store
39, Lang'ata,South C,-1.3204426999999999,36.83053678,bece37eb02431afadde54b1d44d48a4b0e26a526,Disney Boutique,-1.3057532,36.8251113,liquor_store
