,constituency,ward,clat,clon,place_id,place_name,place_lat,place_long,place_type
0, Kibra,Laini Saba,-1.31234835,36.79611435,7ac5f5a16158a0bd4ac9539c0a910601a85c32d2,Geostan Liquor Store,-1.3232436,36.7865972,liquor_store
1, Kibra,Laini Saba,-1.31234835,36.79611435,614ef6c28e242943ad3bfa736b43709af6dd9f85,Whisky Sundays,-1.2944573,36.7986498,liquor_store
2, Kibra,Laini Saba,-1.31234835,36.79611435,4120fd662e2ef518f0713566574acf32e5c53d35,Chandarana Foodplus Supermarket (Adlife Plaza Branch),-1.2945242,36.7872416,liquor_store
3, Kibra,Laini Saba,-1.31234835,36.79611435,80861a0c58fdc6b182119e20c302a9ddfa0202e7,The Well - Wine Masters,-1.3040828,36.77104490000001,liquor_store
4, Kibra,Laini Saba,-1.31234835,36.79611435,1c217ad7c1bb6022f98f97244a26ee223b04538f,Alcohol Delivery Nairobi,-1.2835128,36.8175093,liquor_store
5, Kibra,Laini Saba,-1.31234835,36.79611435,8fa21717c3f2f2af89a32cef35459d83249f0217,Urban WineHouse,-1.2815,36.8172535,liquor_store
6, Kibra,Laini Saba,-1.31234835,36.79611435,dd466b4f79c0dc865561d226f14b44b7d30b8524,NAIROBI DRINKS - Alcohol Delivery Kenya,-1.2828549,36.8217024,liquor_store
7, Kibra,Laini Saba,-1.31234835,36.79611435,0008ba44b01fe89cb166792953ac3f69b75ea331,Museum Hill Wines,-1.2814593,36.82065459999999,liquor_store
8, Kibra,Laini Saba,-1.31234835,36.79611435,f8598fe5e6e86e36d62fcc712d1854c0b62dd7c1,Nairobi Alcohol Delivery-Drinks Delivery Kenya,-1.280676,36.819278,liquor_store
9, Kibra,Laini Saba,-1.31234835,36.79611435,e705afc510a1e327fbfbb43051a0e12d92d74e51,Tach Ventures,-1.2860957,36.8275961,liquor_store
10, Kibra,Laini Saba,-1.31234835,36.79611435,7a9bef5a87805ae08db8c578ce5e04fe5f272aeb,Chandarana Foodplus Supermarket (Lavington Branch),-1.2799422,36.7707551,liquor_store
11, Kibra,Laini Saba,-1.31234835,36.79611435,0fc448f2199a27f107473ee31899836ad9f81c98,Limkolyne Traders,-1.2844425,36.8263502,liquor_store
12, Kibra,Laini Saba,-1.31234835,36.79611435,830faaefe54fde17c3bcd57355d203d2d12f5442,DIAL A DRINK KENYA,-1.2829442,36.8249441,liquor_store
13, Kibra,Laini Saba,-1.31234835,36.79611435,b72b42841b090a81279a212e6a19e39f5bf2a7e7,Dial A Drink Nairobi,-1.2834635,36.8257657,liquor_store
14, Kibra,Laini Saba,-1.31234835,36.79611435,7c5d034c8a5f43afd5764c051ddfbd0c692930ed,Gallo Sachs Wine & Spirit,-1.287628,36.762308,liquor_store
15, Kibra,Laini Saba,-1.31234835,36.79611435,27bf03471deec5d8decb1fe55453d3f1d61547a8,Whisky Delivery Nairobi - Drinks Delivery Kenya,-1.2843427,36.827096,liquor_store
16, Kibra,Laini Saba,-1.31234835,36.79611435,a349f5ed0c32218b082a30a770a11766d6ee5292,Business Promotional Solution,-1.2693224,36.8087976,liquor_store
17, Kibra,Laini Saba,-1.31234835,36.79611435,497158ecc475fe34477feea592d488f38dce9abb,Corner Point Agencies,-1.3063586,36.7868856,liquor_store
18, Kibra,Laini Saba,-1.31234835,36.79611435,498c436d1907c0207f464404675e1f3f48aef8df,GUDU Wines & Spirits H-9,-1.3163375,36.8068532,liquor_store
19, Kibra,Laini Saba,-1.31234835,36.79611435,28a0791091a19671a987872bd88c5b627555a047,Park Wines,-1.3226606,36.7874065,liquor_store
20, Kibra,Laini Saba,-1.31234835,36.79611435,6d10a53db683458dc5faea849fdfbdc5221c0824,Supersize Wine & Spirits,-1.323,36.7870733,liquor_store
21, Kibra,Laini Saba,-1.31234835,36.79611435,8327590310c1ae309a6985b3220d4e54352b563c,Goldminds Wines & Spirit,-1.3233776,36.7864874,liquor_store
22, Kibra,Laini Saba,-1.31234835,36.79611435,c722d3ee0cec96546380f7152b5528d220933ce3,The Bowery,-1.2983666,36.7913199,liquor_store
23, Kibra,Laini Saba,-1.31234835,36.79611435,227c5caf5d416a48efce860d32fe5c39fca560ae,Asche Wines,-1.2978097,36.7910966,liquor_store
24, Kibra,Laini Saba,-1.31234835,36.79611435,0bcdb05a44322f324d3af5920ac5bffe156fbc98,Bralales Wines & Spirits,-1.3244632,36.7847505,liquor_store
25, Kibra,Laini Saba,-1.31234835,36.79611435,24b71987fd3fbe01ba51f92709dce5037d2500fd,G4 Liqoure,-1.3244954,36.7847344,liquor_store
26, Kibra,Laini Saba,-1.31234835,36.79611435,3f0983b429fe7ad0500e5930110c38fd203e84e3,Baraka Wines & Spirits,-1.3122863,36.7787671,liquor_store
27, Kibra,Laini Saba,-1.31234835,36.79611435,c947035d608ed7a44fca005940627734bab2695c,Oaks & Corks - Drinks Delivery Nairobi,-1.298952,36.78464700000001,liquor_store
28, Kibra,Laini Saba,-1.31234835,36.79611435,5e1645c5cacedbc62f7e2382928b0436e6fe6873,Kwench Valley,-1.3004774,36.7826728,liquor_store
29, Kibra,Laini Saba,-1.31234835,36.79611435,957f02663e92b969974fb03dcc414f2fda312d4d,Steff Wines & Spirit,-1.3038341,36.7796426,liquor_store
30, Kibra,Laini Saba,-1.31234835,36.79611435,76519d93dc6fffdbd4f20921e19948340c65b414,Havens Wine & Spirits,-1.300595,36.7817038,liquor_store
31, Kibra,Laini Saba,-1.31234835,36.79611435,a549b00f7368a57293df0f0f77e6ddf6590f68f2,Haven Wines & Spirits (Green House),-1.300476,36.781773,liquor_store
32, Kibra,Laini Saba,-1.31234835,36.79611435,66111fb8df2a76019ae39e284b4be9ac3d6d1c65,Bubbles Wines And Spirit,-1.3077218,36.7779372,liquor_store
33, Kibra,Laini Saba,-1.31234835,36.79611435,4ba07522c77cf4120cb852ad266fe8b7307c1daf,KEROM's WINES & DISTRIBUTORS,-1.301371,36.8113533,liquor_store
34, Kibra,Laini Saba,-1.31234835,36.79611435,f9dd8414af75f38f7fd73c56e5130958c59d2167,Trigi Wines & Spirits,-1.3018751,36.7801153,liquor_store
35, Kibra,Laini Saba,-1.31234835,36.79611435,b8039f0b0ea3d15e52dfcc5138f5772c61dce2e4,Beehive Wines & Spirits,-1.3063324,36.777771,liquor_store
36, Kibra,Laini Saba,-1.31234835,36.79611435,f9cc999ea0af89984ed322db4b3a2f907b16268d,REAL WINES & SPIRITS,-1.3098585,36.8156065,liquor_store
37, Kibra,Laini Saba,-1.31234835,36.79611435,8a3089752f172bf0b8a4d7b13b8ce033f9e156e9,Legacy,-1.2951738,36.78630569999999,liquor_store
38, Kibra,Laini Saba,-1.31234835,36.79611435,5f115a402c3b490abce611208f722554943f02b5,Lorwin Agencies Wines and Spirits,-1.3234103,36.77941289999999,liquor_store
39, Kibra,Laini Saba,-1.31234835,36.79611435,2d513a5e550f2001896362b9cb911d475d24688b,Nelac Wines & 'Spirits,-1.3169178,36.8161985,liquor_store
