,constituency,ward,clat,clon,place_id,place_name,place_lat,place_long,place_type
0, Starehe,Pangani,-1.2648989,36.8372708,0008ba44b01fe89cb166792953ac3f69b75ea331,Museum Hill Wines,-1.2814593,36.82065459999999,liquor_store
1, Starehe,Pangani,-1.2648989,36.8372708,a349f5ed0c32218b082a30a770a11766d6ee5292,Business Promotional Solution,-1.2693224,36.8087976,liquor_store
2, Starehe,Pangani,-1.2648989,36.8372708,b72b42841b090a81279a212e6a19e39f5bf2a7e7,Dial A Drink Nairobi,-1.2834635,36.8257657,liquor_store
3, Starehe,Pangani,-1.2648989,36.8372708,830faaefe54fde17c3bcd57355d203d2d12f5442,DIAL A DRINK KENYA,-1.2829442,36.8249441,liquor_store
4, Starehe,Pangani,-1.2648989,36.8372708,27bf03471deec5d8decb1fe55453d3f1d61547a8,Whisky Delivery Nairobi - Drinks Delivery Kenya,-1.2843427,36.827096,liquor_store
5, Starehe,Pangani,-1.2648989,36.8372708,0fc448f2199a27f107473ee31899836ad9f81c98,Limkolyne Traders,-1.2844425,36.8263502,liquor_store
6, Starehe,Pangani,-1.2648989,36.8372708,e705afc510a1e327fbfbb43051a0e12d92d74e51,Tach Ventures,-1.2860957,36.8275961,liquor_store
7, Starehe,Pangani,-1.2648989,36.8372708,dd466b4f79c0dc865561d226f14b44b7d30b8524,NAIROBI DRINKS - Alcohol Delivery Kenya,-1.2828549,36.8217024,liquor_store
8, Starehe,Pangani,-1.2648989,36.8372708,f8598fe5e6e86e36d62fcc712d1854c0b62dd7c1,Nairobi Alcohol Delivery-Drinks Delivery Kenya,-1.280676,36.819278,liquor_store
9, Starehe,Pangani,-1.2648989,36.8372708,8fa21717c3f2f2af89a32cef35459d83249f0217,Urban WineHouse,-1.2815,36.8172535,liquor_store
10, Starehe,Pangani,-1.2648989,36.8372708,1c217ad7c1bb6022f98f97244a26ee223b04538f,Alcohol Delivery Nairobi,-1.2835128,36.8175093,liquor_store
11, Starehe,Pangani,-1.2648989,36.8372708,24651896f99114786ccbe0a9439d538e34a254c8,Obomo Wines And Spirits,-1.2550335,36.8666921,liquor_store
12, Starehe,Pangani,-1.2648989,36.8372708,1052ba3f289a738f87e984edc61d1d8209b7250b,Slater & Whittaker,-1.2673286,36.8064362,liquor_store
13, Starehe,Pangani,-1.2648989,36.8372708,5a5222b3a4ac637a0d59343a73500decf1de0e75,Mpaka Road Wine & Liquor,-1.2644593,36.8055272,liquor_store
14, Starehe,Pangani,-1.2648989,36.8372708,c81b72c53c00e4eef69cb31eeff2bd8f4b22b009,California Wines by Rose,-1.261057,36.8038835,liquor_store
15, Starehe,Pangani,-1.2648989,36.8372708,529a069dba199a571109c5c50bd0eceef0489212,Liv Vin Wine Shop,-1.2328643,36.8072531,liquor_store
16, Starehe,Pangani,-1.2648989,36.8372708,70a0e762a5207c1c00be893504418b8ca02fad81,Joytesh Wine Agency,-1.2663925,36.8362597,liquor_store
17, Starehe,Pangani,-1.2648989,36.8372708,a691d6ecac423c35b0ba830b6d748ea22ff63059,Hidden Tavern - Pangani,-1.2670681,36.8372896,liquor_store
18, Starehe,Pangani,-1.2648989,36.8372708,d91ca0a540f93d710e3aa63731ec9d73ee1f55ff,Majaliwa Wines & Spirits,-1.2691085,36.8401997,liquor_store
19, Starehe,Pangani,-1.2648989,36.8372708,348a3d771eef56d2f40288bec0b9b09766881e7f,Northview Wines and Spirits,-1.2669213,36.84311,liquor_store
20, Starehe,Pangani,-1.2648989,36.8372708,bd8d92e2028a2badbeeed0ee7d230f87c2d02929,Lexus Wine And Spirits And Wholesalers,-1.2698563,36.8409541,liquor_store
21, Starehe,Pangani,-1.2648989,36.8372708,9ded8ba604a8694c7f46775e88e4161830c579a1,Riamui Wines & Spirits,-1.2723993,36.83301180000001,liquor_store
22, Starehe,Pangani,-1.2648989,36.8372708,89608aa6ffe6f066a132a6e90c2689b9333eeb31,TREMBO SERVICES,-1.2719621,36.8475234,liquor_store
23, Starehe,Pangani,-1.2648989,36.8372708,716dee5dfbe83c6aaf7c5a8a15dc91bd4a9ed7fb,Pema Wines and Spirits,-1.2706912,36.8500096,liquor_store
24, Starehe,Pangani,-1.2648989,36.8372708,9db672b2ad59920122e9a5fb860b160223ef4ea1,Dokas Wines & Spirits,-1.27657,36.8287969,liquor_store
25, Starehe,Pangani,-1.2648989,36.8372708,53ca20176df9bf322ebddf3d63b97dd357976065,Tipsy wines and spirits,-1.2717267,36.85022859999999,liquor_store
26, Starehe,Pangani,-1.2648989,36.8372708,9211e1d2360450b410384c46cfcef8bdee601961,Sakaka Wine Agencies,-1.2776235,36.8282513,liquor_store
27, Starehe,Pangani,-1.2648989,36.8372708,2630395e0e9b076bc79f6778feff8bba08f08ad6,Wine Delivery Nairobi,-1.274701,36.8250825,liquor_store
28, Starehe,Pangani,-1.2648989,36.8372708,b333568692e612918de9f42de3c838f24f63fcb4,Wine House,-1.2743458,36.8236375,liquor_store
29, Starehe,Pangani,-1.2648989,36.8372708,d1274e6d5dbb6380b30fa30e07ab9ad024a9518b,Meru County Veve Base,-1.2727121,36.8215782,liquor_store
30, Starehe,Pangani,-1.2648989,36.8372708,efd3153fdae16fc2b9a06e7d334442b5674e020d,Springs Wines & Spirits,-1.2765866,36.8510533,liquor_store
31, Starehe,Pangani,-1.2648989,36.8372708,adac7a63e22ab484a711c303aa5c167d0b7eb41b,Network 24,-1.2774691,36.8504257,liquor_store
32, Starehe,Pangani,-1.2648989,36.8372708,14a58df30395d89a824ca8cad769cadd44f40a21,Milano Base,-1.2774691,36.8504257,liquor_store
33, Starehe,Pangani,-1.2648989,36.8372708,22f885fadef08f6078fba5e1e337fb3684ec9bbb,Toi Agencies,-1.279432,36.826318,liquor_store
34, Starehe,Pangani,-1.2648989,36.8372708,ff48d192054643d1cfd4943368463f509ade3ff9,Concept Wines & Spirits,-1.2808315,36.8474531,liquor_store
35, Starehe,Pangani,-1.2648989,36.8372708,93244cfed4af7d50bd9715a2ba0ff6791b10ab53,New Wine,-1.2759769,36.85267839999999,liquor_store
36, Starehe,Pangani,-1.2648989,36.8372708,46a22bd4b1864906012b139ad89ba43fa3767bba,Mimiroes Wines and Spirits,-1.2749278,36.8209057,liquor_store
37, Starehe,Pangani,-1.2648989,36.8372708,aabe3d3ca90c721ad087c25a8f5a3bdba3e2525c,Njuvi's Enterprises,-1.2807701,36.8260156,liquor_store
38, Starehe,Pangani,-1.2648989,36.8372708,cf038ea0e18473b29b9ad6f6b6b8558734b13030,Barmuto Wines And spirits,-1.281837,36.8275981,liquor_store
39, Starehe,Pangani,-1.2648989,36.8372708,475a5c8bb060151142ffe442af5f3bbdb99c3b89,CHASCA INVESTMENTS (K) LTD,-1.2818075,36.8274613,liquor_store
40, Starehe,Pangani,-1.2648989,36.8372708,c72e7a9afbb1b7cf6b4dce6be858fbce76566a5f,Esther Wines & Spirits,-1.2828486,36.82947600000001,liquor_store
41, Starehe,Pangani,-1.2648989,36.8372708,0e2bac5e0e532c574c7a1eda560c7ff0bb3ada64,HB Wines and Spirits,-1.2831754,36.8301008,liquor_store
42, Starehe,Pangani,-1.2648989,36.8372708,e2e6b741b0131efc78c157970025a0ec5cc26472,Three Wine & Spirits,-1.2837868,36.83153889999999,liquor_store
43, Starehe,Pangani,-1.2648989,36.8372708,1bf4b660f0a9dfd442c6e84a4a99c828badfce03,Nyawa Agencies,-1.2583784,36.81858640000001,liquor_store
44, Starehe,Pangani,-1.2648989,36.8372708,5c6785884a00a7b666154cd56bed1c64de79e046,Chemichemi Wines & Spirits,-1.2584167,36.818565,liquor_store
45, Starehe,Pangani,-1.2648989,36.8372708,c9b7a81c1f9c30f648c3175e4689627f55fb20b0,Midhan Wines & Spirits,-1.2805731,36.8241723,liquor_store
46, Starehe,Pangani,-1.2648989,36.8372708,b1b89472f34814dfc382fa26d640ad6621bbfe84,Majamson Wine And Spirits,-1.2816423,36.8254895,liquor_store
47, Starehe,Pangani,-1.2648989,36.8372708,100d6967579fd7cf08e4d68a20ab0d2211bd05c8,Emirates Enterprises,-1.2830508,36.8273486,liquor_store
48, Starehe,Pangani,-1.2648989,36.8372708,6b8c78f79e997cd388d3af6c7b64fc9a9851b367,Capital 2 Inn,-1.2830508,36.8273486,liquor_store
49, Starehe,Pangani,-1.2648989,36.8372708,8be30d4842cfeb28cb149baaebbd6da20e0c7464,Belly Wines & Spirits,-1.2808294,36.8239932,liquor_store
50, Starehe,Pangani,-1.2648989,36.8372708,336d6c1a29de6639da20ae0b7df1b4cf4964af54,Drinks Delivery Nairobi,-1.2828986,36.8269514,liquor_store
51, Starehe,Pangani,-1.2648989,36.8372708,0c2a86bda29dc0e3edd05d30d2fea9dfea2e5d51,Joshua Base Wines And Spirits,-1.2832234,36.8274539,liquor_store
52, Starehe,Pangani,-1.2648989,36.8372708,c1055f8ef46b019474806cf6b5d9e762cb8e8279,Mandela Veve Base,-1.2808348,36.8238514,liquor_store
53, Starehe,Pangani,-1.2648989,36.8372708,a50610157fe83d713547cb38e5174e8b696d3136,Fredie Wines And Spirits,-1.2808626,36.82383160000001,liquor_store
54, Starehe,Pangani,-1.2648989,36.8372708,e56669f00337bb388a12c5e8574e60587a11f077,Pesa D Investments,-1.2809337,36.82380209999999,liquor_store
55, Starehe,Pangani,-1.2648989,36.8372708,d7e7d4dcf4fb18ed87ed137deb18928e7e28d0f2,Gittz Investments Ltd,-1.280869,36.823706,liquor_store
56, Starehe,Pangani,-1.2648989,36.8372708,68a488739569b01cadbdfa88697f7f144304584b,KJM Building - Shop 6,-1.2808452,36.8236569,liquor_store
57, Starehe,Pangani,-1.2648989,36.8372708,2eaa2613ea4f16f9a4829ca587dcabc307cf308e,Madsu Wines & Spirits,-1.283703,36.8278402,liquor_store
58, Starehe,Pangani,-1.2648989,36.8372708,6dea100de1bbf03344f4425b9b621b811bc5483e,K J M Building - Shop 5,-1.2808988,36.8236157,liquor_store
59, Starehe,Pangani,-1.2648989,36.8372708,2473126dcfbf529e39072db5a327953031bd4c76,KJM Building - Shop 8,-1.2808707,36.82355630000001,liquor_store
