,constituency,ward,clat,clon,place_id,place_name,place_lat,place_long,place_type
0, Makadara,Viwandani,-1.3112438,36.87347165,02c52373b9b779714a39de7544f390fbe205e709,Babes Bistro,-1.3226622,36.8945897,liquor_store
1, Makadara,Viwandani,-1.3112438,36.87347165,8bd8c9a7926357c71826c73d2f8d182b2a4fe455,Superior Wines And Spirits,-1.285483,36.8800601,liquor_store
2, Makadara,Viwandani,-1.3112438,36.87347165,22108b65060aedeba1f1baf34c1f8169636cb41b,Superior Wines And Spirits,-1.285826,36.880466,liquor_store
3, Makadara,Viwandani,-1.3112438,36.87347165,a214a6f430879ef120399e95d20d28e6d9aabb8e,Fystar Wines And Spirits Limited,-1.2866685,36.89569970000001,liquor_store
4, Makadara,Viwandani,-1.3112438,36.87347165,b3987968588800baa0fd954f69cd4be4301f6c6b,Kapital Wines & Spirits,-1.3029719,36.9159508,liquor_store
5, Makadara,Viwandani,-1.3112438,36.87347165,b3152f56cfc5b74788e977fd2d75f2414cbe7cb2,Roses Wines & Spirit Stockists,-1.3220215,36.8816372,liquor_store
6, Makadara,Viwandani,-1.3112438,36.87347165,d44b290c7c4005b74e5bbd8fe94718633c9bb6f7,Global procurement agents ltd.,-1.297132,36.874073,liquor_store
7, Makadara,Viwandani,-1.3112438,36.87347165,aff65520601606b98f17866bdab1ecb7d9a673f8,Kross Liquor Shop,-1.2969875,36.87509070000001,liquor_store
8, Makadara,Viwandani,-1.3112438,36.87347165,5010496439cf48ddb90db4c0db84de501a7773a8,Wa Rose Wines,-1.3224304,36.8837765,liquor_store
9, Makadara,Viwandani,-1.3112438,36.87347165,aa8796314465bdb431409859e89eb064e4ebc27a,Delta Wines & Spirits,-1.3113143,36.8888276,liquor_store
10, Makadara,Viwandani,-1.3112438,36.87347165,9beeeb9cc95ba254abddeb18278a89d8cbe99e0d,Blustone Liquor Store,-1.3255283,36.8800226,liquor_store
11, Makadara,Viwandani,-1.3112438,36.87347165,c71d07ae16d1b351b9a8b537b1e41b124343e7be,Mukoma Wines And Spirits,-1.2960046,36.8693889,liquor_store
12, Makadara,Viwandani,-1.3112438,36.87347165,4794a01bc5c829404dc56d4e61f0fe3506a54770,Mohii Liquor Store,-1.3244301,36.88224389999999,liquor_store
13, Makadara,Viwandani,-1.3112438,36.87347165,fe3949e891f5e073c752f7f5978b6e1b57306ca8,Magic Gas Suppliers,-1.295774,36.8700343,liquor_store
14, Makadara,Viwandani,-1.3112438,36.87347165,439a37d762b063d5592f3f87b37775a06fb323a9,Riua Enterprises,-1.2953181,36.8742534,liquor_store
15, Makadara,Viwandani,-1.3112438,36.87347165,72de97e240fca464860b4ade46d3d5c0747f9b02,Wholesale Ocampo Wines & Spirits,-1.3078292,36.8890882,liquor_store
16, Makadara,Viwandani,-1.3112438,36.87347165,89f86a34b4320b1ba411298321a61d2a2dad830c,Likabi Ltd Nairobi,-1.2958802,36.86901340000001,liquor_store
17, Makadara,Viwandani,-1.3112438,36.87347165,5e4a2db6ffd62ae2be36768bfef5674af292da77,Big Nation Wines And Spirits,-1.311963,36.88959,liquor_store
18, Makadara,Viwandani,-1.3112438,36.87347165,0bc447f998106042d588e7abe90928f4124a9511,Nike Wines And Spirits,-1.3127805,36.8895454,liquor_store
19, Makadara,Viwandani,-1.3112438,36.87347165,9f908fe70d3f6d10ca121b9b22d7572f6a9b8bb4,Mgk Wines And Spirits,-1.2951217,36.874752,liquor_store
20, Makadara,Viwandani,-1.3112438,36.87347165,e94301f0a34f0ad22f0f0eb17aa6d79caec2ccf2,Stockist Oyster Wines Beer : Spirits : Wine :,-1.3232601,36.8846929,liquor_store
21, Makadara,Viwandani,-1.3112438,36.87347165,8c4373088312518966785619d97bc0a90dacf462,Wine Gallery,-1.3227909,36.8853538,liquor_store
22, Makadara,Viwandani,-1.3112438,36.87347165,8f8433b8ebb5eb98259050a12f6fe35d1f68e431,Benilla Wines & Spirits,-1.3138638,36.8900342,liquor_store
23, Makadara,Viwandani,-1.3112438,36.87347165,5aeb89ccb34385811c56f5b8532d6ebb847d5ba4,Stings wines and spirits,-1.3139366,36.8906683,liquor_store
24, Makadara,Viwandani,-1.3112438,36.87347165,967bac6d0d6213022b99c5ef4679f2b9c68d73d7,The Well Liquor Store,-1.2993016,36.886504,liquor_store
25, Makadara,Viwandani,-1.3112438,36.87347165,8d0237c9401ef69ce30c4d8313027fe849969d89,Double Cheers Liquor Store,-1.3017933,36.8884167,liquor_store
26, Makadara,Viwandani,-1.3112438,36.87347165,0c50cd05a3c89d317f8eb776524cfe3e2de716f6,Kim's Wines and Spirits,-1.314821499999999,36.8908694,liquor_store
27, Makadara,Viwandani,-1.3112438,36.87347165,2e9a756f34df7ddc4cdcdeadf284d6832882dd01,Wells Liquor Store,-1.3011048,36.8881684,liquor_store
28, Makadara,Viwandani,-1.3112438,36.87347165,58adee0bbab9bcfa8023b0e9fd40067bf0ad5a4e,Joy wines and spirits,-1.3147571,36.89100090000001,liquor_store
29, Makadara,Viwandani,-1.3112438,36.87347165,4ba51bebd73cc1b9622ac6fe67c53da72524ef41,Macallan Wines & Spirit,-1.3246912,36.8856854,liquor_store
30, Makadara,Viwandani,-1.3112438,36.87347165,ec9d334f613dc18da42219fe74a30166b6e07011,Imara Wines & Spirits Supplies,-1.3246809,36.8858775,liquor_store
31, Makadara,Viwandani,-1.3112438,36.87347165,df74b9ed19e22ba65a206c6d368856e13edfdcd8,Generation Liquor Store,-1.3025863,36.88960129999999,liquor_store
32, Makadara,Viwandani,-1.3112438,36.87347165,5f8e8ed0eaace7e1bca528915461462071b3aebb,Jawa Wines,-1.3011361,36.8891476,liquor_store
33, Makadara,Viwandani,-1.3112438,36.87347165,00939e7adcc0bf4fe68c9fec620dff509fd7c3a6,Liberty Wines & Spir,-1.3228269,36.8881522,liquor_store
34, Makadara,Viwandani,-1.3112438,36.87347165,2f1306555e3278bde83bc2e48f717d2f07b8d75f,Vuvuzela Wines And Spirits,-1.3096274,36.89230979999999,liquor_store
35, Makadara,Viwandani,-1.3112438,36.87347165,d4256b17c04b9c85e1abc1d8c5c4157fd36bb1ce,Julzjah Wines & Spirit,-1.3175125,36.8555809,liquor_store
36, Makadara,Viwandani,-1.3112438,36.87347165,3bb9d925582092e2a05e08c3a978ab054efac16a,Cubes Wines & Spirits,-1.323304,36.8882331,liquor_store
37, Makadara,Viwandani,-1.3112438,36.87347165,94c432121e8ca885ee09f688e7c2b56875e91291,Wings Wines & Spirits,-1.323304,36.8882331,liquor_store
38, Makadara,Viwandani,-1.3112438,36.87347165,afeaab236ece069dd896bf30096c5de1325814ae,Miky Wines & Spirits.,-1.3017804,36.89012029999999,liquor_store
39, Makadara,Viwandani,-1.3112438,36.87347165,78cf0c36c806190fe246cd785f4566e8fa17e53a,Levins Wines & Spirits,-1.2937154,36.8656548,liquor_store
40, Makadara,Viwandani,-1.3112438,36.87347165,9d996f0717c570a986cea57f6bb6651caa08b744,Miami Stores & Spirits,-1.3232021,36.8885174,liquor_store
41, Makadara,Viwandani,-1.3112438,36.87347165,f179183f7be70e76e6e51d6a9666c17dded10c7a,California Ribs Wines and Spirits,-1.3162668,36.89206569999999,liquor_store
42, Makadara,Viwandani,-1.3112438,36.87347165,b4cadbd055dc72f0ec0f618e5e8daf7e77bae4ea,Anasty Wines & Spirits,-1.3015232,36.8901782,liquor_store
43, Makadara,Viwandani,-1.3112438,36.87347165,df98334ad0c705db8b10aea6ac4d65ecd2de8fa3,Annex Marish Wines & Spririts,-1.2940044,36.86435720000001,liquor_store
44, Makadara,Viwandani,-1.3112438,36.87347165,57daf815792270afe2f4346d95300f70b475bdb5,Mercyjane Wines & Spirits,-1.3234969,36.8886711,liquor_store
45, Makadara,Viwandani,-1.3112438,36.87347165,76324941707aff65e683cc905fa06daa3d8f02c5,Wema Wines And Spirits,-1.3165842,36.8922907,liquor_store
46, Makadara,Viwandani,-1.3112438,36.87347165,ae28cf71aeb402015c35db7913b0c666c7d22117,Rojal Ton Wines And Spirits,-1.3165627,36.89240059999999,liquor_store
47, Makadara,Viwandani,-1.3112438,36.87347165,1990700f3cfb47afc11e578d4e596d98543bf4eb,D. K Wines & Spirits,-1.2934246,36.8650555,liquor_store
48, Makadara,Viwandani,-1.3112438,36.87347165,f98203c77759d59e53a2b5b5ec5a5d671fc9286f,Counsellar Wines & Spirits,-1.3238017,36.8888074,liquor_store
49, Makadara,Viwandani,-1.3112438,36.87347165,863137ec440c65d9ce4ba6e8fbf7280359e5abd5,Oxygen Wines & Spirits,-1.3238017,36.8888074,liquor_store
50, Makadara,Viwandani,-1.3112438,36.87347165,077ffaac431ac3ff9712201408bc57e5d7a87ed0,Freno B,-1.324187,36.888541,liquor_store
51, Makadara,Viwandani,-1.3112438,36.87347165,a13ecd48f2cb5becc78b3ad0dc27012136b42018,Sweet Valley,-1.2996793,36.88985479999999,liquor_store
52, Makadara,Viwandani,-1.3112438,36.87347165,819d571089581919931ad4dd730a2df4d4b8804e,Valandy Wines,-1.2991386,36.88973169999999,liquor_store
53, Makadara,Viwandani,-1.3112438,36.87347165,1d9c0490871b92ba719bfcaacfc84718347871bc,Peer Wines,-1.2995185,36.890012,liquor_store
54, Makadara,Viwandani,-1.3112438,36.87347165,f2f4828e78b0573a99e7936f624800836a60c10a,Spikes Wines And Spirits,-1.2992321,36.8899189,liquor_store
55, Makadara,Viwandani,-1.3112438,36.87347165,ea18b63133a78c156c3aa869d6d3c6ed19c0b556,Menta Wines,-1.2947851,36.8614174,liquor_store
56, Makadara,Viwandani,-1.3112438,36.87347165,161bb04acfe04fcb2fd99686347cf1ba24a9c5f7,Menta Agencies Limited,-1.294764,36.861345,liquor_store
57, Makadara,Viwandani,-1.3112438,36.87347165,55d45844d3e48c984d2da54890467770a5a6c1d2,Bluerock Wines and Spirits,-1.3176799,36.8929455,liquor_store
58, Makadara,Viwandani,-1.3112438,36.87347165,f4e8032af72252283d1884591a47542294905a5c,Harmony Wines And Spirits,-1.2994017,36.8903272,liquor_store
59, Makadara,Viwandani,-1.3112438,36.87347165,519f66233c0f830993e11215d0ccbb3449e4ec72,Our Liqour Place,-1.2994017,36.8903272,liquor_store
