,constituency,ward,clat,clon,place_id,place_name,place_lat,place_long,place_type
0, Embakasi Central,Spring Valley,-1.2477029,36.789235600000005,5026c28bda9d16005b6ac12adb1bab6025cd4134,Chandarana Foodplus Supermarkets (ABC Place Branch),-1.259836,36.777153,liquor_store
1, Embakasi Central,Spring Valley,-1.2477029,36.789235600000005,a349f5ed0c32218b082a30a770a11766d6ee5292,Business Promotional Solution,-1.2693224,36.8087976,liquor_store
2, Embakasi Central,Spring Valley,-1.2477029,36.789235600000005,c81b72c53c00e4eef69cb31eeff2bd8f4b22b009,California Wines by Rose,-1.261057,36.8038835,liquor_store
3, Embakasi Central,Spring Valley,-1.2477029,36.789235600000005,529a069dba199a571109c5c50bd0eceef0489212,Liv Vin Wine Shop,-1.2328643,36.8072531,liquor_store
4, Embakasi Central,Spring Valley,-1.2477029,36.789235600000005,5a5222b3a4ac637a0d59343a73500decf1de0e75,Mpaka Road Wine & Liquor,-1.2644593,36.8055272,liquor_store
5, Embakasi Central,Spring Valley,-1.2477029,36.789235600000005,1052ba3f289a738f87e984edc61d1d8209b7250b,Slater & Whittaker,-1.2673286,36.8064362,liquor_store
6, Embakasi Central,Spring Valley,-1.2477029,36.789235600000005,7a9bef5a87805ae08db8c578ce5e04fe5f272aeb,Chandarana Foodplus Supermarket (Lavington Branch),-1.2799422,36.7707551,liquor_store
7, Embakasi Central,Spring Valley,-1.2477029,36.789235600000005,7abae353f3d2f3d4d1642ced8161aeb72cd6bcca,Nectar Wines And Spirits,-1.2068222,36.7839779,liquor_store
8, Embakasi Central,Spring Valley,-1.2477029,36.789235600000005,8fa21717c3f2f2af89a32cef35459d83249f0217,Urban WineHouse,-1.2815,36.8172535,liquor_store
9, Embakasi Central,Spring Valley,-1.2477029,36.789235600000005,f8598fe5e6e86e36d62fcc712d1854c0b62dd7c1,Nairobi Alcohol Delivery-Drinks Delivery Kenya,-1.280676,36.819278,liquor_store
10, Embakasi Central,Spring Valley,-1.2477029,36.789235600000005,81199c1165b5ec0c1ac407d530c3427adfd91576,Sixty Three Wines & Spirits,-1.236303,36.793131,liquor_store
11, Embakasi Central,Spring Valley,-1.2477029,36.789235600000005,be242074b072a23f700ef99567318231e91c3fc5,Le Decanter,-1.2595191,36.7774884,liquor_store
12, Embakasi Central,Spring Valley,-1.2477029,36.789235600000005,9f9c35edc88310ad419406494c9a9a726b6a50f3,Pantry & Provisions,-1.2646745,36.7922626,liquor_store
13, Embakasi Central,Spring Valley,-1.2477029,36.789235600000005,908b6931270cdcf115e9edf004d00320a66336b0,Monty's Kenya Limited,-1.2610325,36.8019788,liquor_store
14, Embakasi Central,Spring Valley,-1.2477029,36.789235600000005,3f4207fe4a1427578bbe2dff1263a4b0760ff715,Liquor Pap,-1.2608435,36.80362909999999,liquor_store
15, Embakasi Central,Spring Valley,-1.2477029,36.789235600000005,41beb4a2737fb62cd1db2d4c67a54393a08e0762,Jumia Food,-1.261753,36.805716,liquor_store
16, Embakasi Central,Spring Valley,-1.2477029,36.789235600000005,0bd8f8dd1e4d115f955909675c2a53b93db5add8,Shottaz Liqour Store,-1.2635971,36.8039514,liquor_store
17, Embakasi Central,Spring Valley,-1.2477029,36.789235600000005,d39131db62c405fb83df44f112202f1d82081d73,Okolea Wines and Spirits,-1.2640547,36.80442720000001,liquor_store
18, Embakasi Central,Spring Valley,-1.2477029,36.789235600000005,9b5b64c0e42beb2bb37a2c4d9f86bd50367a3e27,Container,-1.2635677,36.8054384,liquor_store
19, Embakasi Central,Spring Valley,-1.2477029,36.789235600000005,47e482ba5a5ceb582346a484e9415e0cdfdf6177,Kims Base,-1.2642843,36.8058588,liquor_store
20, Embakasi Central,Spring Valley,-1.2477029,36.789235600000005,af81a7100f7af2e1d2f0929a14e84c50523e6dbd,Village Cellar,-1.229793,36.8045435,liquor_store
21, Embakasi Central,Spring Valley,-1.2477029,36.789235600000005,a1205b79eba441a83c76b1daa4f9b0730389cbd4,J U I C E B O X,-1.2376255,36.81086579999999,liquor_store
22, Embakasi Central,Spring Valley,-1.2477029,36.789235600000005,e80e26f9b00901eec1034aa64b116190af53833d,Highbury Liquor Shop,-1.270669,36.798453,liquor_store
23, Embakasi Central,Spring Valley,-1.2477029,36.789235600000005,b58ed040044317ad29935176ad107f2abaf1e7fb,Wines & Bubbles,-1.2706649,36.7986449,liquor_store
24, Embakasi Central,Spring Valley,-1.2477029,36.789235600000005,4031481126027b0645c72ba544beb1f9d3c6e50c,Nyari West Liquor Shop,-1.2216251,36.779889,liquor_store
25, Embakasi Central,Spring Valley,-1.2477029,36.789235600000005,697c1ead1881cb0bf490ca030d1b59a33573f3fb,Uva Wines Kenya,-1.2627764,36.765291,liquor_store
26, Embakasi Central,Spring Valley,-1.2477029,36.789235600000005,8d8f0b6c0435e4d66d04d680088f2493a4f83088,Jomuki Wines And Spirits,-1.2206765,36.77785079999999,liquor_store
27, Embakasi Central,Spring Valley,-1.2477029,36.789235600000005,36a2cb8135e61f0294eb939b62958abb734d7a5a,Nairobi Wine Delivery & Distribution 0708737483,-1.2695587,36.8088542,liquor_store
28, Embakasi Central,Spring Valley,-1.2477029,36.789235600000005,a32ca00e0571e2cfe5d350710244a468e03fb454,Nairobi Wines Delivery Services 0708737483,-1.2695587,36.8088542,liquor_store
29, Embakasi Central,Spring Valley,-1.2477029,36.789235600000005,e8e67ace82a06cb9cf84ceb283c4674c807ff658,The whisky Farm - Waiyaki way,-1.2634734,36.7635665,liquor_store
30, Embakasi Central,Spring Valley,-1.2477029,36.789235600000005,5c6785884a00a7b666154cd56bed1c64de79e046,Chemichemi Wines & Spirits,-1.2584167,36.818565,liquor_store
31, Embakasi Central,Spring Valley,-1.2477029,36.789235600000005,1bf4b660f0a9dfd442c6e84a4a99c828badfce03,Nyawa Agencies,-1.2583784,36.81858640000001,liquor_store
32, Embakasi Central,Spring Valley,-1.2477029,36.789235600000005,41fb3dcac269e4eaeb45eae7c90cbdee3b465b3f,Liquorama,-1.2793282,36.78983100000001,liquor_store
33, Embakasi Central,Spring Valley,-1.2477029,36.789235600000005,c86f76801afab021125b78507f16a41fc03c30cc,Classic Wines And Spirits,-1.2181259,36.77785650000001,liquor_store
34, Embakasi Central,Spring Valley,-1.2477029,36.789235600000005,028a94bdba5499943f72617e9dbd34af82d94524,Sikoka Wines and Spirits,-1.2516445,36.7564934,liquor_store
35, Embakasi Central,Spring Valley,-1.2477029,36.789235600000005,cdad1ed9c55ed28006e25d29e1e62374d8239fc2,Chandarana Foodplus Supermarket (Rosslyn Branch),-1.2160248,36.7997667,liquor_store
36, Embakasi Central,Spring Valley,-1.2477029,36.789235600000005,30bf53b881d661d2006d2a844d730da3230fc216,Sheridans Wines & Spirits Shop,-1.2192965,36.7658339,liquor_store
37, Embakasi Central,Spring Valley,-1.2477029,36.789235600000005,dade1f475d1db2d0e63e128b9d7fa04ef0c3c311,Heven Wines & Spirits Lavington Green,-1.279795,36.770344,liquor_store
38, Embakasi Central,Spring Valley,-1.2477029,36.789235600000005,1553300f41bfa08de71668d6b2a8ca5568c672d6,Makkin,-1.2801679,36.7704715,liquor_store
39, Embakasi Central,Spring Valley,-1.2477029,36.789235600000005,f624b309c7fda64225ca53c793a8c784ce1e0fe4,Nector Wines & Spirits,-1.2090802,36.7881103,liquor_store
40, Embakasi Central,Spring Valley,-1.2477029,36.789235600000005,a8f1f89673b86fffff8b68b3c61902721b05557e,Steg Wines & Spirits,-1.2088355,36.7877847,liquor_store
41, Embakasi Central,Spring Valley,-1.2477029,36.789235600000005,abc6d1b3866a30ccb653c61cda9254cfeffe289e,Unite Wine & Spirits,-1.2076703,36.7861566,liquor_store
42, Embakasi Central,Spring Valley,-1.2477029,36.789235600000005,eb833a87e55d4a8aef37e0000c4e3926fc8820c2,Eliwah Wines & Spirits,-1.2759896,36.7604462,liquor_store
43, Embakasi Central,Spring Valley,-1.2477029,36.789235600000005,97129fbfa33f8b5d2d7a3c01f7e5d90b9378dc86,Peers Wines & Spirits,-1.2073583,36.784957,liquor_store
44, Embakasi Central,Spring Valley,-1.2477029,36.789235600000005,d1274e6d5dbb6380b30fa30e07ab9ad024a9518b,Meru County Veve Base,-1.2727121,36.8215782,liquor_store
45, Embakasi Central,Spring Valley,-1.2477029,36.789235600000005,e3af850da891d51743770334973848fbc8313b22,Liquor Shop,-1.2071419,36.7829316,liquor_store
46, Embakasi Central,Spring Valley,-1.2477029,36.789235600000005,e3969c6a1ef12ecb11369034b47540617f3615b9,Caravan Wines & Spirits,-1.2067519,36.7824525,liquor_store
47, Embakasi Central,Spring Valley,-1.2477029,36.789235600000005,46a22bd4b1864906012b139ad89ba43fa3767bba,Mimiroes Wines and Spirits,-1.2749278,36.8209057,liquor_store
48, Embakasi Central,Spring Valley,-1.2477029,36.789235600000005,63eeb6368db3e96c264879c91a62583970248f3c,Dallas Wine & Spirit,-1.276802,36.7588132,liquor_store
49, Embakasi Central,Spring Valley,-1.2477029,36.789235600000005,d85c03be1b80fe245ab0f5e5e140b4ad2ab88ce3,CARAVAN WINES & SPIRITS,-1.2059806,36.7803614,liquor_store
50, Embakasi Central,Spring Valley,-1.2477029,36.789235600000005,e2d262851c4d90aea5f27a96a833f770df4b3fac,All Joy Wines & Spirits,-1.2669186,36.75081249999999,liquor_store
51, Embakasi Central,Spring Valley,-1.2477029,36.789235600000005,a5d6d5be5eee4992c40368005e1c9609da6e0bbe,Ocean Liquor,-1.2653608,36.7495831,liquor_store
52, Embakasi Central,Spring Valley,-1.2477029,36.789235600000005,b333568692e612918de9f42de3c838f24f63fcb4,Wine House,-1.2743458,36.8236375,liquor_store
53, Embakasi Central,Spring Valley,-1.2477029,36.789235600000005,42dc5cea280060353f57f043d9774702c5549c22,Legacy Liqour Store,-1.2880981,36.7713756,liquor_store
54, Embakasi Central,Spring Valley,-1.2477029,36.789235600000005,4c85780d640b18b0ae001907321beec8a73082cb,HB Wines & Spirits,-1.2812818,36.8179709,liquor_store
55, Embakasi Central,Spring Valley,-1.2477029,36.789235600000005,5b2e23830c93cf86d89a27004e5fe644b853021b,Drinkport Wines & Spirits,-1.2791591,36.82030749999999,liquor_store
56, Embakasi Central,Spring Valley,-1.2477029,36.789235600000005,5df2c18de07aea24081e72a2199931195a51134a,Blue Berry Wines & Spirits,-1.2791591,36.82030749999999,liquor_store
57, Embakasi Central,Spring Valley,-1.2477029,36.789235600000005,bfe36f22d6dc0d56d2efb4f70a58c14ab26abac6,Sasawa Wines & Spirits,-1.2791591,36.82030749999999,liquor_store
58, Embakasi Central,Spring Valley,-1.2477029,36.789235600000005,160b463e24c9613452db9e8d192ac1b450ee507f,Dial a Delivery - Alcohol Delivery,-1.2829689,36.8162694,liquor_store
59, Embakasi Central,Spring Valley,-1.2477029,36.789235600000005,6ff13290cf6426ff03c02e1b0e4675c1e1b4db40,Peers Wines & Spirits,-1.205015,36.77560700000001,liquor_store
