,constituency,ward,clat,clon,place_id,place_name,place_lat,place_long,place_type
0, Ruaraka,Babadogo,-1.2433103,36.8910881,b49ec2b0d22397829d7f07fb680867e74567a668,Co-op Kwa Jirani Bera Supermarket,-1.2425,36.9073,supermarket
1, Ruaraka,Babadogo,-1.2433103,36.8910881,b96d138272ee3d1ec60c12e9738dd6e9695fba0f,Naivas Mountain mall,-1.2326904,36.8736154,supermarket
2, Ruaraka,Babadogo,-1.2433103,36.8910881,ca6d3fc04183b979e16c3463919428879f35653b,Liquor City Limited,-1.219877,36.889034,supermarket
3, Ruaraka,Babadogo,-1.2433103,36.8910881,cb3669a104b0fe63208ed56072fa836901a46c80,Njonde Supermarket,-1.2531937,36.8670914,supermarket
4, Ruaraka,Babadogo,-1.2433103,36.8910881,874a2a9fe9645d40c5017316342bd8f120f2a488,Powerstar Supermarket Kasarani,-1.2175647,36.89678500000001,supermarket
5, Ruaraka,Babadogo,-1.2433103,36.8910881,5e6db9b537ad329c2407e0376ad1b2f89d24e82a,Naivas Supermarket - Komarock,-1.2684944,36.9084173,supermarket
6, Ruaraka,Babadogo,-1.2433103,36.8910881,e12d9b3a78dd240e06affc849ad4c043a2d08434,Naivas Supermarkets,-1.2697235,36.9130754,supermarket
7, Ruaraka,Babadogo,-1.2433103,36.8910881,cf3dd9e4f934846dc7a1aee0dfdb1c6848be5b85,Airtel Money Agent-Cleanshelf Supermarket Limited,-1.210542,36.8976626,supermarket
8, Ruaraka,Babadogo,-1.2433103,36.8910881,fed13efd87acb2b745897e9d69b6d8c3d077ea9c,Stewel Super Market,-1.2796694,36.8977802,supermarket
9, Ruaraka,Babadogo,-1.2433103,36.8910881,797d88321d064cb859f164b55003d4ac5740c1fa,Jossics Supermarket,-1.2763486,36.9088271,supermarket
10, Ruaraka,Babadogo,-1.2433103,36.8910881,f7f105f60677d8052db7eb8092dc012db847bc81,Greenmart Supermarket,-1.276119,36.9137809,supermarket
11, Ruaraka,Babadogo,-1.2433103,36.8910881,e0b0187eb491fb16978b3431f67f11fe7560fea4,Nakumatt Supermarket Ltd,-1.2809934,36.905812,supermarket
12, Ruaraka,Babadogo,-1.2433103,36.8910881,2a242865f82920a75c6264b5e03b5fceccefea72,Patmac Enterprises,-1.2867774,36.889349,supermarket
13, Ruaraka,Babadogo,-1.2433103,36.8910881,bad9e504d33db09b77f66d0b3d6ade20190a276e,Jeska Supermarket,-1.2877354,36.8914605,supermarket
14, Ruaraka,Babadogo,-1.2433103,36.8910881,fe662313912ca674846145e0ce4074ebbd288a35,Sowematt Supermarket,-1.2810765,36.9147622,supermarket
15, Ruaraka,Babadogo,-1.2433103,36.8910881,679e3be1edfa7b7aff341162c952489285a518e3,Naivas Supermarket - Kasarani,-1.2187615,36.8959174,supermarket
16, Ruaraka,Babadogo,-1.2433103,36.8910881,4f797c9132542c1ac031ef39fa452c86691d76a2,Naivas Supermarket - Ruaraka,-1.2477401,36.8725955,supermarket
17, Ruaraka,Babadogo,-1.2433103,36.8910881,c13bfd4139f7c8aa9e0d1ad3671c682cd650db9c,Vineworld Supermarket,-1.240217,36.8957577,supermarket
18, Ruaraka,Babadogo,-1.2433103,36.8910881,ba4851d77d8b653b842d4d856c0f05775f921629,REDBULL KENYA BABA DOGO OFFICE,-1.2455469,36.88443580000001,supermarket
19, Ruaraka,Babadogo,-1.2433103,36.8910881,e537d74c29ae27cb35a021a7e0b02a55b58c0dfb,Happy view supermarket,-1.239597,36.8977446,supermarket
20, Ruaraka,Babadogo,-1.2433103,36.8910881,30f41c58245f91c019c368f430cd5a1f56ee12e3,Lucky Mini Mart Retail & Whole Sale,-1.2395848,36.898021,supermarket
21, Ruaraka,Babadogo,-1.2433103,36.8910881,6d4bac1fea77a768881d7552476789766a94637a,Zawadi Supermarket,-1.2390196,36.9002817,supermarket
22, Ruaraka,Babadogo,-1.2433103,36.8910881,b7aad7d058d27ea4eee6aeb5760ee8b4737abd43,Canaan supermarket,-1.2545674,36.8927979,supermarket
23, Ruaraka,Babadogo,-1.2433103,36.8910881,cc414db2c5a45bd6f212950443eb21916d4d56ad,Mweru Supermarket,-1.2547158,36.8929649,supermarket
24, Ruaraka,Babadogo,-1.2433103,36.8910881,7e6d7ee51bde73defc12d21d2ae46705356744cf,Dimca Supermarket,-1.2549049,36.8924033,supermarket
25, Ruaraka,Babadogo,-1.2433103,36.8910881,59b882b882cd80fc570a4390c9f95e9c5a51f2bb,Happyland Mini Supermarket,-1.256134,36.8934061,supermarket
26, Ruaraka,Babadogo,-1.2433103,36.8910881,36635a0fd77c765f9b4775a6551d75d835688172,Nasa Pick& Pay Supermarket,-1.2323156,36.8838447,supermarket
27, Ruaraka,Babadogo,-1.2433103,36.8910881,e284068089e3f374c0d4d6dcd9e69c3876dfdded,Kimsa Supermarket,-1.2319724,36.8839252,supermarket
28, Ruaraka,Babadogo,-1.2433103,36.8910881,9370ecbeafedd9155f7c23304f6ff6b88ab3aa1c,Tigers supermarket kariobangi North,-1.2559552,36.8827936,supermarket
29, Ruaraka,Babadogo,-1.2433103,36.8910881,fa3b655f665cedda9f06ed14f08aa805195e8830,Karia Supermarket Phase 4,-1.243846,36.906265,supermarket
30, Ruaraka,Babadogo,-1.2433103,36.8910881,6e45138dfa7dcdbd15e2756716d4a36a67b8fd4e,Karia Supermarkets,-1.2594498,36.8895749,supermarket
31, Ruaraka,Babadogo,-1.2433103,36.8910881,26cdad9a6b22f195b089e2835d78a40dff5ce4a7,Realmatt Supermarket Dandora,-1.2452025,36.90863939999999,supermarket
32, Ruaraka,Babadogo,-1.2433103,36.8910881,c0274c46f8d58e66b19edbc3b8679b5518a13af8,Select Supermarket,-1.2429267,36.9090146,supermarket
33, Ruaraka,Babadogo,-1.2433103,36.8910881,6a31adfac666f2fde64d6023b14a3b8916f5a2a9,BS Supermarket,-1.257682,36.8799759,supermarket
34, Ruaraka,Babadogo,-1.2433103,36.8910881,22038410f6b666e0122a7e15cfb8c21502c4a042,Neo Luckystar Supermarket,-1.2511165,36.8739668,supermarket
35, Ruaraka,Babadogo,-1.2433103,36.8910881,781556a925e28b2eaa8ce79cb99b9a3edb3272c2,Naivas,-1.2476927,36.872455,supermarket
36, Ruaraka,Babadogo,-1.2433103,36.8910881,b2218933f7ef8911c7431d616722e89a7a73b3d7,Joakim supermkt,-1.2440422,36.9106561,supermarket
37, Ruaraka,Babadogo,-1.2433103,36.8910881,5d4a4bb07a6b6c683e7ddf8407041c74dc5dcbab,Dado Matt Supermkt,-1.2438465,36.9108224,supermarket
38, Ruaraka,Babadogo,-1.2433103,36.8910881,8a23befa34ea199bfe156d630684cf9e9a7fce02,Naivas HomeLand Supermarket,-1.2326803,36.8736899,supermarket
39, Ruaraka,Babadogo,-1.2433103,36.8910881,5a677e8686b2ad685bd6e1dfc78b34db6291243c,Naivas Supermarket - Mountain Mall Branch,-1.2326401,36.8734297,supermarket
40, Ruaraka,Babadogo,-1.2433103,36.8910881,c3e94f71e0dc449b7d8be84e18c0ec3e3c5c8236,Afral Agencies,-1.249632,36.8712561,supermarket
41, Ruaraka,Babadogo,-1.2433103,36.8910881,694e7ecacddd133849d4bfb016c8abeb7a681f20,Quick Mart Jipange,-1.2334352,36.8727706,supermarket
42, Ruaraka,Babadogo,-1.2433103,36.8910881,27a1bf7d3239ded849adcf927206cc6ecf8d844d,Tumaini Supermarket,-1.233456,36.8727323,supermarket
43, Ruaraka,Babadogo,-1.2433103,36.8910881,8cabc82d378c21c0cb1d49de07d952297905edc7,Quickmart Roasters,-1.2335096,36.8726891,supermarket
44, Ruaraka,Babadogo,-1.2433103,36.8910881,4f74dc27d87406375a92e30f3e1e18705a732a1b,Ithanga supermkt,-1.2525937,36.8723112,supermarket
45, Ruaraka,Babadogo,-1.2433103,36.8910881,ace982bdd316472c1850df7d057b0604ecb8999a,Fair Matt Stores Supermarket,-1.2525776,36.87230179999999,supermarket
46, Ruaraka,Babadogo,-1.2433103,36.8910881,88ed6da4960bcfc9ad312983febc0d32b116d76b,Hillmart Supermarket,-1.2630189,36.8839681,supermarket
47, Ruaraka,Babadogo,-1.2433103,36.8910881,6376b5cb698047ab7ce0228c43c732cbbff868f7,Mathare Economy Supermkt,-1.2526206,36.8721557,supermarket
48, Ruaraka,Babadogo,-1.2433103,36.8910881,aa0d3124dcebb826adb0e2cd0971f139637edce0,Marymatt supermarket,-1.2631589,36.8839019,supermarket
49, Ruaraka,Babadogo,-1.2433103,36.8910881,b7d4be256a74224ec37c3606aab22abbf45f8c90,Mid - Way Self Selection,-1.2632465,36.8840425,supermarket
50, Ruaraka,Babadogo,-1.2433103,36.8910881,46ee9a24fa0a178dcc2ee83f6e0a0fcd53d10524,North Line Supermarket,-1.2513709,36.8711337,supermarket
51, Ruaraka,Babadogo,-1.2433103,36.8910881,57864de10141ebc23da35e1a2f5b8afe84ae1b95,Cornerstone Supermart,-1.2638626,36.8845119,supermarket
52, Ruaraka,Babadogo,-1.2433103,36.8910881,3758694af7b086c527a6eadef297e7bd370ed9be,Multi Supermkt,-1.2564686,36.8738817,supermarket
53, Ruaraka,Babadogo,-1.2433103,36.8910881,d895d3f0abb2075fdc50e58559a80d2edfaf737f,Ansar Supermkt,-1.2562635,36.87360669999999,supermarket
54, Ruaraka,Babadogo,-1.2433103,36.8910881,25b6ed022499d2b0aafe6f992a893e603b0d2d66,Raphaels Supermakets,-1.2620982,36.8796916,supermarket
55, Ruaraka,Babadogo,-1.2433103,36.8910881,2f3e65241165e7478f02579f6789e04d8bac7dea,Baraka Supermarket,-1.2563171,36.8731588,supermarket
56, Ruaraka,Babadogo,-1.2433103,36.8910881,24148355b7244e1f86bc3026903fec7b8f259d9f,Mulika Mini Market,-1.2341577,36.870685,supermarket
57, Ruaraka,Babadogo,-1.2433103,36.8910881,590eb5a49fae2a94914c5d04f9ff6b1a0e01d6be,KMA,-1.2625106,36.8790671,supermarket
58, Ruaraka,Babadogo,-1.2433103,36.8910881,45112e41d7cad182aa248a5e591dbb3120137925,Mungara minisupermkt,-1.2574501,36.8728302,supermarket
59, Ruaraka,Babadogo,-1.2433103,36.8910881,b105c0b8f71e1599bb1ab1c2299b10bf49662d93,Rafiki Minimarket,-1.2568172,36.87230589999999,supermarket
