,constituency,ward,clat,clon,place_id,place_name,place_lat,place_long,place_type
0, Mathare,Mlango Kubwa,-1.2658072,36.8456235,fa4a7dc57dbd71cdf4e3989469f031450dadcb61,Royal Snacks Ltd,-1.2591663,36.8156131,supermarket
1, Mathare,Mlango Kubwa,-1.2658072,36.8456235,91ffc5aeb1c663a9e639c68d06cc46bb480fc523,Tuskys Supermarket (OTC),-1.2849705,36.8313603,supermarket
2, Mathare,Mlango Kubwa,-1.2658072,36.8456235,9785bda87ebcac70d42a892ed8c950de23fc384c,Tuskys Supermarket,-1.2874505,36.8285265,supermarket
3, Mathare,Mlango Kubwa,-1.2658072,36.8456235,577a86324b4da1a8c62412819c2006a57a9c5c23,Tuskys,-1.2863862,36.8267929,supermarket
4, Mathare,Mlango Kubwa,-1.2658072,36.8456235,3e9b868d27b35375dd8f2b8f70937b00b3ddd83a,Chandarana Foodplus Supermarket (Diamond Plaza Branch),-1.258195,36.818533,supermarket
5, Mathare,Mlango Kubwa,-1.2658072,36.8456235,7a48666a4c385b5d3a8b58fe13dd54e1d8d94aa5,Chandarana Foodplus Supermarket mobil plaza muthaigaBranch),-1.2610042,36.8392251,supermarket
6, Mathare,Mlango Kubwa,-1.2658072,36.8456235,881bb9470c48c9ba77a525fb8415d8a273d489cf,Chandarana Supermarket,-1.2741709,36.8191247,supermarket
7, Mathare,Mlango Kubwa,-1.2658072,36.8456235,268eac73b384d4a3a33af4e7e326b64b379e78f0,Kid's Camp Ltd,-1.2841321,36.83262930000001,supermarket
8, Mathare,Mlango Kubwa,-1.2658072,36.8456235,f4615defee85dcfc9f299dee74114dcdf9525ae6,Tuskys Supermarket (Chap Chap Nairobi),-1.283148,36.819868,supermarket
9, Mathare,Mlango Kubwa,-1.2658072,36.8456235,01ffcd1f20e0400f2f6a733a16f5b353ed5766ec,Chandarana Foodplus Supermarket (Ngara Branch),-1.274228,36.8192,supermarket
10, Mathare,Mlango Kubwa,-1.2658072,36.8456235,6efeda5e9daf2af5c516eaded8364b88f8ad4ba0,Rumorth Group of Companies. Ltd,-1.28217,36.8285606,supermarket
11, Mathare,Mlango Kubwa,-1.2658072,36.8456235,c770c42c686cbaf24ad75a111c6a6e2d3148811b,Chandarana Foodplus Supermarket (Highridge Branch),-1.25938,36.8178724,supermarket
12, Mathare,Mlango Kubwa,-1.2658072,36.8456235,cb3669a104b0fe63208ed56072fa836901a46c80,Njonde Supermarket,-1.2531937,36.8670914,supermarket
13, Mathare,Mlango Kubwa,-1.2658072,36.8456235,95d16199ee9ebcc319b04e4fab7eb7a88aa52818,A-Plus Motors Ltd Parklands Branch,-1.258883,36.822474,supermarket
14, Mathare,Mlango Kubwa,-1.2658072,36.8456235,b3f256614735540a1c9ff354eda7aed486d94346,Tuskys Building,-1.2846446,36.8272648,supermarket
15, Mathare,Mlango Kubwa,-1.2658072,36.8456235,8351eb5c1c566388ee21136a7e689bb004a66950,EastMatt Mfangano Supermarket,-1.2880317,36.8286227,supermarket
16, Mathare,Mlango Kubwa,-1.2658072,36.8456235,caaed20f0bce54e20953cd1bd6e2018156150dd0,Ujazi Enterprises,-1.2834232,36.8238601,supermarket
17, Mathare,Mlango Kubwa,-1.2658072,36.8456235,1373fbe19df6aaaf447eaabad7620f374689127b,FoodPlus Two Rivers Mall,-1.283029,36.821789,supermarket
18, Mathare,Mlango Kubwa,-1.2658072,36.8456235,7196e8fb10171cbed0e135e0948c7cc58dc31f2d,Uchumi Supermarket,-1.287405,36.82541399999999,supermarket
19, Mathare,Mlango Kubwa,-1.2658072,36.8456235,09db237f711c0a5a1d8f1bf592c205ac60c8388c,Tuskys Chap Chap,-1.2831612,36.8199386,supermarket
20, Mathare,Mlango Kubwa,-1.2658072,36.8456235,ae08191c7e4fa31bf175a1413f9cdaf9f6abafc2,Uchumi Supermarket,-1.295784,36.8607814,supermarket
21, Mathare,Mlango Kubwa,-1.2658072,36.8456235,8714fb1ac450c307a533c64d6c0f45b2d3e70127,Ujazi,-1.2920659,36.82194619999999,supermarket
22, Mathare,Mlango Kubwa,-1.2658072,36.8456235,23fe9f8b1be0e81256ee03723c52704474a88e40,M-Pesa Nakumat Mega Supermarket,-1.2909194,36.8198268,supermarket
23, Mathare,Mlango Kubwa,-1.2658072,36.8456235,52665fc527b079de189ffc9c60475ab1d02236dc,Tuskys Buruburu Supermarket,-1.2871643,36.8808933,supermarket
24, Mathare,Mlango Kubwa,-1.2658072,36.8456235,a459264a8143bf6c6750890fee23cc8e9eee6aa4,House Of Leather & Gifts Lifestyle,-1.2613514,36.80382669999999,supermarket
25, Mathare,Mlango Kubwa,-1.2658072,36.8456235,39ce3210c0bdfb6929c531dbb3c18b740f8395e0,Nakumatt,-1.2596318,36.8184324,supermarket
26, Mathare,Mlango Kubwa,-1.2658072,36.8456235,f668d16a9aee6dfdcd7621e277fc91b69889f12a,Naivas Supermarket - Westlands,-1.2647819,36.8026876,supermarket
27, Mathare,Mlango Kubwa,-1.2658072,36.8456235,b96d138272ee3d1ec60c12e9738dd6e9695fba0f,Naivas Mountain mall,-1.2326904,36.8736154,supermarket
28, Mathare,Mlango Kubwa,-1.2658072,36.8456235,a57eec6ace640cd09d02c8b0a54e2787acd23b91,Tuskys Supermarket (Pioneer),-1.288539,36.826684,supermarket
29, Mathare,Mlango Kubwa,-1.2658072,36.8456235,9b6944beefb7ee0f2e6f20756acfd55dd95a2933,M-Pesa Uchumi Supermarket,-1.2871439,36.8253893,supermarket
30, Mathare,Mlango Kubwa,-1.2658072,36.8456235,a50704affeb125005587388d4f214d69c6959ae7,"Tuskys supermarket-sheikh karume rd, nairobi",-1.285518,36.827706,supermarket
31, Mathare,Mlango Kubwa,-1.2658072,36.8456235,559fa91045d79dcd889dda86cdbbff270affda59,Tuskys Karasha,-1.2848813,36.8197251,supermarket
32, Mathare,Mlango Kubwa,-1.2658072,36.8456235,3f62fdd3c529e8e658621d2c07a7ea609316be5f,Tuskys Supermarket,-1.2832492,36.824246,supermarket
33, Mathare,Mlango Kubwa,-1.2658072,36.8456235,4f797c9132542c1ac031ef39fa452c86691d76a2,Naivas Supermarket - Ruaraka,-1.2477401,36.8725955,supermarket
34, Mathare,Mlango Kubwa,-1.2658072,36.8456235,32708f46d75e7a42865e59aea7f60c1d1053a13b,Wa Carol mini supermarket,-1.2663877,36.84626699999999,supermarket
35, Mathare,Mlango Kubwa,-1.2658072,36.8456235,6cce284df4e78f052cace3b525c70e312d8893a2,Lango Supermarket,-1.267299,36.84414829999999,supermarket
36, Mathare,Mlango Kubwa,-1.2658072,36.8456235,7a415b91f2595e45e201a150c679ffc74265b19b,Tumaini Supermarket,-1.2668395,36.8424007,supermarket
37, Mathare,Mlango Kubwa,-1.2658072,36.8456235,df81cfffb0962d93fe54728848a9ef3b5bcffb42,Dan supermarket,-1.2672217,36.8495286,supermarket
38, Mathare,Mlango Kubwa,-1.2658072,36.8456235,2d0f9afea0e63b07ad29aaa55294306ad31dd746,Kithite mini suprmarket,-1.2692945,36.848233,supermarket
39, Mathare,Mlango Kubwa,-1.2658072,36.8456235,69670255ecf3e64ff969cdc1c6070636bf0fddb7,Mustard Supermarket,-1.2697075,36.8478815,supermarket
