,constituency,ward,clat,clon,place_id,place_name,place_lat,place_long,place_type
0, Embakasi Central,Kayole South,-1.2659842,36.916945500000004,e12d9b3a78dd240e06affc849ad4c043a2d08434,Naivas Supermarkets,-1.2697235,36.9130754,supermarket
1, Embakasi Central,Kayole South,-1.2659842,36.916945500000004,5e6db9b537ad329c2407e0376ad1b2f89d24e82a,Naivas Supermarket - Komarock,-1.2684944,36.9084173,supermarket
2, Embakasi Central,Kayole South,-1.2659842,36.916945500000004,f7f105f60677d8052db7eb8092dc012db847bc81,Greenmart Supermarket,-1.276119,36.9137809,supermarket
3, Embakasi Central,Kayole South,-1.2659842,36.916945500000004,797d88321d064cb859f164b55003d4ac5740c1fa,Jossics Supermarket,-1.2763486,36.9088271,supermarket
4, Embakasi Central,Kayole South,-1.2659842,36.916945500000004,fe662313912ca674846145e0ce4074ebbd288a35,Sowematt Supermarket,-1.2810765,36.9147622,supermarket
5, Embakasi Central,Kayole South,-1.2659842,36.916945500000004,e0b0187eb491fb16978b3431f67f11fe7560fea4,Nakumatt Supermarket Ltd,-1.2809934,36.905812,supermarket
6, Embakasi Central,Kayole South,-1.2659842,36.916945500000004,fed13efd87acb2b745897e9d69b6d8c3d077ea9c,Stewel Super Market,-1.2796694,36.8977802,supermarket
7, Embakasi Central,Kayole South,-1.2659842,36.916945500000004,b49ec2b0d22397829d7f07fb680867e74567a668,Co-op Kwa Jirani Bera Supermarket,-1.2425,36.9073,supermarket
8, Embakasi Central,Kayole South,-1.2659842,36.916945500000004,37a039640f6088f4fefc9f96911fef86b793f6e4,Naivas Supermarket - Eastgate,-1.293916,36.8971609,supermarket
9, Embakasi Central,Kayole South,-1.2659842,36.916945500000004,bad9e504d33db09b77f66d0b3d6ade20190a276e,Jeska Supermarket,-1.2877354,36.8914605,supermarket
10, Embakasi Central,Kayole South,-1.2659842,36.916945500000004,2a242865f82920a75c6264b5e03b5fceccefea72,Patmac Enterprises,-1.2867774,36.889349,supermarket
11, Embakasi Central,Kayole South,-1.2659842,36.916945500000004,52665fc527b079de189ffc9c60475ab1d02236dc,Tuskys Buruburu Supermarket,-1.2871643,36.8808933,supermarket
12, Embakasi Central,Kayole South,-1.2659842,36.916945500000004,8652997cfca2f6989c74c21406117ee6a263bd33,Naivas Supermarket- Donholm,-1.2959188,36.88715860000001,supermarket
13, Embakasi Central,Kayole South,-1.2659842,36.916945500000004,b98f498aac31cbc93fbfa91d8cf113024f6cc866,East E Mart,-1.2661892,36.9159316,supermarket
14, Embakasi Central,Kayole South,-1.2659842,36.916945500000004,95b3d74a09f54b5597f4219d043cd662c4a6ee85,Baraka Mini Supermarket,-1.2637705,36.9177693,supermarket
15, Embakasi Central,Kayole South,-1.2659842,36.916945500000004,63539daf7ab9985b2e5a2fd4b43e8acfccc5083b,Jimwa Self Service,-1.2683271,36.91734350000001,supermarket
16, Embakasi Central,Kayole South,-1.2659842,36.916945500000004,b312acc3a394320b3b57f57e7b335ec900f73948,Wasuwa Mini Supermarket,-1.2636407,36.9175795,supermarket
17, Embakasi Central,Kayole South,-1.2659842,36.916945500000004,ddf886457165c5d25858fa451d463f4a962f141b,Greenmart Supermarket,-1.2678357,36.9194933,supermarket
18, Embakasi Central,Kayole South,-1.2659842,36.916945500000004,c1dbf3cfb4eb2e9b3a59184fba21459ff340b5f1,Asante Supermarket,-1.2637205,36.9140232,supermarket
19, Embakasi Central,Kayole South,-1.2659842,36.916945500000004,f59a11f29fe04ad054f2a6a1dcb114bd800b41ec,Naks Supermarket Kayole,-1.2681667,36.9205517,supermarket
20, Embakasi Central,Kayole South,-1.2659842,36.916945500000004,9f8e31746030661ee742f6d0e51a3715722ab536,Kayole 1 Supermarket,-1.2622796,36.9201672,supermarket
21, Embakasi Central,Kayole South,-1.2659842,36.916945500000004,f7005360af4404c167211902aa189e75f2f1f7e6,Nazarline Supermarket,-1.269981,36.91993920000001,supermarket
22, Embakasi Central,Kayole South,-1.2659842,36.916945500000004,6093d2a9f8e061faf201d8359b6f1fa25126c96c,Fresh Hope Supermarket,-1.2679323,36.9220904,supermarket
23, Embakasi Central,Kayole South,-1.2659842,36.916945500000004,902e0379625b26ffd2c6f188602c5ff53bc775b5,MaxCon Self Service,-1.2685476,36.92182440000001,supermarket
24, Embakasi Central,Kayole South,-1.2659842,36.916945500000004,b074ef4db6c88d9075c4775846cf813607bdf918,Three in One Selection,-1.2684444,36.9219401,supermarket
25, Embakasi Central,Kayole South,-1.2659842,36.916945500000004,0f5b61705c2dd80dc5ecc0e85d0efb7c5587fa28,Spaza King Super Market,-1.2623579,36.9127475,supermarket
26, Embakasi Central,Kayole South,-1.2659842,36.916945500000004,5dba7c9bfd44b1d0588b770c6de0d695da302163,Coolmart Supermarket,-1.2634849,36.92198670000001,supermarket
27, Embakasi Central,Kayole South,-1.2659842,36.916945500000004,f9011a037afd4546965cf3a5199da94206bdaa8c,Three In One Self Selection Supermarket,-1.2662046,36.9225694,supermarket
28, Embakasi Central,Kayole South,-1.2659842,36.916945500000004,315d350934b3f7c0961ace363ca6aa053eb0f055,Kangemi Supermarket,-1.2722134,36.9164798,supermarket
29, Embakasi Central,Kayole South,-1.2659842,36.916945500000004,daefe002e10af698afbd5af4f070440b03340502,Sowematt,-1.2639233,36.92290309999999,supermarket
30, Embakasi Central,Kayole South,-1.2659842,36.916945500000004,2e7e8f905fb728c1aa1cfc5f8759d84a2e4029a6,Jahari's Supremarket,-1.2723193,36.9163102,supermarket
31, Embakasi Central,Kayole South,-1.2659842,36.916945500000004,41fb645b5f2e996f752ebadca2e5afbae2a8fbc5,Jaharis Supermarket,-1.2723169,36.9162474,supermarket
32, Embakasi Central,Kayole South,-1.2659842,36.916945500000004,d10fb318bbfc4b8140d7672ddd3998bba2a9ae1d,Olimpia Supermarket,-1.2727751,36.91772099999999,supermarket
33, Embakasi Central,Kayole South,-1.2659842,36.916945500000004,7964d6e611af3a837a531932fd7fe3a4bf25256c,Maryland Supermarket,-1.2648578,36.90929850000001,supermarket
34, Embakasi Central,Kayole South,-1.2659842,36.916945500000004,bb587ee096c4fa61c93b91a6d1db579ff18a4571,Naivas Express Saika,-1.2580374,36.9164816,supermarket
35, Embakasi Central,Kayole South,-1.2659842,36.916945500000004,696e52c9b9abac2c4885dfdb2770347f945e1613,Naivas Supermarket - Saika,-1.2580374,36.9164816,supermarket
36, Embakasi Central,Kayole South,-1.2659842,36.916945500000004,0aadb7eaee70615df7fe774555235b41522da077,Budget Supermarket,-1.2741232,36.9178403,supermarket
37, Embakasi Central,Kayole South,-1.2659842,36.916945500000004,d4872ca45c5c3b555367d9879c7674f6d90a95d7,BNudget Supermarket,-1.2742446,36.9177264,supermarket
38, Embakasi Central,Kayole South,-1.2659842,36.916945500000004,d6fcc6c5398e1999212319daf21e7492d33104ed,Gucha Convinient Store,-1.2720608,36.9103566,supermarket
39, Embakasi Central,Kayole South,-1.2659842,36.916945500000004,7194d1f4d921ea62ab4fb6764168ab03c937d5f0,Three in One Supermarket,-1.2711722,36.9092331,supermarket
40, Embakasi Central,Kayole South,-1.2659842,36.916945500000004,458116ca6ef3b8c2fc903bf082c6a14b55fee0e6,Mayben Supermarket,-1.2753441,36.9183648,supermarket
41, Embakasi Central,Kayole South,-1.2659842,36.916945500000004,09304b274ef9ce168d673f0c7da8f83d7a035d78,Set Light Supermarket,-1.273711,36.9112167,supermarket
42, Embakasi Central,Kayole South,-1.2659842,36.916945500000004,5f51e6c33f6a1decfefa9ecae4261438d0ab3076,Greenmatt Hyper,-1.2738722,36.9110685,supermarket
43, Embakasi Central,Kayole South,-1.2659842,36.916945500000004,b262dca6e93d9b2f0684d1b8b916dce286ec525c,Pendo mini Mart,-1.2571175,36.9215318,supermarket
44, Embakasi Central,Kayole South,-1.2659842,36.916945500000004,4a1d04000f194c72a78ced8fbe7ba7786cd58a70,Alpha Self Selection Store,-1.2690049,36.9071424,supermarket
45, Embakasi Central,Kayole South,-1.2659842,36.916945500000004,c499239395709d48ad31d90991c791a44d081544,Neema Supermarket,-1.257149,36.92234609999999,supermarket
46, Embakasi Central,Kayole South,-1.2659842,36.916945500000004,68df998c2f64c5b0ecdd605d2ba80145e16da58b,Komarock Phase 3 B,-1.2679393,36.9068048,supermarket
47, Embakasi Central,Kayole South,-1.2659842,36.916945500000004,a57a4fbf005760bdcc36ee8847731068e6b74966,Hill Mart Supermarket,-1.2570572,36.9222177,supermarket
48, Embakasi Central,Kayole South,-1.2659842,36.916945500000004,89332272f51af771fd2b03442f18a6904faca2cb,Bee - P Mart,-1.2571862,36.9225017,supermarket
49, Embakasi Central,Kayole South,-1.2659842,36.916945500000004,d6ad4ba8b60b8b3b309821e1e4545c5706e6a3b1,Luma Supermarket,-1.2743868,36.9107902,supermarket
50, Embakasi Central,Kayole South,-1.2659842,36.916945500000004,19f55546639ef4fddbbb5750fcb9464b3c7a8d90,Kenphy SuperMarket,-1.2759065,36.9120682,supermarket
51, Embakasi Central,Kayole South,-1.2659842,36.916945500000004,969b1bab57e3d0f1098c9546ccc1d3f324904376,Biddi Maga Supermarket,-1.2769852,36.9148859,supermarket
52, Embakasi Central,Kayole South,-1.2659842,36.916945500000004,74027a19cbdbd0a183e5baab76640fc6132e5454,Supa Duka Supermarket,-1.2772855,36.9154251,supermarket
53, Embakasi Central,Kayole South,-1.2659842,36.916945500000004,eaf0f3ac54cfae9158f688ae59b161d2f14089e0,Mini Real Super Mart,-1.2754778,36.9098692,supermarket
54, Embakasi Central,Kayole South,-1.2659842,36.916945500000004,b95267641ad4e386c697cbb67b74643cb4408033,Jossics Supermarket Ltd,-1.276442,36.908827,supermarket
55, Embakasi Central,Kayole South,-1.2659842,36.916945500000004,0a8ee779c2e405852f09eb4d1c229839a760c7c1,Peace Supermarket,-1.2794066,36.9153151,supermarket
56, Embakasi Central,Kayole South,-1.2659842,36.916945500000004,0f6cfd7739e9fc9a0b226f74c3ee82ef6f712810,Kigiwa Wholesalers & Retailers,-1.2778278,36.9082759,supermarket
57, Embakasi Central,Kayole South,-1.2659842,36.916945500000004,f32f4e161ac57060f2dbc81cb75dd503ce1c48d2,Supermarket,-1.2805999,36.9152373,supermarket
58, Embakasi Central,Kayole South,-1.2659842,36.916945500000004,9c9eb268e3f31e80da2911cb10dff431167f3cda,Ngemi Supermarkets,-1.2780471,36.9081698,supermarket
59, Embakasi Central,Kayole South,-1.2659842,36.916945500000004,6a68c73fc822098ac833ee90ef09055c066b0de8,Dimples Supermarket Terminal 42,-1.2782348,36.9078183,supermarket
