,constituency,ward,clat,clon,place_id,place_name,place_lat,place_long,place_type
0, Starehe,Nairobi South,-1.314183,36.823585200000004,9785bda87ebcac70d42a892ed8c950de23fc384c,Tuskys Supermarket,-1.2874505,36.8285265,supermarket
1, Starehe,Nairobi South,-1.314183,36.823585200000004,91ffc5aeb1c663a9e639c68d06cc46bb480fc523,Tuskys Supermarket (OTC),-1.2849705,36.8313603,supermarket
2, Starehe,Nairobi South,-1.314183,36.823585200000004,577a86324b4da1a8c62412819c2006a57a9c5c23,Tuskys,-1.2863862,36.8267929,supermarket
3, Starehe,Nairobi South,-1.314183,36.823585200000004,04b047c965cb4b79deb4c8f7612ee19060986b8c,Top Shop,-1.3152907,36.8050884,supermarket
4, Starehe,Nairobi South,-1.314183,36.823585200000004,b8adc23784cf5f681061e6f2101d2fde5294cd37,Hari Krishna Stores,-1.307932,36.823804,supermarket
5, Starehe,Nairobi South,-1.314183,36.823585200000004,8c102c32b57ac9234d049eb97ac1c2d8dd75328e,Homedirect Supermarket-South B,-1.310938,36.836721,supermarket
6, Starehe,Nairobi South,-1.314183,36.823585200000004,8714fb1ac450c307a533c64d6c0f45b2d3e70127,Ujazi,-1.2920659,36.82194619999999,supermarket
7, Starehe,Nairobi South,-1.314183,36.823585200000004,23fe9f8b1be0e81256ee03723c52704474a88e40,M-Pesa Nakumat Mega Supermarket,-1.2909194,36.8198268,supermarket
8, Starehe,Nairobi South,-1.314183,36.823585200000004,f4615defee85dcfc9f299dee74114dcdf9525ae6,Tuskys Supermarket (Chap Chap Nairobi),-1.283148,36.819868,supermarket
9, Starehe,Nairobi South,-1.314183,36.823585200000004,8351eb5c1c566388ee21136a7e689bb004a66950,EastMatt Mfangano Supermarket,-1.2880317,36.8286227,supermarket
10, Starehe,Nairobi South,-1.314183,36.823585200000004,5e75acbdbb149ef0ed2f6231f70948675f54db73,Naivas Supermarket Hazina,-1.3144206,36.8489297,supermarket
11, Starehe,Nairobi South,-1.314183,36.823585200000004,7196e8fb10171cbed0e135e0948c7cc58dc31f2d,Uchumi Supermarket,-1.287405,36.82541399999999,supermarket
12, Starehe,Nairobi South,-1.314183,36.823585200000004,b3f256614735540a1c9ff354eda7aed486d94346,Tuskys Building,-1.2846446,36.8272648,supermarket
13, Starehe,Nairobi South,-1.314183,36.823585200000004,caaed20f0bce54e20953cd1bd6e2018156150dd0,Ujazi Enterprises,-1.2834232,36.8238601,supermarket
14, Starehe,Nairobi South,-1.314183,36.823585200000004,09db237f711c0a5a1d8f1bf592c205ac60c8388c,Tuskys Chap Chap,-1.2831612,36.8199386,supermarket
15, Starehe,Nairobi South,-1.314183,36.823585200000004,268eac73b384d4a3a33af4e7e326b64b379e78f0,Kid's Camp Ltd,-1.2841321,36.83262930000001,supermarket
16, Starehe,Nairobi South,-1.314183,36.823585200000004,0bdcf98a830d0016f015d76f02c315a3856e8ecf,Uni Industries East Africa Ltd,-1.3266059,36.8520325,supermarket
17, Starehe,Nairobi South,-1.314183,36.823585200000004,1373fbe19df6aaaf447eaabad7620f374689127b,FoodPlus Two Rivers Mall,-1.283029,36.821789,supermarket
18, Starehe,Nairobi South,-1.314183,36.823585200000004,6efeda5e9daf2af5c516eaded8364b88f8ad4ba0,Rumorth Group of Companies. Ltd,-1.28217,36.8285606,supermarket
19, Starehe,Nairobi South,-1.314183,36.823585200000004,881bb9470c48c9ba77a525fb8415d8a273d489cf,Chandarana Supermarket,-1.2741709,36.8191247,supermarket
20, Starehe,Nairobi South,-1.314183,36.823585200000004,01ffcd1f20e0400f2f6a733a16f5b353ed5766ec,Chandarana Foodplus Supermarket (Ngara Branch),-1.274228,36.8192,supermarket
21, Starehe,Nairobi South,-1.314183,36.823585200000004,ae08191c7e4fa31bf175a1413f9cdaf9f6abafc2,Uchumi Supermarket,-1.295784,36.8607814,supermarket
22, Starehe,Nairobi South,-1.314183,36.823585200000004,350e9b11f437343eb756ce0785d2b58680ed82cc,Chandarana Food Plus Supermarket Ltd (Head Office),-1.288452,36.79133099999999,supermarket
23, Starehe,Nairobi South,-1.314183,36.823585200000004,4120fd662e2ef518f0713566574acf32e5c53d35,Chandarana Foodplus Supermarket (Adlife Plaza Branch),-1.2945242,36.7872416,supermarket
24, Starehe,Nairobi South,-1.314183,36.823585200000004,30866873085e1536435d332832117ae4c0cc6ad9,Chandarana Foodplus Supermarket (Yaya),-1.2932792,36.78774190000001,supermarket
25, Starehe,Nairobi South,-1.314183,36.823585200000004,a57eec6ace640cd09d02c8b0a54e2787acd23b91,Tuskys Supermarket (Pioneer),-1.288539,36.826684,supermarket
26, Starehe,Nairobi South,-1.314183,36.823585200000004,432bdb90cc3d2e44445e6740c81bdd733e4cd6b7,Choppies Enterprises Kenya Ltd,-1.3233376,36.86635440000001,supermarket
27, Starehe,Nairobi South,-1.314183,36.823585200000004,c65d1ca29a5112de80112c735cc45cee18368eb7,Naivas Supermarket Green House Branch,-1.3007482,36.7817672,supermarket
28, Starehe,Nairobi South,-1.314183,36.823585200000004,9b6944beefb7ee0f2e6f20756acfd55dd95a2933,M-Pesa Uchumi Supermarket,-1.2871439,36.8253893,supermarket
29, Starehe,Nairobi South,-1.314183,36.823585200000004,a50704affeb125005587388d4f214d69c6959ae7,"Tuskys supermarket-sheikh karume rd, nairobi",-1.285518,36.827706,supermarket
30, Starehe,Nairobi South,-1.314183,36.823585200000004,559fa91045d79dcd889dda86cdbbff270affda59,Tuskys Karasha,-1.2848813,36.8197251,supermarket
31, Starehe,Nairobi South,-1.314183,36.823585200000004,3f62fdd3c529e8e658621d2c07a7ea609316be5f,Tuskys Supermarket,-1.2832492,36.824246,supermarket
32, Starehe,Nairobi South,-1.314183,36.823585200000004,44bb1d5f05f2bfd24287ffbfad1db7c2ccb14dd9,Dhawnt Supermarket,-1.3081324,36.824381,supermarket
33, Starehe,Nairobi South,-1.314183,36.823585200000004,8a4646a51164e47dfdc27136c9f70c27fa64cf57,Westies Supermarket,-1.307694,36.8237472,supermarket
34, Starehe,Nairobi South,-1.314183,36.823585200000004,62bf0f5a021d3520ae36abd8d446ee38d902e8c3,Samito Supermarket,-1.3148496,36.81687959999999,supermarket
35, Starehe,Nairobi South,-1.314183,36.823585200000004,2aae41266c6fc8b2aa7d750901a77b7bf66213b0,Riamma Mini Market,-1.3202367,36.8280058,supermarket
36, Starehe,Nairobi South,-1.314183,36.823585200000004,87852c8bbabc651dcc1b88cedf00ce2725c9aabe,Naivas Supermarket - South C,-1.322218,36.82751030000001,supermarket
37, Starehe,Nairobi South,-1.314183,36.823585200000004,0b11031c6f025abb279c8e44bf461b8aa9e57c43,Al Habib Wholesalers,-1.3244239,36.82570419999999,supermarket
38, Starehe,Nairobi South,-1.314183,36.823585200000004,29854203bb741ee232192c8d1e311591fee72523,Beyond Fruits Ltd,-1.3160875,36.8345856,supermarket
39, Starehe,Nairobi South,-1.314183,36.823585200000004,489b31fcf17edd4ed501c8b6ebe183c2300fe21e,Naivas Supermarket - Capital Centre,-1.316478,36.8347303,supermarket
40, Starehe,Nairobi South,-1.314183,36.823585200000004,4c477d60a303dfecb6e95fb3049badcb3ae8c058,Thermoteq Limited,-1.31516,36.835235,supermarket
41, Starehe,Nairobi South,-1.314183,36.823585200000004,3d1282312b71b9901bf3a114d5bf0ba2f71651e7,Midas touch supermarket ltd,-1.310925,36.83553,supermarket
42, Starehe,Nairobi South,-1.314183,36.823585200000004,fb998483a367ae57e90f62f53cb65bea2d449fe5,Homedirect Supermarket,-1.3109116,36.8362556,supermarket
43, Starehe,Nairobi South,-1.314183,36.823585200000004,1fa92d4b36c257a1a43c5463d913686e2108b9d0,Barwako Supermarket,-1.3266811,36.827865,supermarket
44, Starehe,Nairobi South,-1.314183,36.823585200000004,2d8e2c13eb4038bde931313e6ff071cf5ca5addc,Rosjam Supermarket,-1.3117085,36.836645,supermarket
45, Starehe,Nairobi South,-1.314183,36.823585200000004,014c4b4edd5a903541c2cfa786369d81655863e2,Niches Ltd,-1.3115238,36.8367824,supermarket
46, Starehe,Nairobi South,-1.314183,36.823585200000004,8304e035213cba4768fc0619aff749313ee810ff,Green Valley Cafe and Supermarket,-1.3264896,36.8295323,supermarket
47, Starehe,Nairobi South,-1.314183,36.823585200000004,2f88405eaac40832dea81152b7916831cc0380be,Fourteenstar Supermarket,-1.3005262,36.8248861,supermarket
48, Starehe,Nairobi South,-1.314183,36.823585200000004,754742070bf5c9a4876222941c1f407f91056a99,Venture Supermarket,-1.3116975,36.8370764,supermarket
49, Starehe,Nairobi South,-1.314183,36.823585200000004,cc504b051f007c2eb32ff15a834927127f2bed74,Homecare Enterprises,-1.3119576,36.8371582,supermarket
50, Starehe,Nairobi South,-1.314183,36.823585200000004,b74de594e9fbdb9ef89aa24cf08100284fe0e6c1,Seal&Honey,-1.2999337,36.82480929999999,supermarket
51, Starehe,Nairobi South,-1.314183,36.823585200000004,16a3b7fb73078714af295d15581d160d6c37477d,South Gate Minimatt,-1.3153872,36.8075137,supermarket
52, Starehe,Nairobi South,-1.314183,36.823585200000004,15a125acf7ce1c704dac2d8e251fde4d335f6b2b,Queens Minimatt,-1.3153872,36.8075137,supermarket
53, Starehe,Nairobi South,-1.314183,36.823585200000004,904488d6da1d38d656a0de87957038a033420448,Shanjema MiniMart,-1.3184284,36.8416667,supermarket
54, Starehe,Nairobi South,-1.314183,36.823585200000004,b8d60806ccac0e0243ad3d526e350b46bbfe8844,Zoros MiniMart,-1.3298727,36.81254,supermarket
55, Starehe,Nairobi South,-1.314183,36.823585200000004,1cc640826ea5c6e95b6cc959b18ee09735af65ea,Acacia Supermarket Limited,-1.29491,36.83318099999999,supermarket
56, Starehe,Nairobi South,-1.314183,36.823585200000004,ac9b7f2f8b36cfa46e8acbc4133e5b6623d2b1a3,Souk Bazaar,-1.3238382,36.8429107,supermarket
57, Starehe,Nairobi South,-1.314183,36.823585200000004,e47033ea977e21fc672fd581140c4647a49aeb58,Karia Supermarket Phase 4,-1.292694,36.820334,supermarket
58, Starehe,Nairobi South,-1.314183,36.823585200000004,33877ced18737a43947ef9cebbbf35781d79292b,QUICK MART MOMBASA RD,-1.3225762,36.8439319,supermarket
59, Starehe,Nairobi South,-1.314183,36.823585200000004,ac8474de58b59707afa6bf1a8b876b1ba5545516,Jei Supermarket,-1.3076678,36.8024799,supermarket
