,constituency,ward,clat,clon,place_id,place_name,place_lat,place_long,place_type
0, Dagoretti North,Kabiro,-1.2878118,36.751501399999995,689867f2c660ec4025bebef59c80424b5f5456ce,Godials bed and breakfast,-1.289559,36.783144,restaurant
1, Dagoretti North,Kabiro,-1.2878118,36.751501399999995,7b554b1c6d3425bd017a5f79f7f49c9cf7e4b2b7,Club Texas,-1.3001321,36.7570674,restaurant
2, Dagoretti North,Kabiro,-1.2878118,36.751501399999995,171ebbd123f773a687b5fe20e6ebf46667e1b0e8,Creamy Inn,-1.2999981,36.7897797,restaurant
3, Dagoretti North,Kabiro,-1.2878118,36.751501399999995,1c513580137718df97e3f55ed370aec8fb2d8d3c,Osteria,-1.288682,36.78969379999999,restaurant
4, Dagoretti North,Kabiro,-1.2878118,36.751501399999995,68fd55165ed5cbef76675c5ecfdaad197a00b417,215 Karen Garden,-1.324021,36.7305313,restaurant
5, Dagoretti North,Kabiro,-1.2878118,36.751501399999995,258ea13ab2e9a55aaad4bfadf0f164bbaee1250c,Brew Bistro and Lounge,-1.2992794,36.7655525,restaurant
6, Dagoretti North,Kabiro,-1.2878118,36.751501399999995,0dd4be0f1ac0dfa662cdc47eacdd5f9baec58565,Mediterraneo,-1.2982901,36.7619748,restaurant
7, Dagoretti North,Kabiro,-1.2878118,36.751501399999995,f991c4dcf690c6574500d613b72a232b63a342fe,Ambience,-1.2607028,36.77536010000001,restaurant
8, Dagoretti North,Kabiro,-1.2878118,36.751501399999995,de0617dd5e9bd23a8e5dce6948cbc11663a28e14,Snack Inn Restaurant,-1.2877817,36.7412041,restaurant
9, Dagoretti North,Kabiro,-1.2878118,36.751501399999995,1360a3a21bc049a7903e085151b12dec8a724b4b,Gladwal Yoghurt,-1.2850258,36.7375007,restaurant
10, Dagoretti North,Kabiro,-1.2878118,36.751501399999995,0cde38b7be63ac28035b6d2747f044107e223f75,Kengele's Lavington Green #Loco,-1.2804055,36.7705588,restaurant
11, Dagoretti North,Kabiro,-1.2878118,36.751501399999995,b35c06973ff28bdf559f3f6a7b414a4bcd5d5753,Bemaland Restaurant,-1.2887107,36.74350560000001,restaurant
12, Dagoretti North,Kabiro,-1.2878118,36.751501399999995,b458cd7543d002cdc9f8c5496648a95427429153,Llarena Pizzeria,-1.296105,36.754562,restaurant
13, Dagoretti North,Kabiro,-1.2878118,36.751501399999995,d4d27e6d09f6b0deb140191ff17952e7feeba151,Arbor Place,-1.287708,36.7611336,restaurant
14, Dagoretti North,Kabiro,-1.2878118,36.751501399999995,cfe1cb6da955e1a356f87cbc53358f5b8ca80ab3,Le Palanka African Restaurant,-1.285969,36.761938,restaurant
15, Dagoretti North,Kabiro,-1.2878118,36.751501399999995,4b1b5f4f1cf5fc2921dbdf82c44301bb3161785e,Myers Restaurant,-1.28652,36.74087899999999,restaurant
16, Dagoretti North,Kabiro,-1.2878118,36.751501399999995,7a4b8c04b9714ab0802f551d8e96411096daca10,Eden suite and lounge,-1.2913706,36.7616098,restaurant
17, Dagoretti North,Kabiro,-1.2878118,36.751501399999995,077ae054fcf27f525d9a2a0fcdeb9f2dffb4c9b6,Toranj restaurant,-1.2855441,36.7627699,restaurant
18, Dagoretti North,Kabiro,-1.2878118,36.751501399999995,e41f004ac32cb2ef39c904768f4fbe0a9cccf2ff,7 Degrees Bar Restaurant and Lounge,-1.2980319,36.7583945,restaurant
19, Dagoretti North,Kabiro,-1.2878118,36.751501399999995,a55e3014cec2a2ae6396a4c1802f63fa21c34a9e,La Cantina,-1.2998323,36.75440989999999,restaurant
20, Dagoretti North,Kabiro,-1.2878118,36.751501399999995,144e6d144070f2e058e569781f6d6d2b21504195,Fine Breeze Bar and Grill,-1.2986131,36.75883,restaurant
21, Dagoretti North,Kabiro,-1.2878118,36.751501399999995,8b9a1f4aec193a4ade9bab89bcac8b1e65428c97,Jojen Bar,-1.3000493,36.7566268,restaurant
22, Dagoretti North,Kabiro,-1.2878118,36.751501399999995,728f78b14f1f67767454539b6dd073d1cedf6389,Mummydada's Nigerian Restaurant,-1.2842937,36.7644898,restaurant
23, Dagoretti North,Kabiro,-1.2878118,36.751501399999995,e1581c94c4f9c5faa46eb6830915f7017c4f4233,Jojen Butchery,-1.3002531,36.756877,restaurant
24, Dagoretti North,Kabiro,-1.2878118,36.751501399999995,3dffc5507a97c36a08ad617f91a798da34c6cd70,Invegara club and restaurant,-1.292063,36.764845,restaurant
25, Dagoretti North,Kabiro,-1.2878118,36.751501399999995,62abf5185b7ec90773098cc91b980e61edb847d2,Sip 'N' Lip,-1.2973142,36.7619792,restaurant
26, Dagoretti North,Kabiro,-1.2878118,36.751501399999995,fafec83e9cfe326bf6df433024062979918268cb,Subway,-1.2978335,36.7620946,restaurant
27, Dagoretti North,Kabiro,-1.2878118,36.751501399999995,58ff30b15586dcf5d16795eb65d7c5860f93bd71,Pizza Inn,-1.2977845,36.76218009999999,restaurant
28, Dagoretti North,Kabiro,-1.2878118,36.751501399999995,5b8ddcb0cc7d1ccd18d4234ba8498d6d2a996a4e,Big Square Junction,-1.2984073,36.7618274,restaurant
29, Dagoretti North,Kabiro,-1.2878118,36.751501399999995,394110df6c001b7dc7a3f63fcdc5dade2f8a28cc,Artcaffe Junction,-1.2984937,36.7618344,restaurant
30, Dagoretti North,Kabiro,-1.2878118,36.751501399999995,c5bde4c85499126a316db4f0bd1e2350e9816734,Hook'd,-1.2906952,36.7674141,restaurant
31, Dagoretti North,Kabiro,-1.2878118,36.751501399999995,beee51c0ca1e92b185924dd4634f3bc0c135b596,Chicken Inn Drive Thru,-1.2987356,36.76346590000001,restaurant
32, Dagoretti North,Kabiro,-1.2878118,36.751501399999995,998a854163da6e5748c7825e2ef177bb4c51d522,Chapo Chap Catering,-1.3039886,36.74643810000001,restaurant
33, Dagoretti North,Kabiro,-1.2878118,36.751501399999995,8e73a3e1845623cc9fdf5041c7b0349829fc1fda,Kobil Valley Arcade,-1.290042,36.769891,restaurant
34, Dagoretti North,Kabiro,-1.2878118,36.751501399999995,ef1c334a510096d9380c557897d06dfbf9775e3d,Tokyo Restaurant,-1.2815099,36.7690345,restaurant
35, Dagoretti North,Kabiro,-1.2878118,36.751501399999995,21000a5d0088a068c752192fd107358d1d3f5eeb,Java Valley Arcade - Wazi WiFi Hotspot,-1.2905555,36.7702317,restaurant
36, Dagoretti North,Kabiro,-1.2878118,36.751501399999995,9557f77c0c10c6771a21ee7baf3fc490dfeb80db,Meriada Gardens,-1.2871877,36.7705489,restaurant
37, Dagoretti North,Kabiro,-1.2878118,36.751501399999995,1ba83db1f750020b9c0743ed863632a49310ae61,La Salumeria Restaurant,-1.291344,36.770466,restaurant
38, Dagoretti North,Kabiro,-1.2878118,36.751501399999995,4c85f4cec776e6f4138efcc0ccc62939e67e20e3,janet cafe,-1.3019824,36.7647278,restaurant
39, Dagoretti North,Kabiro,-1.2878118,36.751501399999995,2af4fe40dae558412010e40a8a6ffae0d67e8db9,Stop & Shop-Valley Arcade,-1.290522,36.77084300000001,restaurant
