,constituency,ward,clat,clon,place_id,place_name,place_lat,place_long,place_type
0, Kamukunji,Eastleigh North,-1.2778285,36.8486835,1929856e958e5be0eb59a3709706494ac2d7e829,Hotel Fairmont The Norfolk,-1.278375,36.8163346,restaurant
1, Kamukunji,Eastleigh North,-1.2778285,36.8486835,e4c45d55952104d539d3bc2e57ef31ba53dbc86e,Sentrim Hotels and Lodges,-1.2833955,36.8234749,restaurant
2, Kamukunji,Eastleigh North,-1.2778285,36.8486835,51963aae8ac75e278af862dec52dcffadb5bf3d1,Nairobi Serena Hotel,-1.2870297,36.8145232,restaurant
3, Kamukunji,Eastleigh North,-1.2778285,36.8486835,5624dd89edc8ee3d3e1c3decd7ad02fcd88157be,Ambassadeur Hotel,-1.2853437,36.8260786,restaurant
4, Kamukunji,Eastleigh North,-1.2778285,36.8486835,9721fd28dfb2599d70dee6a28fa887bfe2d1ce57,Hotel Metro,-1.28291,36.8176921,restaurant
5, Kamukunji,Eastleigh North,-1.2778285,36.8486835,6e1330bf17c69b4380ecb461c6850ae43a095d4f,Cloud Hotel & Suites,-1.2580078,36.8185433,restaurant
6, Kamukunji,Eastleigh North,-1.2778285,36.8486835,fb33d0353e1baa28c427570d2a1919fcddeb6549,Fish & Chips,-1.2816976,36.8203591,restaurant
7, Kamukunji,Eastleigh North,-1.2778285,36.8486835,0e6977f5c48884d357571fdba6aa479aac5529dd,Java-capital centre,-1.316712,36.833977,restaurant
8, Kamukunji,Eastleigh North,-1.2778285,36.8486835,319c3670bfa49468c6dd713ba45d92aa6ccd8d3d,Dolce VIP Lounge,-1.2833396,36.8183789,restaurant
9, Kamukunji,Eastleigh North,-1.2778285,36.8486835,e512bb1c2b41d48618c70c5cd1af61ff1159fb59,Cool Breeze Gardens,-1.2616505,36.8421134,restaurant
10, Kamukunji,Eastleigh North,-1.2778285,36.8486835,b1f1e05a84932f42a4119830df1be9ce450fa0f4,Al-Yusra Restaurant CBD,-1.283427,36.82159300000001,restaurant
11, Kamukunji,Eastleigh North,-1.2778285,36.8486835,4ad877216544b0ed677757b422a23e073085a57d,Thai Chi Restaurant,-1.2841488,36.8229228,restaurant
12, Kamukunji,Eastleigh North,-1.2778285,36.8486835,b8ee3cec599b4ce5d758aa5650c88e8c6301c353,Anghiti Restaurant,-1.2880541,36.8259839,restaurant
13, Kamukunji,Eastleigh North,-1.2778285,36.8486835,c3afaebcd2cbbfcb15e57f4bdc95be5ac397b312,Landmawe Bar and Restaurant,-1.289261,36.83751,restaurant
14, Kamukunji,Eastleigh North,-1.2778285,36.8486835,fe00eb4280b9bf3972ae097a3d11468a3e40acbb,Neochicks Poultry Limited,-1.284861,36.823911,restaurant
15, Kamukunji,Eastleigh North,-1.2778285,36.8486835,55df4382d74a2c935e5fb9b4fe1594065fe9aa49,Kilimanjaro Food Court,-1.279041,36.850447,restaurant
16, Kamukunji,Eastleigh North,-1.2778285,36.8486835,f02f4a59a9a173842a152492e15227c5b3a54c02,Scratch Bar,-1.2841204,36.8242809,restaurant
17, Kamukunji,Eastleigh North,-1.2778285,36.8486835,2d99aab2f0716c97a2d2a0b958899d419a2cc29f,Kula Korner Parklands,-1.2735957,36.82298,restaurant
18, Kamukunji,Eastleigh North,-1.2778285,36.8486835,f5baf64ab7a5a8e9e021de8f9b4dd97748766b6e,The Dancing Spoon Restaurant And Wine Bar,-1.28549,36.82279829999999,restaurant
19, Kamukunji,Eastleigh North,-1.2778285,36.8486835,0a9750d1e7868ffb4e11a479f4fd901b661ad0d9,A A Mithaiwalla,-1.267242,36.838047,restaurant
20, Kamukunji,Eastleigh North,-1.2778285,36.8486835,0da146d0551d6960ad618099a27a3e61ae484d99,Salt Club And Restaurant,-1.2866793,36.82785529999999,restaurant
21, Kamukunji,Eastleigh North,-1.2778285,36.8486835,06f79d821bb4a10067d73590073dd0b00e6f180a,Sizzlin Grills,-1.2863119,36.82610779999999,restaurant
22, Kamukunji,Eastleigh North,-1.2778285,36.8486835,ca4da416c307081690556d5241b56638cb23c2cf,Kilele Restaurant,-1.2823858,36.8149066,restaurant
23, Kamukunji,Eastleigh North,-1.2778285,36.8486835,a455fb77d8de0af05001939510b81dc61df37858,African Dishes-Nairobi,-1.2826298,36.8324938,restaurant
24, Kamukunji,Eastleigh North,-1.2778285,36.8486835,e893603e46f35dfe7b0517c091cbae59fd7bf02f,Oilibya Lusaka Road,-1.296962,36.83846700000001,restaurant
25, Kamukunji,Eastleigh North,-1.2778285,36.8486835,4595a849dcf17c1b87aefe7dc3e993b207857f34,Kilimanjaro Food Court,-1.2789448,36.85078120000001,restaurant
26, Kamukunji,Eastleigh North,-1.2778285,36.8486835,5bfaac2b35a072777d0fe406278e55cf78eca961,Bobos Bistro,-1.2835125,36.8218587,restaurant
27, Kamukunji,Eastleigh North,-1.2778285,36.8486835,7a846210b79d3f2c66ee66acbf76a3bcdbe2e934,Bin Agil Catering (K) Ltd,-1.2672578,36.8369296,restaurant
28, Kamukunji,Eastleigh North,-1.2778285,36.8486835,7fc90dfd55c533b3398a85a9bb073ffdeb7243fc,Dovey fry's,-1.2828858,36.831794,restaurant
29, Kamukunji,Eastleigh North,-1.2778285,36.8486835,e6208e2a539748e95ffb84156f705306f2471736,Chkula Kizuri,-1.2866702,36.8269707,restaurant
30, Kamukunji,Eastleigh North,-1.2778285,36.8486835,3fc5245cdf97c7b53a1efa98022251ed7a5f7ac3,Bakers Inn-Salama,-1.28444,36.830619,restaurant
31, Kamukunji,Eastleigh North,-1.2778285,36.8486835,d176ab2c8bb06a30e756300c6cd9dc21d4c2511b,Happymeals Kenya,-1.2683881,36.83158460000001,restaurant
32, Kamukunji,Eastleigh North,-1.2778285,36.8486835,922e7ffaba04e99385f722927eeef41c5ecc57e3,Eateries Restaurant Ltd,-1.28698,36.826046,restaurant
33, Kamukunji,Eastleigh North,-1.2778285,36.8486835,18ff913481023e69d66731bddd12c6e2186057a0,Hotel Central Park And Conferencing Facilities,-1.284566,36.82866299999999,restaurant
34, Kamukunji,Eastleigh North,-1.2778285,36.8486835,4e0bd964018baa2b890f95e45754b3a0bba981e5,Winning Ways Cafe,-1.284596,36.82838329999999,restaurant
35, Kamukunji,Eastleigh North,-1.2778285,36.8486835,e994eb37968ff1664155f0453a78c675ce5388fd,COUNTYPARK HOTEL LIMITED,-1.285132,36.8285235,restaurant
36, Kamukunji,Eastleigh North,-1.2778285,36.8486835,33ffce48807623aab5bc4d5ee643f49a33257292,Cafe happyness,-1.2849091,36.82821169999999,restaurant
37, Kamukunji,Eastleigh North,-1.2778285,36.8486835,5e3c3837b92d1ffaecd9039e019a53f6094a76e5,AdenBay Lounge,-1.2841923,36.8279542,restaurant
38, Kamukunji,Eastleigh North,-1.2778285,36.8486835,ce2436aa0f2124b07b5e36b7f4500f3628646c92,Baker Inn-Tom Mboya,-1.288114,36.828113,restaurant
39, Kamukunji,Eastleigh North,-1.2778285,36.8486835,952a5b22dee45766630dcb125e8bf5097d161deb,Paleo Coffee & Grill,-1.2868466,36.8273695,restaurant
40, Kamukunji,Eastleigh North,-1.2778285,36.8486835,aaf1a24a986d485de2bbf90422007a7abc8fafa7,INKS HOTEL,-1.2814978,36.82581,restaurant
41, Kamukunji,Eastleigh North,-1.2778285,36.8486835,bb2a667664e8d154bd2391148a74fe01c722bce8,The Patio Restaurant 2013,-1.257515,36.830224,restaurant
42, Kamukunji,Eastleigh North,-1.2778285,36.8486835,a0d321c3f19d4b24eaa33cc01a453a227a11286c,Decasa Hotel Nairobi,-1.2812879,36.82546800000001,restaurant
43, Kamukunji,Eastleigh North,-1.2778285,36.8486835,566ffc33829d65506588cf0d34c2f746eb04ced5,Highlands Restaurant - Tom mboya St,-1.2861926,36.8266381,restaurant
44, Kamukunji,Eastleigh North,-1.2778285,36.8486835,e3455237c52e41798db8a312e5b0acaa319fcb40,Vasilis Cookie Parlour-Ambassadeur,-1.285821,36.82646099999999,restaurant
45, Kamukunji,Eastleigh North,-1.2778285,36.8486835,f131719fe2013679c144bd4b96e2e6ada80c05b4,Bakers Inn-Ambassadeur,-1.285848,36.826413,restaurant
46, Kamukunji,Eastleigh North,-1.2778285,36.8486835,e5fe2b0b2a6b410a4fd71ca029dfe849b9876776,Bakers Inn-Moi Avenue,-1.28869,36.82747500000001,restaurant
47, Kamukunji,Eastleigh North,-1.2778285,36.8486835,0cbb26c2382bc88527634bcaed818e4b98cde10a,Lazarus Inn & Grill,-1.28593,36.82619,restaurant
48, Kamukunji,Eastleigh North,-1.2778285,36.8486835,2a482d7aa6f01bae90dc8c15ea31a75a6a7a69fc,My Shop-Lusaka,-1.298727,36.837061,restaurant
49, Kamukunji,Eastleigh North,-1.2778285,36.8486835,6c4261d64b15e7a93f70ecdd422523871e0870d7,Creamy Inn-Lusaka,-1.29884,36.83702599999999,restaurant
50, Kamukunji,Eastleigh North,-1.2778285,36.8486835,23cd0a0c2eb51f5df1206a33a99c85362fca9cd3,Chicken Inn-Lusaka,-1.298791,36.836935,restaurant
51, Kamukunji,Eastleigh North,-1.2778285,36.8486835,396a2b063868ae6b1cd402ec0a1d5c5bed73b48f,Pizza Inn-Lusaka,-1.298974,36.837171,restaurant
52, Kamukunji,Eastleigh North,-1.2778285,36.8486835,b9b0dcc2e30a850b4e9b4b8e57f915eeaf8c0e00,Galitos-Lusaka,-1.298974,36.83685200000001,restaurant
53, Kamukunji,Eastleigh North,-1.2778285,36.8486835,5cdb83ec55aa58fba6f07b2a70d523fd805e7a5c,Mocca Lounge & Bistro,-1.283231,36.818327,restaurant
54, Kamukunji,Eastleigh North,-1.2778285,36.8486835,bbdb81b38d718fc5eedafe401f20689fa5966164,"Galitos-Moi Avenue, Nairobi.",-1.2846748,36.82498229999999,restaurant
55, Kamukunji,Eastleigh North,-1.2778285,36.8486835,c57e9e6f7a22da14b30f6133aceca91cacf0b7f1,Chicken Inn-Moi Avenue,-1.2846896,36.8249783,restaurant
56, Kamukunji,Eastleigh North,-1.2778285,36.8486835,fe3b8a47f8c7378c87c1dbd903a406c07e9ce17c,Pizza Inn- Moi Avenue,-1.2846654,36.8249471,restaurant
57, Kamukunji,Eastleigh North,-1.2778285,36.8486835,c1f87b66755ad427ef63bcc670020877df99c578,Berbers Oasis,-1.288774,36.82623100000001,restaurant
58, Kamukunji,Eastleigh North,-1.2778285,36.8486835,952f4fa31be7af5cfdc157a608c8a59657bc59c8,Fiesta Restaurant,-1.2845669,36.8188719,restaurant
59, Kamukunji,Eastleigh North,-1.2778285,36.8486835,c1c5a52772ca6d7f9d58761edde82a60a2259b9d,LILYS 3 in 1 CAFE,-1.2829388,36.8240135,restaurant
