,constituency,ward,clat,clon,place_id,place_name,place_lat,place_long,place_type
0, Embakasi Central,Spring Valley,-1.2477029,36.789235600000005,46d0c68670843c35ccdfabdab6cc0ba41ec4a2e1,Oil Libya,-1.2593201,36.77987319999999,gas_station
1, Embakasi Central,Spring Valley,-1.2477029,36.789235600000005,9b87989c84c3fe16e3a68824949c34fc3cacac7d,OLA Energy,-1.259345,36.779909,gas_station
2, Embakasi Central,Spring Valley,-1.2477029,36.789235600000005,873999e9f6c6f0f84ffde82d903777efe5fff1da,Kobil Limuru Road,-1.2389965,36.8115029,gas_station
3, Embakasi Central,Spring Valley,-1.2477029,36.789235600000005,2cb8cbadc6bb69a0b35adf2e9c02ba55fcfb7b67,OLA Energy,-1.263829,36.803099,gas_station
4, Embakasi Central,Spring Valley,-1.2477029,36.789235600000005,28f5c2b61d9198bf05517f863014bbdfdafbf613,SUSHAZ LIMITED,-1.2715617,36.8137076,gas_station
5, Embakasi Central,Spring Valley,-1.2477029,36.789235600000005,975fe8a720b9ff8431c0e9f3075218c60e87088a,Sean Garstin Motors,-1.2805528,36.7696306,gas_station
6, Embakasi Central,Spring Valley,-1.2477029,36.789235600000005,6214652fbf60a77dd72afbf98ee8006cb7990155,OLA Energy,-1.2550285,36.8317764,gas_station
7, Embakasi Central,Spring Valley,-1.2477029,36.789235600000005,53f17e131b881e80e008f49b78327f3f0e264fa7,Hashi Petrol Station,-1.2924234,36.7871303,gas_station
8, Embakasi Central,Spring Valley,-1.2477029,36.789235600000005,01a6c1e9bf20efeda18f924b144330705c201acf,Hashi Energy Service,-1.2925394,36.7868584,gas_station
9, Embakasi Central,Spring Valley,-1.2477029,36.789235600000005,e4819f2c1be8944fe8f29d565e7d92c08e7eddb5,Total - spring valley,-1.253677,36.792087,gas_station
10, Embakasi Central,Spring Valley,-1.2477029,36.789235600000005,5b84fc4d14e48acae438cfcc6e30ca0f9f8ad0d7,Total,-1.254015,36.792091,gas_station
11, Embakasi Central,Spring Valley,-1.2477029,36.789235600000005,d718a1f2a5d370576e5c1f6a704deb80949f968d,OLA Energy,-1.2484408,36.7971817,gas_station
12, Embakasi Central,Spring Valley,-1.2477029,36.789235600000005,17d4d6b9e96ae5e1d5ee54e6de0d1fa0264106aa,Total - waiyaki way,-1.255886,36.78182,gas_station
13, Embakasi Central,Spring Valley,-1.2477029,36.789235600000005,0466bca02933ec516a8201f60f0d7008e1331dc3,Shell,-1.2599677,36.7856853,gas_station
14, Embakasi Central,Spring Valley,-1.2477029,36.789235600000005,32e811a00374e28f1ffdeb4b3dc77ee12053ebad,Total-Waiyaki Way,-1.258767,36.781871,gas_station
15, Embakasi Central,Spring Valley,-1.2477029,36.789235600000005,6ea608d07e4982331f0039ecd1adafa243345b7d,Total Waiyaki Way Service Station,-1.2586973,36.7812743,gas_station
16, Embakasi Central,Spring Valley,-1.2477029,36.789235600000005,fec6db0911c6870931354db918c2b97fc46960c0,Total ABC Service Station,-1.2592679,36.7788172,gas_station
17, Embakasi Central,Spring Valley,-1.2477029,36.789235600000005,f3d5bdccaf138f13a02d8aa1d1a5bf155a7d4f0c,Total - abc,-1.258964,36.778473,gas_station
18, Embakasi Central,Spring Valley,-1.2477029,36.789235600000005,b4695d83afd497b0794cbad3cffa76aa15e6212e,Total-ABC,-1.259314,36.778503,gas_station
19, Embakasi Central,Spring Valley,-1.2477029,36.789235600000005,8fb54c24f5e86fef48d68f96c8acd23801332faf,Shell,-1.2628049,36.801006,gas_station
20, Embakasi Central,Spring Valley,-1.2477029,36.789235600000005,cedc9c0a3e068f23a2c02e6bd5941ddd1ef4c5fd,New Rockwell Petrol and Service Station,-1.2628506,36.8010395,gas_station
21, Embakasi Central,Spring Valley,-1.2477029,36.789235600000005,884f63a21197cfc408ab1fc9b45777127efb783f,Rockwell Service Station,-1.2637484,36.8010647,gas_station
22, Embakasi Central,Spring Valley,-1.2477029,36.789235600000005,ba8be48ed75db3c5f2ecbda94750620dac8a5a5c,Shell,-1.2630401,36.8027307,gas_station
23, Embakasi Central,Spring Valley,-1.2477029,36.789235600000005,5e22cb41ae687d7a02812d3ce4ecb81e53848fb8,Total Gigiri Service Station,-1.2321615,36.8035592,gas_station
24, Embakasi Central,Spring Valley,-1.2477029,36.789235600000005,45de39fb005484059bf5f31c1a0970d3b4d807bc,Total Petrol Station,-1.232024,36.80352969999999,gas_station
25, Embakasi Central,Spring Valley,-1.2477029,36.789235600000005,8ba6646fbc5e1ecc8f8312b1f961403601fbc732,Shell,-1.2307878,36.8034172,gas_station
26, Embakasi Central,Spring Valley,-1.2477029,36.789235600000005,5bca5213f9da4ef29bc2725f18e473a2e333a26f,Oilcom petrol station,-1.2652834,36.8031156,gas_station
27, Embakasi Central,Spring Valley,-1.2477029,36.789235600000005,5331e672d130cd9faaf776adcb3d5972e7d3acf6,Nyota service station ltd,-1.265602,36.803467,gas_station
28, Embakasi Central,Spring Valley,-1.2477029,36.789235600000005,005d3c163069add1e975e29c3fa2bf5b0259de93,Gigiri Service Station,-1.2376524,36.8100122,gas_station
29, Embakasi Central,Spring Valley,-1.2477029,36.789235600000005,e61bd63d7e555f082d603965c18eb967baaa5a92,Chiromo Service Station,-1.2663476,36.802959,gas_station
30, Embakasi Central,Spring Valley,-1.2477029,36.789235600000005,3575689291e8c47d9a00a4b5075b0643314a1303,Pency unique Investment and Services,-1.2370674,36.809805,gas_station
31, Embakasi Central,Spring Valley,-1.2477029,36.789235600000005,596e5c269224d23cc3e68ad14016b93b0a7b43cf,Rubis Fuel Station Gigiri,-1.2379637,36.810261,gas_station
32, Embakasi Central,Spring Valley,-1.2477029,36.789235600000005,f42042fc5f4fb092ee679c6bb11daef7729d7418,Unep RUBIS Petro Station,-1.2381374,36.81037999999999,gas_station
33, Embakasi Central,Spring Valley,-1.2477029,36.789235600000005,ac3453b8aff4e0d9d1fb1934f2e0303e6dbaf0eb,Kenol Petrol Station,-1.237963,36.8103253,gas_station
34, Embakasi Central,Spring Valley,-1.2477029,36.789235600000005,0c076d05161f14777bcb5a86457eb15e019958f3,Lit service station,-1.238928,36.811665,gas_station
35, Embakasi Central,Spring Valley,-1.2477029,36.789235600000005,99fb726e8476b2655f8c07b33243a3744c4942ce,Winam Handcraft,-1.2506416,36.8134059,gas_station
36, Embakasi Central,Spring Valley,-1.2477029,36.789235600000005,5ccd789d545c036bf715984e3e730dc7d66f86d5,Total Service Station,-1.2632205,36.8092118,gas_station
37, Embakasi Central,Spring Valley,-1.2477029,36.789235600000005,210c846a36dbb823d961c0e00f54b0fa55a9a5ba,Total Utalii Service Station,-1.2633243,36.8092221,gas_station
38, Embakasi Central,Spring Valley,-1.2477029,36.789235600000005,86d49b4fa58794e766358d90f1d1e4f8b8d1471c,United Nations Petrol Station,-1.2357749,36.8121707,gas_station
39, Embakasi Central,Spring Valley,-1.2477029,36.789235600000005,30766d81ccd16e82a9bf6eb0aa146a5314d6b8c5,Fuel Drop Filling Station,-1.2225895,36.7816123,gas_station
