,constituency,ward,clat,clon,place_id,place_name,place_lat,place_long,place_type
0, Makadara,Maringo,-1.2920714,36.86572592,23af5665c3b90c9be2cbffaf730aa47d38869f84,mwannim floors and walls,-1.291753,36.841664,shopping_mall
1, Makadara,Maringo,-1.2920714,36.86572592,88b462bc62204289d8777c5025218fc65b922b2e,Recilia Basket,-1.2958578,36.889405,shopping_mall
2, Makadara,Maringo,-1.2920714,36.86572592,caf6b51894c186a23a996ee289903656db1f012e,Muthurwa Shopping Complex,-1.2874633,36.8379964,shopping_mall
3, Makadara,Maringo,-1.2920714,36.86572592,c4f5a48382696e8113b94a24b00aef1e7b4f479c,The Point Mall Buruburu,-1.2939241,36.87591340000001,shopping_mall
4, Makadara,Maringo,-1.2920714,36.86572592,ca71a3ad7de781c2e4634c4fd1e34276d4136b24,Young Traders Building,-1.2923773,36.8419788,shopping_mall
5, Makadara,Maringo,-1.2920714,36.86572592,e2069400214ffd3502fe9aab0bcc3da2a0d28229,Barclays house,-1.2739657,36.8497983,shopping_mall
6, Makadara,Maringo,-1.2920714,36.86572592,c54ba7f8b24a2da350cbf3b2d3c96c5da216fca6,JOTICH ENTERPRISES,-1.2884196,36.8410608,shopping_mall
7, Makadara,Maringo,-1.2920714,36.86572592,46a909ffd16864fd4360d41a409e14c978e97607,LAVISTER ENTERPRISES,-1.3070263,36.8439965,shopping_mall
8, Makadara,Maringo,-1.2920714,36.86572592,d92b1b93f3e2862c0f021467eb325c8d9a92c717,Tiiga -Living your dreams,-1.3214344,36.85459729999999,shopping_mall
9, Makadara,Maringo,-1.2920714,36.86572592,489b0fdf09f268290a909c12deaed323128e9264,Ukwala house,-1.2852711,36.8319333,shopping_mall
10, Makadara,Maringo,-1.2920714,36.86572592,f35f784d80bb53b41d084bdf0f5fbb7779bf4944,Intelly Wave Tech,-1.284233,36.830184,shopping_mall
11, Makadara,Maringo,-1.2920714,36.86572592,ce44912bfd8c6f434e42644f94f42e4044dd93e7,Timed Enterprises,-1.2866307,36.8297338,shopping_mall
12, Makadara,Maringo,-1.2920714,36.86572592,0ec73885b32efb2769503cd410ebd6b1fc4cb25e,Mid Plaza,-1.282158,36.830457,shopping_mall
13, Makadara,Maringo,-1.2920714,36.86572592,c6442303226435e0f56f4572fdaa5c8cd16244d0,Oretin,-1.3268747,36.8527485,shopping_mall
14, Makadara,Maringo,-1.2920714,36.86572592,e5b3f4cae8e9ef83badcecb5e139db21abe92644,Sawah Store,-1.3268955,36.8526944,shopping_mall
15, Makadara,Maringo,-1.2920714,36.86572592,f84edb20db3e7fb1b5a22c17505365ad6d0c98d7,Costwise Electricals,-1.2829381,36.82961219999999,shopping_mall
16, Makadara,Maringo,-1.2920714,36.86572592,3e49abd8d0321d5e47318f07446e6435ca747cda,Cuatro Bro Company Limited,-1.2784148,36.9004406,shopping_mall
17, Makadara,Maringo,-1.2920714,36.86572592,e40bf9962c11c1c25972e8409ae31451de744aa2,AK Creative,-1.3093244,36.8318796,shopping_mall
18, Makadara,Maringo,-1.2920714,36.86572592,28d417989333431c6e4304195569ced835f119b0,Drymz Enterprises,-1.2846664,36.8279918,shopping_mall
19, Makadara,Maringo,-1.2920714,36.86572592,2bc51b293db2ffe0aa1f89c49f776ea60e51c78a,The Nextgen Mall,-1.3237716,36.84403710000001,shopping_mall
20, Makadara,Maringo,-1.2920714,36.86572592,384eacb90b566e5ac6ed5538815ffbcebc646b9e,Pinks Mall,-1.2942167,36.8273064,shopping_mall
21, Makadara,Maringo,-1.2920714,36.86572592,9009331339f13e915962e9f4f56311a6dfadab55,Burale 254,-1.2841915,36.8278878,shopping_mall
22, Makadara,Maringo,-1.2920714,36.86572592,afedd164cdc84958cb783ad909b0daf371fd83aa,GATOYO ENTERPRISES NELLEA PLAZA NGARA,-1.2779502,36.8294334,shopping_mall
23, Makadara,Maringo,-1.2920714,36.86572592,7301fb2db60f7a9b379d5fcc9bd264539bf3d7e6,Kalsi House,-1.2846459,36.8272055,shopping_mall
24, Makadara,Maringo,-1.2920714,36.86572592,1a56f5f0159587cc565c71ae7b72f86a2887702e,FASAM,-1.2772922,36.8290579,shopping_mall
25, Makadara,Maringo,-1.2920714,36.86572592,b9b4e736474728684073d83b42a203108a65391c,Autobahn Motor Spares Ltd,-1.280972,36.82765899999999,shopping_mall
26, Makadara,Maringo,-1.2920714,36.86572592,fdf9072d065d3b9572fa3a91fae77fbe82f8ebc5,Ndaragweezy Lounge,-1.2853099,36.8266187,shopping_mall
27, Makadara,Maringo,-1.2920714,36.86572592,79eff8e53378856ba1ed4472e18c1f9c025b3d70,Ivent Concepts Limited,-1.2837571,36.8266051,shopping_mall
28, Makadara,Maringo,-1.2920714,36.86572592,49bd09bc62e5a9016b1822df73f1da30d24d9288,Toprank Shop,-1.2756189,36.828775,shopping_mall
29, Makadara,Maringo,-1.2920714,36.86572592,8a658c35e69b9fd2a60060dea76dd4e9ac73e439,Purple Palace,-1.2833109,36.8256792,shopping_mall
30, Makadara,Maringo,-1.2920714,36.86572592,ba36f5a38327162eeaffdf9ceba8167490bc78bc,Lush Bag International,-1.2829234,36.8253498,shopping_mall
31, Makadara,Maringo,-1.2920714,36.86572592,0bd5fb2cd599f1d00a1d03f37911b9d0601e6380,Cratic Enterprises,-1.2818852,36.8255859,shopping_mall
32, Makadara,Maringo,-1.2920714,36.86572592,0e8ede2b75d11c44e57feae088269eb6337106fa,KAI PLAZA,-1.283721,36.82493799999999,shopping_mall
33, Makadara,Maringo,-1.2920714,36.86572592,dc41037a6087495a0a39eddd1236e664d0fce1ca,Shujaa Mall,-1.2810523,36.9057543,shopping_mall
34, Makadara,Maringo,-1.2920714,36.86572592,da136ea01c51555d04074dcd7ec81adf4587c673,TEAK HSE (CLEAR VISION GRAPHICS),-1.279954,36.8260165,shopping_mall
35, Makadara,Maringo,-1.2920714,36.86572592,9d3ca660b448066848884498771daca5e665f84c,TEAMSMART,-1.3309959,36.8811914,shopping_mall
36, Makadara,Maringo,-1.2920714,36.86572592,ac66dfb83c5a23aece8df292cc48a0847bafc15b,Hair Innovate Bliss Hair,-1.2811543,36.8248311,shopping_mall
37, Makadara,Maringo,-1.2920714,36.86572592,ddb0c8c586fc70abdcc034abf50e22729bf01fbb,Gadzone Limited,-1.2849869,36.8239939,shopping_mall
38, Makadara,Maringo,-1.2920714,36.86572592,65d76cb794c0d9ba4de425610fa9fe506b79f602,Safaricom Limited,-1.2812666,36.8237912,shopping_mall
39, Makadara,Maringo,-1.2920714,36.86572592,95e10e5437ee779e0e030511fa0cf076f50c7b19,Prime Cycle Services,-1.2794304,36.8240087,shopping_mall
