,constituency,ward,clat,clon,place_id,place_name,place_lat,place_long,place_type
0, Embakasi North,Kariobangi North,-1.3151376000000001,36.86733961,91f2d2ac6b9305b46c6f8fd52abd1ec707104dfd,Qwetu | Student Residences | Jogoo Road,-1.2950151,36.8612837,gym
1, Embakasi North,Kariobangi North,-1.3151376000000001,36.86733961,174f48cdfbb81c7d944c3ff0246d0e624b8fb101,Iron Bag Gym,-1.316799,36.892499,gym
2, Embakasi North,Kariobangi North,-1.3151376000000001,36.86733961,dc51f8e27abba40bcf59587ed6c95cf56d43fcc0,The Classic Touch,-1.3136031,36.8955588,gym
3, Embakasi North,Kariobangi North,-1.3151376000000001,36.86733961,94b7cf0fa34b2695f8238f5785bdc1d0edd83ced,Fitness 360 ke,-1.3234853,36.839723,gym
4, Embakasi North,Kariobangi North,-1.3151376000000001,36.86733961,d60ae8fa84b3a595fdaf5c52fc882ff316a54f7c,GYM BRAVO FITNESS CENTRE,-1.2833652,36.879775,gym
5, Embakasi North,Kariobangi North,-1.3151376000000001,36.86733961,52ce5fbab4de10475d7f9d39ca431f0bf9dd1afe,G-Span Taekwondo Club,-1.2887732,36.9007675,gym
6, Embakasi North,Kariobangi North,-1.3151376000000001,36.86733961,6705e74a0b2e9c39c2b40114099a0e8ac7f25984,HIGHWAY FITNESS CENTER,-1.301129,36.8251881,gym
7, Embakasi North,Kariobangi North,-1.3151376000000001,36.86733961,d97f9aaeb28d4e36b7832b485690f828d88f0841,Sina Makosa Stadium,-1.2706772,36.8651819,gym
8, Embakasi North,Kariobangi North,-1.3151376000000001,36.86733961,34723576e501498e81b9089668dbe867caa58045,MUIMARA GYM,-1.3244858,36.8784672,gym
9, Embakasi North,Kariobangi North,-1.3151376000000001,36.86733961,2f27ed38762eecf1f5cf0d08222aa4585769d5db,Life Fitness,-1.3289851,36.8561402,gym
10, Embakasi North,Kariobangi North,-1.3151376000000001,36.86733961,adcb950520799cecce07bf0f09ec81e6d008b4a6,Home Family Keep Fit,-1.3268212,36.8528223,gym
11, Embakasi North,Kariobangi North,-1.3151376000000001,36.86733961,6adce5e6c4c83b7244b431222243d818d34bf471,Muscle Tone Gym,-1.3271081,36.852892,gym
12, Embakasi North,Kariobangi North,-1.3151376000000001,36.86733961,3b53740f7e93d22a09de5fc8860bffe5c8fa3ae6,Muscle Health & Fitness (K) Ltd,-1.3268955,36.8526944,gym
13, Embakasi North,Kariobangi North,-1.3151376000000001,36.86733961,c052fb5927375c9473f7e0e227979a33ba3a3e41,Muscle Health,-1.3268955,36.8526944,gym
14, Embakasi North,Kariobangi North,-1.3151376000000001,36.86733961,89c505d9744c7b48d7b0f1dee913ab428acf99f0,Muscle health and fitness centre,-1.3269255,36.8526253,gym
15, Embakasi North,Kariobangi North,-1.3151376000000001,36.86733961,d7d517d24f7b866742b51ea900fac7ba4f12b32d,Body Fitters Gym & Health Centre,-1.3220897,36.8857305,gym
16, Embakasi North,Kariobangi North,-1.3151376000000001,36.86733961,f252992715e1af2f7fa95b997f8b10b59c8e5e12,Crystal Palace Gym,-1.3235707,36.885668,gym
17, Embakasi North,Kariobangi North,-1.3151376000000001,36.86733961,23e7fc033a6a40b47504999724a471a7637aca77,Turtle Dove Fitness Center,-1.3265282,36.884746,gym
18, Embakasi North,Kariobangi North,-1.3151376000000001,36.86733961,57340db52f11b13f42262da6902321d1e16dbd33,Turtle Dove Apartments,-1.3265282,36.884746,gym
19, Embakasi North,Kariobangi North,-1.3151376000000001,36.86733961,510fc0e635dd6ae8e40f11714e72d92067d8fa0e,B-Active Gym and Spa,-1.3262704,36.848333,gym
20, Embakasi North,Kariobangi North,-1.3151376000000001,36.86733961,de875c3a89d867dfc9bb694d4aab672425116b47,Potters Gym,-1.2939123,36.8611199,gym
21, Embakasi North,Kariobangi North,-1.3151376000000001,36.86733961,b11b94cac85bfd639f0bc0714e5a81feee290925,george foods,-1.2952317,36.8543694,gym
22, Embakasi North,Kariobangi North,-1.3151376000000001,36.86733961,155ed504947674eb98767dd8ce17fc7cd2a3c86d,Daniel Nuga Best,-1.2952317,36.8543694,gym
23, Embakasi North,Kariobangi North,-1.3151376000000001,36.86733961,41f0bab44d96e3973e7a32db97efea6297f5ac36,Maringo Fish Supply,-1.2915515,36.8640441,gym
24, Embakasi North,Kariobangi North,-1.3151376000000001,36.86733961,f9388f3a20bf843e12168f604eb32116cbddd1c0,Active Gym,-1.3248351,36.8896403,gym
25, Embakasi North,Kariobangi North,-1.3151376000000001,36.86733961,5ee03ead37fbd5a66e790b018bc29d3cd6b33215,Texas gym,-1.3006148,36.8886217,gym
26, Embakasi North,Kariobangi North,-1.3151376000000001,36.86733961,09dc6763883ef4dc8c5b06e88ca40549d15e38b8,Ochako-D,-1.3003132,36.8886564,gym
27, Embakasi North,Kariobangi North,-1.3151376000000001,36.86733961,083b896e3d7cde3e01d6e6e11892657135926f3d,Olmpia Body Space,-1.3257606,36.8912845,gym
28, Embakasi North,Kariobangi North,-1.3151376000000001,36.86733961,c61a61e622583baeaeeebca3036b0e4b7dda5a6d,Flex And Tone Fitness Centre,-1.292451,36.854217,gym
29, Embakasi North,Kariobangi North,-1.3151376000000001,36.86733961,f8d87247600fe4874dc0f71c142f2262744158a9,Power House Gym,-1.320596,36.89307799999999,gym
30, Embakasi North,Kariobangi North,-1.3151376000000001,36.86733961,1fa54a81f825e95523bc28f8eca7f4d9be7b5879,Maisha Fitness center,-1.3190893,36.8412673,gym
31, Embakasi North,Kariobangi North,-1.3151376000000001,36.86733961,a6ece074b9b783945deeacdabf85b55f52021a81,Get Fit Gym & Aerobics,-1.3017538,36.8901821,gym
32, Embakasi North,Kariobangi North,-1.3151376000000001,36.86733961,71e13020aa114dbfdb68f5e166af6928d8a91cbf,Maisha Fitness Center,-1.3189855,36.8411383,gym
33, Embakasi North,Kariobangi North,-1.3151376000000001,36.86733961,614f98c4a32dc9f0a709486d0eb3a5db95c8ca20,Bahati Volleyball Ground,-1.2907428,36.85635910000001,gym
34, Embakasi North,Kariobangi North,-1.3151376000000001,36.86733961,8f423cc3104524488d9424d8e9ebd7e268ef4aad,Heart and Soul,-1.3133507,36.8940599,gym
35, Embakasi North,Kariobangi North,-1.3151376000000001,36.86733961,51847ef864c8875721a55760f72b30d719566461,Health & Soul Fitness Centre,-1.3136845,36.89421949999999,gym
36, Embakasi North,Kariobangi North,-1.3151376000000001,36.86733961,e67158308c9af48c6dce517d735a9daff7046b94,Smart Gyms,-1.3286024,36.89077209999999,gym
37, Embakasi North,Kariobangi North,-1.3151376000000001,36.86733961,4c5f9daaaef11e0b3ae61729378c5f2612bc31a0,Smart Gyms Southfield,-1.3289406,36.8905871,gym
38, Embakasi North,Kariobangi North,-1.3151376000000001,36.86733961,c00f50dffbcfd8cc3cf95fadf6723f121d5afd34,Bahati Sports Geound,-1.2903245,36.8560842,gym
39, Embakasi North,Kariobangi North,-1.3151376000000001,36.86733961,0adadba05ecfccc8f31b14b719c2854557257faf,Phenomenal gym and karate training,-1.3227672,36.89404320000001,gym
