,constituency,ward,clat,clon,place_id,place_name,place_lat,place_long,place_type
0, Kibra,Lindi,-1.31516185,36.79284123,d5ad794cd65f2479ed4e01416875369961d84421,Camp Gogo Kibra,-1.311002,36.7871454,night_club
1, Kibra,Lindi,-1.31516185,36.79284123,a38fa7b56427a7b41fafa483ba4d702b0c23f244,The Scarlette Lounge,-1.300921,36.779121,night_club
2, Kibra,Lindi,-1.31516185,36.79284123,04204e0d369d7ccbb5b4aadd4138c1517ce6f19b,St. Luke,-1.294322,36.78917349999999,night_club
3, Kibra,Lindi,-1.31516185,36.79284123,bf60f9fbf6523c585a4c19ee48478f29dff91b36,Sailors Restaurant & Whiskey Lounge,-1.2925399,36.7887548,night_club
4, Kibra,Lindi,-1.31516185,36.79284123,4b25de34d6bad9c6c682ca6a1deec03365a97b67,Chrislys Lounge & Restaurant,-1.2928768,36.785789,night_club
5, Kibra,Lindi,-1.31516185,36.79284123,63e5f18282b71d2367a09bda832719f20dbade58,Onyx Lounge,-1.3000155,36.7729461,night_club
6, Kibra,Lindi,-1.31516185,36.79284123,b99a61ac8ca3f5d901fbf3f35e5acee3727f2db0,B-CLUB,-1.2910864,36.7828337,night_club
7, Kibra,Lindi,-1.31516185,36.79284123,ff72ef5188383499e8f86f5d9797270a2e7f9b4a,Casbah Lounge Bar,-1.2888366,36.80690379999999,night_club
8, Kibra,Lindi,-1.31516185,36.79284123,c4c1cf60d16d769e9204b7c43d8c6801d0bd5262,The Legend,-1.3006469,36.8254496,night_club
9, Kibra,Lindi,-1.31516185,36.79284123,319c3670bfa49468c6dd713ba45d92aa6ccd8d3d,Dolce VIP Lounge,-1.2833396,36.8183789,night_club
10, Kibra,Lindi,-1.31516185,36.79284123,4244e31cf098925c104ce2d8b7e8dbaf0beb84be,Rue 104 Lounge & Restaurant (Former Campia Lounge),-1.283396,36.81632,night_club
11, Kibra,Lindi,-1.31516185,36.79284123,b27af72b71691dca229977b54b5fbf66cf29d8bd,Eastern Africa Association,-1.2858895,36.8219153,night_club
12, Kibra,Lindi,-1.31516185,36.79284123,5bfaac2b35a072777d0fe406278e55cf78eca961,Bobos Bistro,-1.2835125,36.8218587,night_club
13, Kibra,Lindi,-1.31516185,36.79284123,bdbeb301352da8c788e33f215b1811775f073cb3,Sixtyfour Restaurant & Lounge,-1.2848333,36.82394219999999,night_club
14, Kibra,Lindi,-1.31516185,36.79284123,0cbb26c2382bc88527634bcaed818e4b98cde10a,Lazarus Inn & Grill,-1.28593,36.82619,night_club
15, Kibra,Lindi,-1.31516185,36.79284123,c8d5f659c9aa342624c725bf07bef6cfb73e3036,Club fluxx,-1.3114845,36.7879475,night_club
16, Kibra,Lindi,-1.31516185,36.79284123,fa86dcad26651970739efa6096ae9a53418eb3f6,Club 15,-1.322504,36.787481,night_club
17, Kibra,Lindi,-1.31516185,36.79284123,49b4af2dbbc1d7fe3d323548d3929a515385142c,Nairobi Yatch Club,-1.3200903,36.8014118,night_club
18, Kibra,Lindi,-1.31516185,36.79284123,8def8397201b1b11d367185d0dcbc3221e398103,The Four Horsemen Lounge,-1.324752,36.795564,night_club
19, Kibra,Lindi,-1.31516185,36.79284123,cac805d5d1fc237c5b6a45668f99ec22b1dcc4c9,Club Santana,-1.3228865,36.8007848,night_club
20, Kibra,Lindi,-1.31516185,36.79284123,ee9064c5f60728c97887d6d589764b67414ab02b,African Club,-1.3074017,36.8021232,night_club
21, Kibra,Lindi,-1.31516185,36.79284123,8341650ef1127797523a617ce0268dfdd202ef5b,Attitude Club,-1.3073856,36.8021849,night_club
22, Kibra,Lindi,-1.31516185,36.79284123,ca51d29cb1b34c0fdfb7db669ea3af87e63e24b5,Adventurers Club,-1.3070639,36.802386,night_club
23, Kibra,Lindi,-1.31516185,36.79284123,f351f92b142746f8ea31a08004f70249a6994e51,Fifth Round Bar & Lounge,-1.3069596,36.80240620000001,night_club
24, Kibra,Lindi,-1.31516185,36.79284123,785c6df4a98579d100c34678610cf7ade520bc03,Summers,-1.3240906,36.7830446,night_club
25, Kibra,Lindi,-1.31516185,36.79284123,373201921a56a583ca2cfde1fa768f239b36794d,Club 411 Kitengela,-1.3263197,36.78536959999999,night_club
26, Kibra,Lindi,-1.31516185,36.79284123,a3d14b047de4a7f1561ed660fc3745c5ead6b617,Club Grace Joint,-1.310029,36.77997500000001,night_club
27, Kibra,Lindi,-1.31516185,36.79284123,29cdcd16435557a4751289885ff111111cc7db5e,The Simba Saloon,-1.328911,36.8007113,night_club
28, Kibra,Lindi,-1.31516185,36.79284123,7f62e20aa7e3d6718c6c71c7c1b328a601f4f1af,The Simba Saloon,-1.328911,36.8007113,night_club
29, Kibra,Lindi,-1.31516185,36.79284123,f179f800ddc0b7ac8a4975b4575d836b213fdb18,The Clique Lounge,-1.3002444,36.7841477,night_club
30, Kibra,Lindi,-1.31516185,36.79284123,f93092748c679519d6cb59bcdf1d53a409d50365,Omella Centre,-1.3234098,36.77762860000001,night_club
31, Kibra,Lindi,-1.31516185,36.79284123,a66db58abcf04e7c8adf1ea1d3efc197dcd91fc9,The Cave,-1.2996562,36.784379,night_club
32, Kibra,Lindi,-1.31516185,36.79284123,e73efac05913d7068720cb1f7b7bd011d0268a1e,Summers Bar and Grill - Langata,-1.3284206,36.7800021,night_club
33, Kibra,Lindi,-1.31516185,36.79284123,8aac290ea0449f2027a83be5801b174b47f2c4c8,S.S Lounge Shisha Place,-1.3005505,36.7791249,night_club
34, Kibra,Lindi,-1.31516185,36.79284123,3f01b7607be126c8d96ebf3c63568fafde8edd0c,Club Weston,-1.315524,36.81365699999999,night_club
35, Kibra,Lindi,-1.31516185,36.79284123,72cf0e7f6cb2c0b574776c4f42db24a7c8d5d397,Sippers Bar & Restaurant,-1.294887,36.79774,night_club
36, Kibra,Lindi,-1.31516185,36.79284123,48dba021c888bcac2edbb05b5ab8e4e0edb6479a,Bleau Lounge Nairobi,-1.294927,36.7874927,night_club
37, Kibra,Lindi,-1.31516185,36.79284123,c6bd833a82bb63fa474e16b1426594be8f1af5fb,CrazyMicrophone KTV,-1.2948505,36.7872185,night_club
38, Kibra,Lindi,-1.31516185,36.79284123,a540f886d4c159261ea338f076b76f2f953a43be,Kingdavids Bar&Buchery,-1.2944296,36.7875785,night_club
39, Kibra,Lindi,-1.31516185,36.79284123,3c1e08fd481f38c61193bbe0cd372aa246af3ecb,Sailors Restaurant and Whiskey Lounge,-1.2944937,36.7983673,night_club
