,constituency,ward,clat,clon,place_id,place_name,place_lat,place_long,place_type
0, Makadara,Maringo,-1.2920714,36.86572592,ba7eac85be2109b11625aa510006d96ed435f859,Lexo Outer Ring Road,-1.3056799,36.8885788,gas_station
1, Makadara,Maringo,-1.2920714,36.86572592,eda209d07c0f97234aa8144438fd4c4cd1e9329f,Wild Beest Safaris,-1.2832818,36.8802081,gas_station
2, Makadara,Maringo,-1.2920714,36.86572592,11019dd1774587f5a364c8f2ef7753c21cf55019,Engen Petrol Station,-1.2881701,36.8518864,gas_station
3, Makadara,Maringo,-1.2920714,36.86572592,47e0fcc49d87f9769fd14d34ab64b537ba79d655,Arc Energy Investments Limited.,-1.3060905,36.8731176,gas_station
4, Makadara,Maringo,-1.2920714,36.86572592,ee30767c124847439552c46e0e1816d703035875,Hashi Energy,-1.2938631,36.8488113,gas_station
5, Makadara,Maringo,-1.2920714,36.86572592,7f7475c3d55a955c66f02e6b85e3b2bf8d7c0fb7,National Oil Corporation-Mutindwa,-1.281981,36.879478,gas_station
6, Makadara,Maringo,-1.2920714,36.86572592,72d0c8680e9a13905433a1cd8e15dc846db85027,Kenol Buruburu Mesora,-1.279034,36.877686,gas_station
7, Makadara,Maringo,-1.2920714,36.86572592,4bc974fd362107562517e8e12b3e8a356c7d4b47,Modern Coast Workshop Nairobi,-1.302005,36.8500783,gas_station
8, Makadara,Maringo,-1.2920714,36.86572592,955f0a9415de71398dd688829ad9693ae6507975,Gulf Energy-Jogoo Road,-1.293013,36.847114,gas_station
9, Makadara,Maringo,-1.2920714,36.86572592,ffd4756d693e7c8330ea0c729130a5fdf5dc055a,G-gas shop,-1.2774,36.89364,gas_station
10, Makadara,Maringo,-1.2920714,36.86572592,1502b982d5a93dbcd1db491d94577fa7535a155f,Kobil Machakos Country Bus,-1.285191,36.835385,gas_station
11, Makadara,Maringo,-1.2920714,36.86572592,2d6ea1a383a3e6817f0c3182a6b3d9c6e4193612,Automech Diesel Services Ltd,-1.3054013,36.8379987,gas_station
12, Makadara,Maringo,-1.2920714,36.86572592,0a48bcb137825cc0ff9edb4e26590defc11e415f,Co-op Kwa Jirani Sango Filling Station,-1.266,36.8858,gas_station
13, Makadara,Maringo,-1.2920714,36.86572592,57b169ac8b864d8db7c9ddf4a9c2a55fb70c9c60,Oilibya Ronald Ngala,-1.284429,36.830857,gas_station
14, Makadara,Maringo,-1.2920714,36.86572592,96c254574297ce810dbffa9d5efca97148445444,Total-ngara service station,-1.27763,36.829842,gas_station
15, Makadara,Maringo,-1.2920714,36.86572592,eea3b16b1c163d9cb65668ad2b8efe5ac622ec4c,Shell,-1.3035021,36.8284876,gas_station
16, Makadara,Maringo,-1.2920714,36.86572592,48e360d82f34a5281d6015c839f8c7f22bf9e4b8,Shell,-1.272511,36.83175309999999,gas_station
17, Makadara,Maringo,-1.2920714,36.86572592,0484adc0b62cd9f5996d03389eb575149c947081,Oilibya Bunyala Road,-1.299555,36.825823,gas_station
18, Makadara,Maringo,-1.2920714,36.86572592,95582341d959a82106b7da99d55447cc4240278f,Oilibya Pangani,-1.268059,36.8337438,gas_station
19, Makadara,Maringo,-1.2920714,36.86572592,808e432f8412f45316866c4691b67a2dd269a5c5,National oil-murang'a rd,-1.2684673,36.8326742,gas_station
20, Makadara,Maringo,-1.2920714,36.86572592,82002e172e88b4f13daf8506e809bafc5fa594c5,National Oil Corporation-Njiru,-1.268469,36.832678,gas_station
21, Makadara,Maringo,-1.2920714,36.86572592,48935d6c760031605e0a7f0ab00a6be6f788f209,Oilibya Tom Mboya,-1.2827696,36.8248861,gas_station
22, Makadara,Maringo,-1.2920714,36.86572592,4b97bd7016a32e5e4daa6d9a4c0e7ef5cc071902,National Oil,-1.2909828,36.8234441,gas_station
23, Makadara,Maringo,-1.2920714,36.86572592,3d542080230542eaf66558798aaf95c9b378f1cb,National Oil Corporation-Times,-1.290835,36.823685,gas_station
24, Makadara,Maringo,-1.2920714,36.86572592,395fc3da99de407e1fdb5dee7b1b38abccae86ed,Shell,-1.249925,36.86129199999999,gas_station
25, Makadara,Maringo,-1.2920714,36.86572592,da4591b62917bc54d36cddb42d38d6f22629cbe3,MBACHUMA ENTERPRISES,-1.2920018,36.8230766,gas_station
26, Makadara,Maringo,-1.2920714,36.86572592,18fa3c6214fcb083510db2357000472a4ff01964,National Oil Corporation-Makutano,-1.2799994,36.824801,gas_station
27, Makadara,Maringo,-1.2920714,36.86572592,b98250c0f611ffa4075a45ea3ebb0bf37e97852d,Mephis Kenya Limited,-1.2844693,36.82305249999999,gas_station
28, Makadara,Maringo,-1.2920714,36.86572592,7bc402e686d9e8f20366bb68b6fa7cb8cb794bac,National Oil Corporation-Embakasi,-1.3215428,36.8990449,gas_station
29, Makadara,Maringo,-1.2920714,36.86572592,b90980dbf2b5eb49f8e4965d41261f70a275fa99,Total - jogoo rd,-1.296661,36.868299,gas_station
30, Makadara,Maringo,-1.2920714,36.86572592,b3c50aa156164dc1e7aef4e8c20b72237ff45faa,Quality Spectrum centre,-1.2951901,36.8602467,gas_station
31, Makadara,Maringo,-1.2920714,36.86572592,d31543bf6a5bb8f1d123f4d912f579744399ea2e,Shell,-1.2957954,36.8602239,gas_station
32, Makadara,Maringo,-1.2920714,36.86572592,7e35500b741e5ce4db1875516e0ba31400cb1ee4,Shell Service centre,-1.2956191,36.8601045,gas_station
33, Makadara,Maringo,-1.2920714,36.86572592,65e5c09a039d1af14b9642c9e2f41091cdc1fe73,Mogas Petrol Station,-1.2974992,36.8696923,gas_station
34, Makadara,Maringo,-1.2920714,36.86572592,6d853a3793c81c22fd663f31769c38e955abd4a2,Oryx Energies Jogoo Road Station,-1.2980882,36.86889560000001,gas_station
35, Makadara,Maringo,-1.2920714,36.86572592,a2347be697b4e38dcb9b1abdfc2f20ef7276ff31,Gichira Health Center,-1.2976878,36.8701773,gas_station
36, Makadara,Maringo,-1.2920714,36.86572592,12eb22c63498eeede9ee5915b290191da89d3b8c,Keza Fueling Station--Bahati,-1.290472,36.8583279,gas_station
37, Makadara,Maringo,-1.2920714,36.86572592,82dfaa6054a2ed66059b56cb9a377990eee9f38d,Total - rabai road,-1.295824,36.876281,gas_station
38, Makadara,Maringo,-1.2920714,36.86572592,48b9f28f6ad2e06288c77447f8cf92b32ece75d3,Total Rabai Road Service Station,-1.29655,36.8763597,gas_station
39, Makadara,Maringo,-1.2920714,36.86572592,019fa8262fb445fc66110d36125b3d9721d72628,Kenol Petrol Station,-1.2948495,36.8769641,gas_station
