,constituency,ward,clat,clon,place_id,place_name,place_lat,place_long,place_type
0, Westlands,Kangemi,-1.2654258999999999,36.7525183,bc9730cefd7f80d3c91ee2e28049308b6e05e5bc,Sokoni Arcade,-1.2864403,36.7452228,shopping_mall
1, Westlands,Kangemi,-1.2654258999999999,36.7525183,2a15dd96a8b6fb7ebfab877d883b21d3d37ca6f2,Valley Arcade Shopping Mall,-1.2905448,36.7701684,shopping_mall
2, Westlands,Kangemi,-1.2654258999999999,36.7525183,f0ec1632517f5c568b0d9e685af863e64dcc587e,Sagrama Weavers,-1.2892331,36.7449278,shopping_mall
3, Westlands,Kangemi,-1.2654258999999999,36.7525183,2cb0bc9369ddd3787a35b602c11e07198e5787bd,Althaus Services Limited,-1.2822691,36.7665787,shopping_mall
4, Westlands,Kangemi,-1.2654258999999999,36.7525183,062c455da22c0937b5535cc3ed63419d4aa69956,Ndwaru Shopping Center,-1.2793611,36.7315543,shopping_mall
5, Westlands,Kangemi,-1.2654258999999999,36.7525183,a8e8131fe859f1558ce662ab503a5beba74051b3,Naivasha Road Mall,-1.2847336,36.7380853,shopping_mall
6, Westlands,Kangemi,-1.2654258999999999,36.7525183,6163690e89a565ea46eaaa07fd953c0e55100a8b,Tuani women's clothing stores,-1.2978368,36.7597738,shopping_mall
7, Westlands,Kangemi,-1.2654258999999999,36.7525183,f682b4feb9589e92d5acadf3fdb4680f50fc8a79,The Junction Mall,-1.2982461,36.7624381,shopping_mall
8, Westlands,Kangemi,-1.2654258999999999,36.7525183,e95d6e99665bfdab2e822d1da46db70cb8bcdfe3,Yaya Centre,-1.2928832,36.7880683,shopping_mall
9, Westlands,Kangemi,-1.2654258999999999,36.7525183,cb1c5576568ef855d65d291cef8ebaa96f34e607,Just for naturals hair kitchen,-1.3000502,36.7736875,shopping_mall
10, Westlands,Kangemi,-1.2654258999999999,36.7525183,b8f1755fa2ff50313d922e48d8ce5806124c57a0,CCTV EXEMANN SYSTEMS LTD,-1.3000091,36.7737895,shopping_mall
11, Westlands,Kangemi,-1.2654258999999999,36.7525183,245361cea774f4ce26ebc59c9d919a6852cab7b0,Mosquito Specialists Kenya,-1.2669169,36.7936942,shopping_mall
12, Westlands,Kangemi,-1.2654258999999999,36.7525183,7ffb962f5d10bba34e12e0661175c067f807bd9a,Morganite Limited,-1.2828276,36.791849,shopping_mall
13, Westlands,Kangemi,-1.2654258999999999,36.7525183,0a3235ed04870b93721fc045f0e7a7858e035306,Lavington Mall,-1.2799071,36.77020999999999,shopping_mall
14, Westlands,Kangemi,-1.2654258999999999,36.7525183,d57688d78df7591da64ed1188f29f2dd001e8747,African Fabric And Designs Kenya Ltd.,-1.3008765,36.7792203,shopping_mall
15, Westlands,Kangemi,-1.2654258999999999,36.7525183,347c68b61e8b465ef7020f4c8b4c78e39cedb400,MediaSpace Kenya,-1.2623056,36.7973114,shopping_mall
16, Westlands,Kangemi,-1.2654258999999999,36.7525183,83fa7f60bb5ff5a78ae6398389ccc4682099356e,Sodom Shopping Center,-1.2639219,36.75429930000001,shopping_mall
17, Westlands,Kangemi,-1.2654258999999999,36.7525183,ad7972865044030ffcbdfd40dc303e5c076ffc59,Hot Point Bazaar,-1.2646281,36.749879,shopping_mall
18, Westlands,Kangemi,-1.2654258999999999,36.7525183,5405615d299220f5e48d5204b42ad9c46dcce929,Westlands,-1.2641447,36.7569228,shopping_mall
19, Westlands,Kangemi,-1.2654258999999999,36.7525183,1c5823d53cb2debc6fc0e0c1a5481597dd85fc03,Python Electronics,-1.2701695,36.7525241,shopping_mall
20, Westlands,Kangemi,-1.2654258999999999,36.7525183,44a67d9c4536802eaf713fd71ab775dcc597db57,MUTHAIGA MINI MARKET,-1.263745,36.7473297,shopping_mall
21, Westlands,Kangemi,-1.2654258999999999,36.7525183,e54d9a6ddfe9c41a47addbbe8c3c99689ce2afba,Soko Huru Gen Shop,-1.2671442,36.75830430000001,shopping_mall
22, Westlands,Kangemi,-1.2654258999999999,36.7525183,705c2e6626bbf3bc93de462ca142409feb29e3d8,NYAKUNDI SHOP,-1.264463,36.7456741,shopping_mall
23, Westlands,Kangemi,-1.2654258999999999,36.7525183,7c0354ece1f1eab74aa4a93f7a33744c804efe4f,NYAKUNDI SHOP,-1.2646963,36.745434,shopping_mall
24, Westlands,Kangemi,-1.2654258999999999,36.7525183,7f597560518c11d7873e6866b905f1f622ba537e,Westlands Ojiju Road,-1.2580162,36.7487244,shopping_mall
25, Westlands,Kangemi,-1.2654258999999999,36.7525183,ee0f0367e2dfec69bf9a215c218fe4ca4b4a88da,Ganesh Sweet Mart,-1.2704197,36.74531899999999,shopping_mall
26, Westlands,Kangemi,-1.2654258999999999,36.7525183,ba47f1e463a7aac56609b264c18e24e24c6b3851,Havana G. Store,-1.2675408,36.7433754,shopping_mall
27, Westlands,Kangemi,-1.2654258999999999,36.7525183,8a31801d24bd05ee5779ad1d1179c75ca29a8269,Millie Court Estate,-1.2665568,36.76215140000001,shopping_mall
28, Westlands,Kangemi,-1.2654258999999999,36.7525183,303e372fa9ce95a63ed1a555dae1ad4d153b290b,The Avenue 19,-1.2654709,36.7632167,shopping_mall
29, Westlands,Kangemi,-1.2654258999999999,36.7525183,b7c7ca8fb79fc6e3c4c4d6d7e9d8e4183f25162d,Blessed Hope Shop Gatina Kawangware 56,-1.2756638,36.7566376,shopping_mall
30, Westlands,Kangemi,-1.2654258999999999,36.7525183,a2ba4e7857ca4881d9d9330313c4a1562decef67,Naivas mountain view,-1.2656297,36.7409298,shopping_mall
31, Westlands,Kangemi,-1.2654258999999999,36.7525183,7a52256e7e0985ecf7ecaea5aa3a5a70ccea9b47,Ahadi General Shop,-1.2792347,36.7511314,shopping_mall
32, Westlands,Kangemi,-1.2654258999999999,36.7525183,c247dc484e0d7aafd9041fd51299b405d39c812e,Loresho Shopping Centre,-1.2517275,36.7563909,shopping_mall
33, Westlands,Kangemi,-1.2654258999999999,36.7525183,b0e98b199d9c20a96ba47e26d07878969dfc0ce6,JDs Supermarket,-1.2514219,36.75688239999999,shopping_mall
34, Westlands,Kangemi,-1.2654258999999999,36.7525183,975054717a5c12f96c614e4a01bc8abc2567e11d,TOP FAVOUR INVESTMENT,-1.2796336,36.7567366,shopping_mall
35, Westlands,Kangemi,-1.2654258999999999,36.7525183,0926e5bbc6b12998d3471c7a55b2ea1b69ae9d92,Njoki's Kiosk,-1.2511745,36.75671,shopping_mall
36, Westlands,Kangemi,-1.2654258999999999,36.7525183,b8376cba448ace2a1ed87fb0881bff744234972f,kijana msafi Butchery,-1.2818071,36.7538715,shopping_mall
37, Westlands,Kangemi,-1.2654258999999999,36.7525183,8d799a21afb0ef0e1b4af037b8e0bf5ba0663a00,Sideways Gen.shop,-1.2818595,36.75378589999999,shopping_mall
38, Westlands,Kangemi,-1.2654258999999999,36.7525183,af7decf999f65f45c0b6231b5040b03bc55fe7ca,Meja shoes botique,-1.2822333,36.7523102,shopping_mall
39, Westlands,Kangemi,-1.2654258999999999,36.7525183,c668f9b9d355d59d96e0074472ddea5559ecac5b,Madollar prijce,-1.2822722,36.7523652,shopping_mall
