,constituency,ward,clat,clon,place_id,place_name,place_lat,place_long,place_type
0, Embakasi West,Umoja 2,-1.2818728000000001,36.899339700000006,ffd4756d693e7c8330ea0c729130a5fdf5dc055a,G-gas shop,-1.2774,36.89364,gas_station
1, Embakasi West,Umoja 2,-1.2818728000000001,36.899339700000006,ba7eac85be2109b11625aa510006d96ed435f859,Lexo Outer Ring Road,-1.3056799,36.8885788,gas_station
2, Embakasi West,Umoja 2,-1.2818728000000001,36.899339700000006,eda209d07c0f97234aa8144438fd4c4cd1e9329f,Wild Beest Safaris,-1.2832818,36.8802081,gas_station
3, Embakasi West,Umoja 2,-1.2818728000000001,36.899339700000006,7f7475c3d55a955c66f02e6b85e3b2bf8d7c0fb7,National Oil Corporation-Mutindwa,-1.281981,36.879478,gas_station
4, Embakasi West,Umoja 2,-1.2818728000000001,36.899339700000006,0a48bcb137825cc0ff9edb4e26590defc11e415f,Co-op Kwa Jirani Sango Filling Station,-1.266,36.8858,gas_station
5, Embakasi West,Umoja 2,-1.2818728000000001,36.899339700000006,72d0c8680e9a13905433a1cd8e15dc846db85027,Kenol Buruburu Mesora,-1.279034,36.877686,gas_station
6, Embakasi West,Umoja 2,-1.2818728000000001,36.899339700000006,47e0fcc49d87f9769fd14d34ab64b537ba79d655,Arc Energy Investments Limited.,-1.3060905,36.8731176,gas_station
7, Embakasi West,Umoja 2,-1.2818728000000001,36.899339700000006,7bc402e686d9e8f20366bb68b6fa7cb8cb794bac,National Oil Corporation-Embakasi,-1.3215428,36.8990449,gas_station
8, Embakasi West,Umoja 2,-1.2818728000000001,36.899339700000006,9e5ebf4475d68cdd03321359ae487a47df0a2406,OiLibya Njiru,-1.2534648,36.9336095,gas_station
9, Embakasi West,Umoja 2,-1.2818728000000001,36.899339700000006,1f9b65d3d2183d377a6671883d3c1c52ed051082,Citizen Drycleaners,-1.2810332,36.8999074,gas_station
10, Embakasi West,Umoja 2,-1.2818728000000001,36.899339700000006,d4f723875b37c59c0fb55d5cdf0077cfaee7718a,Benjos Gas & Kerosene,-1.2808164,36.89980719999999,gas_station
11, Embakasi West,Umoja 2,-1.2818728000000001,36.899339700000006,8ac743cecdf35f2648ffb1d5dbcd4ba25bfac17c,Kerosene Pump,-1.2813731,36.8968413,gas_station
12, Embakasi West,Umoja 2,-1.2818728000000001,36.899339700000006,e13319055550e215880322d7c3ccc73130c9d6de,Kahungoa Kerosene Wholesale & Retail,-1.2793566,36.8983199,gas_station
13, Embakasi West,Umoja 2,-1.2818728000000001,36.899339700000006,39dcb7f9b5f74532c7b87cff9675eb210f984538,Umoja 2 Gas Point,-1.2786281,36.8997538,gas_station
14, Embakasi West,Umoja 2,-1.2818728000000001,36.899339700000006,2a9bbbbdc6d24218317bf406d3f8e5b50ccb760c,Mulatto Gas Suppliers,-1.2841864,36.8968775,gas_station
15, Embakasi West,Umoja 2,-1.2818728000000001,36.899339700000006,4c3649f70d828e1801c9a9c30cfe28c9e2fc9dbc,Petrol Station,-1.2783528,36.8997395,gas_station
16, Embakasi West,Umoja 2,-1.2818728000000001,36.899339700000006,af0b430c40b5e30e77539bfac8a3d08e1035b11b,Shell Service Station,-1.282963,36.9029602,gas_station
17, Embakasi West,Umoja 2,-1.2818728000000001,36.899339700000006,6fb394b1a2184e423a9889bbac84dd0200db54b4,Memories Gas Centre,-1.2855433,36.89664589999999,gas_station
18, Embakasi West,Umoja 2,-1.2818728000000001,36.899339700000006,6aebe52824e1b21c91f2432379fd73c68179ab00,Phexo Car Doctor,-1.283677,36.89408170000001,gas_station
19, Embakasi West,Umoja 2,-1.2818728000000001,36.899339700000006,d47ceaf53decc3f2058ef16659693bcdebaa2498,Realoil Service Station,-1.2815528,36.9052843,gas_station
20, Embakasi West,Umoja 2,-1.2818728000000001,36.899339700000006,a62df2539e1cc0d2bed79ad2bc210edc2f612a54,Victory A Kerosene Pump,-1.2861939,36.8944304,gas_station
21, Embakasi West,Umoja 2,-1.2818728000000001,36.899339700000006,9a55cfafce2d4a125aa6b1d08185ce760cf22c87,Quality Safe Energy,-1.2858758,36.8941574,gas_station
22, Embakasi West,Umoja 2,-1.2818728000000001,36.899339700000006,e90f659cded80559874fc4831e4b34fe692f2e4f,Kobil,-1.2885533,36.9007158,gas_station
23, Embakasi West,Umoja 2,-1.2818728000000001,36.899339700000006,2e60b398cde44ba252cc73f230ceed35057d6890,Lavington St Austins Shell Petrol Station,-1.2788046,36.8931543,gas_station
24, Embakasi West,Umoja 2,-1.2818728000000001,36.899339700000006,64008b1338d456f30574d36705c38359c91b6065,Zion Gas,-1.2794267,36.8918928,gas_station
25, Embakasi West,Umoja 2,-1.2818728000000001,36.899339700000006,e9ae39124973604ac37fd35533e76b3e9e0d5c77,Petrogas,-1.2888464,36.9034046,gas_station
26, Embakasi West,Umoja 2,-1.2818728000000001,36.899339700000006,6c7a5ef9bc5ca0b850b3afb639fc2c49e0ed8031,Hope Filing Station,-1.2792795,36.90707329999999,gas_station
27, Embakasi West,Umoja 2,-1.2818728000000001,36.899339700000006,aac9a6293ee2c318d29571a7e71279218070f163,Kenol Kangundo Road,-1.273644,36.897042,gas_station
28, Embakasi West,Umoja 2,-1.2818728000000001,36.899339700000006,2550fa2908369f8c787ddcbba70dd85c1830f82c,Kawi Gass Suppliers,-1.2783206,36.9081938,gas_station
29, Embakasi West,Umoja 2,-1.2818728000000001,36.899339700000006,0bdd29de9fdc42bd8784be70f54ea4371929a1af,Nomad Energy,-1.2751163,36.89095509999999,gas_station
30, Embakasi West,Umoja 2,-1.2818728000000001,36.899339700000006,9a0b235fdaee04da3a2e5789865e902f29879066,TSS Pop-in Petrol Station,-1.275033,36.89062439999999,gas_station
31, Embakasi West,Umoja 2,-1.2818728000000001,36.899339700000006,d2db30cbdf39c5e32942318c5a539e66ef188b56,Kerosene Shop,-1.2866573,36.8886382,gas_station
32, Embakasi West,Umoja 2,-1.2818728000000001,36.899339700000006,a8a13e0c074f8d2c5b2642d91e9cb57737102dcb,Luckystar Investment.,-1.2792825,36.9109323,gas_station
33, Embakasi West,Umoja 2,-1.2818728000000001,36.899339700000006,1bae03f2b3e61bc69ba30c132477092fc120d937,MC2 Filling Station,-1.2752354,36.8894275,gas_station
34, Embakasi West,Umoja 2,-1.2818728000000001,36.899339700000006,ce041eadc744789556d8d2a6f0cdca953dbf3fe0,Petrocity,-1.2730986,36.89118289999999,gas_station
35, Embakasi West,Umoja 2,-1.2818728000000001,36.899339700000006,760baf9329afdd0c259178da9c5befdb4bfe46b8,Berut,-1.2848394,36.8873195,gas_station
36, Embakasi West,Umoja 2,-1.2818728000000001,36.899339700000006,6b44e58ce6099cfe2f654e0479fc010692e026dd,Oilcom Filling Station,-1.2753087,36.8886712,gas_station
37, Embakasi West,Umoja 2,-1.2818728000000001,36.899339700000006,9910c85c9eaeceddc036801409b2f387c44d6b67,oilcom kangundo rd,-1.2753065,36.88867,gas_station
38, Embakasi West,Umoja 2,-1.2818728000000001,36.899339700000006,d36551fe257d4e80deb95b78fcab82abc23ea7b0,Cando's Kerosene Pump,-1.2768819,36.9114738,gas_station
39, Embakasi West,Umoja 2,-1.2818728000000001,36.899339700000006,c890f3b6c1529acbc631af87323eee340da0065a,Nobil Kerosene Suppliers,-1.270542,36.9071102,gas_station
40, Embakasi West,Umoja 2,-1.2818728000000001,36.899339700000006,76b0e63d447ec88d36c01b9b13f69d7dff09348f,SHELL NOBIL SERVICE STATION,-1.2734864,36.9109473,gas_station
41, Embakasi West,Umoja 2,-1.2818728000000001,36.899339700000006,e9696c6b21a6d636a83bf41a3ded6d820f5e6a2c,Shell petrol station,-1.2731849,36.9111517,gas_station
42, Embakasi West,Umoja 2,-1.2818728000000001,36.899339700000006,79ca33e16ce9508b686abb8ef326c06f8cf4524f,Kenol Petrol Station,-1.2726035,36.9110048,gas_station
43, Embakasi West,Umoja 2,-1.2818728000000001,36.899339700000006,5efc9782f08cc9b8111074b66bf4588da700b59a,Lemi-Matt Limited,-1.284629,36.884605,gas_station
44, Embakasi West,Umoja 2,-1.2818728000000001,36.899339700000006,e1b1bb1c6dde9464915914ceaa465767418c3586,Shell Nobil Petrol Station,-1.2728717,36.9113374,gas_station
45, Embakasi West,Umoja 2,-1.2818728000000001,36.899339700000006,c632ae9f86910905392d7ac9aced762d7e87b24a,Kenol Kayole,-1.27624,36.91432899999999,gas_station
46, Embakasi West,Umoja 2,-1.2818728000000001,36.899339700000006,996c46d007d25aaa46809f3c4b85da54732f425b,Gracious Technical Services,-1.2810601,36.88318720000001,gas_station
47, Embakasi West,Umoja 2,-1.2818728000000001,36.899339700000006,04a00f067765bca12e79494c587b9cd844469750,Karuoth International Services,-1.2802254,36.883207,gas_station
48, Embakasi West,Umoja 2,-1.2818728000000001,36.899339700000006,66f62ba3d849fc1488f6a179e9ebfa5602e1dca9,Fespen Cyber,-1.2820452,36.8830991,gas_station
49, Embakasi West,Umoja 2,-1.2818728000000001,36.899339700000006,c10aabef307ab419a3ed966b2da6ec233ee943c4,Chieni Filling Station,-1.2805532,36.8831084,gas_station
50, Embakasi West,Umoja 2,-1.2818728000000001,36.899339700000006,ab7a3865227a173b5600a67bd37ef168948fe711,Safeway Enterprices Service Station,-1.2904982,36.8855226,gas_station
51, Embakasi West,Umoja 2,-1.2818728000000001,36.899339700000006,45329332c5c4e2ad64004ac26119f2d10ff4f2fe,PTS Pump Services,-1.2797136,36.8830696,gas_station
52, Embakasi West,Umoja 2,-1.2818728000000001,36.899339700000006,d7ad4cd457d8c8620e96378d13c4c43861d58c01,Total Kangundo Road Service Station,-1.2779777,36.8831004,gas_station
53, Embakasi West,Umoja 2,-1.2818728000000001,36.899339700000006,687b32bf972e8cdf831e8be59decb388aaa377bb,Total Kayole Service Station,-1.277747,36.88301800000001,gas_station
54, Embakasi West,Umoja 2,-1.2818728000000001,36.899339700000006,67c93aed7af468a9f19e43cd4bbcc72186ca53ab,Caltex petrol station,-1.2777081,36.8829564,gas_station
55, Embakasi West,Umoja 2,-1.2818728000000001,36.899339700000006,6c511be09b1528faec49cd4f93d4119084b23d1f,Mowlem Chief Camp,-1.2647935,36.90051330000001,gas_station
56, Embakasi West,Umoja 2,-1.2818728000000001,36.899339700000006,774079e5554d76eecca9d2abd08e0722717b2c98,Maxtour Tyres Services,-1.2929711,36.8861232,gas_station
57, Embakasi West,Umoja 2,-1.2818728000000001,36.899339700000006,60dea62d1b000a054ef626d7c01802a38448523c,"Total Petrol Station, (Komarock)",-1.2652963,36.90473979999999,gas_station
58, Embakasi West,Umoja 2,-1.2818728000000001,36.899339700000006,a7d1ba38437e7ac8ff3cf49516e749e57c990a46,Shell,-1.2937844,36.8864083,gas_station
59, Embakasi West,Umoja 2,-1.2818728000000001,36.899339700000006,9e9d3649896cb0b12ad63fe1fea05dd50f0e6288,Wa Joy Gas Investments,-1.2717615,36.91473309999999,gas_station
