,constituency,ward,clat,clon,place_id,place_name,place_lat,place_long,place_type
0, Makadara,Makongeni,-1.2873101,36.87210716,56bedc7766989214acf0b865c0e63006ef171dcf,Habib bank,-1.3042751,36.8384698,bank
1, Makadara,Makongeni,-1.2873101,36.87210716,24fa14f798254712c7b5b78916e618827c7f2509,KCB Buru Buru,-1.2883975,36.88055039999999,bank
2, Makadara,Makongeni,-1.2873101,36.87210716,05ee486f954c2e46f8c91aa0b789a62c959be468,Co-operative Bank,-1.3018651,36.88802859999999,bank
3, Makadara,Makongeni,-1.2873101,36.87210716,b17c960e6fcd69561705c8848669aa12705805a3,Standard Chartered Bank ATM,-1.287593,36.880969,bank
4, Makadara,Makongeni,-1.2873101,36.87210716,a49a15802ff9f6cb4761be6a0fc86a8fec773269,Co - operative Bank,-1.2831242,36.8797741,bank
5, Makadara,Makongeni,-1.2873101,36.87210716,b7775ddec32654b64764cc89987eff082d2a839b,PesaPoint POS Caltex - Likoni Road Station,-1.306101,36.85676999999999,bank
6, Makadara,Makongeni,-1.2873101,36.87210716,c2b6363be10c7cbe78c5f6506dbdfee0c3456131,PesaPoint POS Mwea Traders,-1.285925,36.883265,bank
7, Makadara,Makongeni,-1.2873101,36.87210716,5e929acc7dac3dac8e79d9b66a313802f85d2898,KCB ATM,-1.2846061,36.8850598,bank
8, Makadara,Makongeni,-1.2873101,36.87210716,4b4ffc2e7ff052223f0415415da48f9f4777ffdf,Equity Bank Donholm,-1.3021438,36.8879913,bank
9, Makadara,Makongeni,-1.2873101,36.87210716,b1f79a5985ab4afd87b19fcecf604f654e2aa44f,PesaPoint POS Kent Pharmacitical Ltd - Gulf Jogoo,-1.290264,36.883903,bank
10, Makadara,Makongeni,-1.2873101,36.87210716,0b34b2e8417c96a3a58478b4f6c93e3ee6c573a5,KCB Eastleigh Branch,-1.279073,36.851183,bank
11, Makadara,Makongeni,-1.2873101,36.87210716,2447ba8bc5993532fe19f18aa3f93f3018513b20,PesaPoint POS Caltex Donholm Tassia,-1.301089,36.88830499999999,bank
12, Makadara,Makongeni,-1.2873101,36.87210716,762508b365fa67ea5fb13e94d6ce83c09d501a5a,PesaPoint POS Rangechem Pharmacy - Buruburu,-1.286729,36.879343,bank
13, Makadara,Makongeni,-1.2873101,36.87210716,f83e409a7920c5de546d379660f9ef734c229891,Standard Chartered Bank ATM,-1.301806,36.88814099999999,bank
14, Makadara,Makongeni,-1.2873101,36.87210716,2370218acab9d397920d6513eef6a873f9964273,PesaPoint POS Caltex - Outering Road,-1.301081,36.888307,bank
15, Makadara,Makongeni,-1.2873101,36.87210716,d1344c448d0ca34211215bb241c7fa5e41007e8f,PesaPoint POS Alca System -Buruburu,-1.272437,36.877273,bank
16, Makadara,Makongeni,-1.2873101,36.87210716,93e6fee4729e2da3deb7e07f51c1ed431668cb66,PesaPoint POS Wabcom Technologies - Buruburu,-1.272533,36.87975399999999,bank
17, Makadara,Makongeni,-1.2873101,36.87210716,44ad20844f4a1efcaffacc031dc9e3e21f3fba21,Equity Bank Buru Buru,-1.282729,36.8795522,bank
18, Makadara,Makongeni,-1.2873101,36.87210716,888c2d548fd796c94b587e03a9920ba55fb2b503,PesaPoint POS Logical Links - Kariobangi South,-1.266586,36.88474000000001,bank
19, Makadara,Makongeni,-1.2873101,36.87210716,feac0460442dd6401008ff7722e9fc84e72387b8,Co-operative bank Naccico branch,-1.2873999,36.8374736,bank
20, Makadara,Makongeni,-1.2873101,36.87210716,e6899567dc94d442b1bf5bbe914b4c7345af1b90,PesaPoint POS Macnut Farm Product,-1.301821,36.888189,bank
21, Makadara,Makongeni,-1.2873101,36.87210716,273c0655fc356499e16926128925dafbee06278b,Standard Chartered Bank ATM,-1.2788301,36.8499644,bank
22, Makadara,Makongeni,-1.2873101,36.87210716,692ee4cb1ddcfe8a2ea89f08c3ab18e26197b3c4,PesaPoint POS Southend Grocers - Kariobangi,-1.266543,36.884585,bank
23, Makadara,Makongeni,-1.2873101,36.87210716,60f1f61788bee2091dabbfee728086a2f0d73ec8,PesaPoint POS Mark G Shop,-1.280203,36.877536,bank
24, Makadara,Makongeni,-1.2873101,36.87210716,f55b06434f5a5b45794d6acc365807572f91741f,PesaPoint POS Kamindi Selfridges Donholm,-1.298453,36.891172,bank
25, Makadara,Makongeni,-1.2873101,36.87210716,c4a7ff13883227e09e2463efebb1ee9128b86204,Equity Bank Agent,-1.293616,36.86119099999999,bank
26, Makadara,Makongeni,-1.2873101,36.87210716,1624caf07442d6b66766001126180ba601554584,PesaPoint POS East Side Mini Shop,-1.272925,36.877659,bank
27, Makadara,Makongeni,-1.2873101,36.87210716,520bd7bf2b117c6fb9ecb297a831ce2f36160a55,PesaPoint POS Oil Libya - Josco Ltd,-1.283517,36.882806,bank
28, Makadara,Makongeni,-1.2873101,36.87210716,b3435b7249548595fd168d50b554703c96f995fd,PesaPoint POS Conner Shop,-1.274684,36.87764,bank
29, Makadara,Makongeni,-1.2873101,36.87210716,e8dfd7aa70520e3c3e11d5e97a43a25a6c93b638,KCB ATM,-1.271412,36.861308,bank
30, Makadara,Makongeni,-1.2873101,36.87210716,8aa3f282d2f89cf20cee2beee0ad07c47696e2d5,PesaPoint POS Tats Enterprises - Kean Company,-1.27241,36.87871,bank
31, Makadara,Makongeni,-1.2873101,36.87210716,c8c45845350ad13e27b119a69c10d27ee2687513,Stanbic Bank-Buruburu,-1.2826375,36.87912339999999,bank
32, Makadara,Makongeni,-1.2873101,36.87210716,6be73f98123ed453867452fec93b0fef1a6dca30,Co-operative Bank of Kenya,-1.283462,36.879809,bank
33, Makadara,Makongeni,-1.2873101,36.87210716,6753412ffff5c36530c7bd7b96c139324d924356,PesaPoint POS Eastleigh Mattress,-1.304771,36.85801500000001,bank
34, Makadara,Makongeni,-1.2873101,36.87210716,4c5f53bc4185dbe657bd4b005ac3f69b44830194,National Bank ATM-Buruburu,-1.279238,36.87756,bank
35, Makadara,Makongeni,-1.2873101,36.87210716,e0d181e5c96b272c6e2e2259fbbf6807144786fc,PesaPoint POS Victory Mini Shop,-1.290848,36.883002,bank
36, Makadara,Makongeni,-1.2873101,36.87210716,91e1683410e66d8161dc05b7e8316b7103ac8ac9,Chase Bank - Fair Deal Solutions,-1.2847654,36.8842634,bank
37, Makadara,Makongeni,-1.2873101,36.87210716,712ee0f06598a563f0c99d286bc54355fab8e33a,Chase Bank - Power Point General Suppliers,-1.285677,36.884725,bank
38, Makadara,Makongeni,-1.2873101,36.87210716,4acc046479f23509c47c96ece20891a579a1fa3c,PesaPoint POS Juaglo Enterprises,-1.271917,36.879499,bank
39, Makadara,Makongeni,-1.2873101,36.87210716,f2c1a167978aa9a8996bf908d530f37613d2610b,PesaPoint POS Smart Shop,-1.2928,36.886199,bank
40, Makadara,Makongeni,-1.2873101,36.87210716,5f73444447763e734e3c9640029b14a0343d4fb0,Chase Bank - Umoja Cycles Solutions,-1.282477,36.886772,bank
41, Makadara,Makongeni,-1.2873101,36.87210716,bfa83a511f15140e78044694a6abda1d424ffacc,The Co-operative Bank,-1.2840457,36.88728870000001,bank
42, Makadara,Makongeni,-1.2873101,36.87210716,51e4b4afa87c3f8002212f5e3ab345c82d38b5dc,KCB ATM,-1.2955152,36.8883665,bank
43, Makadara,Makongeni,-1.2873101,36.87210716,1683b3d29dd3737afd80c8701208e5ea1135391e,Chase Bank - Umoja Cycles Solutions,-1.278702,36.888438,bank
44, Makadara,Makongeni,-1.2873101,36.87210716,434a28ea01ca6a1d86a37b375fe60f9ed21c1cbe,Equity Bank Agent,-1.283147,36.85406700000001,bank
45, Makadara,Makongeni,-1.2873101,36.87210716,dad0d4622f080bae2d9d5d051511449a25790d2c,Equity Bank Agent,-1.295783,36.889386,bank
46, Makadara,Makongeni,-1.2873101,36.87210716,c6c9c168e2a0b9459e2244de250bf1fbda9d73e1,Chase Bank - Rafiki DTM - Likoni,-1.30735,36.873544,bank
47, Makadara,Makongeni,-1.2873101,36.87210716,42ea98a4232b15aac0f179230f69c3b104007faf,Equity Bank Agent,-1.298614,36.855226,bank
48, Makadara,Makongeni,-1.2873101,36.87210716,ebdf81665f0702cd468ac23cc8b80a9fe8b55bda,First Community Bank - Lunga Lunga Branch,-1.3076887,36.87236490000001,bank
49, Makadara,Makongeni,-1.2873101,36.87210716,3cf6cc6e0fbd1702fd6001dc8722b491368fea3d,Standard Chartered Bank ATM,-1.292792,36.847074,bank
50, Makadara,Makongeni,-1.2873101,36.87210716,18f1d4b6af51be4f73ec422f17d4e0add4192300,PesaPoint POS Surfworld Technologies,-1.298088,36.891081,bank
51, Makadara,Makongeni,-1.2873101,36.87210716,2d900c188a8323b5eeb4fd583009021b12f14440,Jamii Bora Bank Ltd,-1.3008243,36.8896547,bank
52, Makadara,Makongeni,-1.2873101,36.87210716,1a5e3437d8923182d0bf7f7f3d61218923eb0ace,First Community Bank,-1.2791612,36.8508107,bank
53, Makadara,Makongeni,-1.2873101,36.87210716,1531443db7c011eb606620889d3cb8afabacfde2,Diamond Trust Bank,-1.2794763,36.8503198,bank
54, Makadara,Makongeni,-1.2873101,36.87210716,c3ab6ca5e2747799c7c98d735e14600c8bc2e2a0,Equity Bank Agent,-1.27491,36.852264,bank
55, Makadara,Makongeni,-1.2873101,36.87210716,052ff41b782378183fd2d44033e179ed0adbdd6c,Postbank Eastleigh Branch,-1.2721919,36.85047160000001,bank
56, Makadara,Makongeni,-1.2873101,36.87210716,936593b9330bc53185a6d74fe5c5851c5cccb543,Gult African Bank,-1.2789554,36.849715,bank
57, Makadara,Makongeni,-1.2873101,36.87210716,5f9a46c96d32ceeb1e18846b5bac2f257e298bd4,PesaPoint POS Bivolex Electrical,-1.266913,36.884689,bank
58, Makadara,Makongeni,-1.2873101,36.87210716,c178c8769721ec4a355e388ecf5d2178418a4133,Equity Bank Agent,-1.2602684,36.87443020000001,bank
59, Makadara,Makongeni,-1.2873101,36.87210716,3c7fb7f40107fdf0c30975b5f3aaf2c8f8e89a05,PesaPoint POS Mt. Moriah - Gikomba,-1.285174,36.840728,bank
