,constituency,ward,clat,clon,place_id,place_name,place_lat,place_long,place_type
0, Ruaraka,Mathare North,-1.251788,36.87077217,94c727aabc0748ebe5111a47ed0fd388a40e49d0,Heidemarie Mathare 4 A Primary School,-1.2574108,36.8632091,primary_school
1, Ruaraka,Mathare North,-1.251788,36.87077217,8db15b4e9f56af57bfa268b0ab85760cc992c5c3,Baba Dogo Primary School,-1.2434091,36.8865702,primary_school
2, Ruaraka,Mathare North,-1.251788,36.87077217,a581ce699fe50e64485995ad2e6fa724262e36bf,"Achievement Academic Centre International, Komarock - Nairobi",-1.259527,36.884564,primary_school
3, Ruaraka,Mathare North,-1.251788,36.87077217,67a8da32c1a31e90d5fb79eb2994781914e2343f,Mountain View School,-1.223324,36.878611,primary_school
4, Ruaraka,Mathare North,-1.251788,36.87077217,f664c028b2a1374c92a3b833470d735e345740a9,Outer - Ring Schools,-1.2658238,36.88004839999999,primary_school
5, Ruaraka,Mathare North,-1.251788,36.87077217,17933ce37df6127aeb084105eff968e05f37ea09,Missions of Hope International,-1.2541222,36.868654,primary_school
6, Ruaraka,Mathare North,-1.251788,36.87077217,eba487199d5668396e94985b59a6ea0d08a9158a,Missions of Hope International Kiamaiko Centre,-1.2547873,36.8753663,primary_school
7, Ruaraka,Mathare North,-1.251788,36.87077217,21f5ff702def0a5515525c471833f5f2fb7108ba,Missions of Hope International Madoya/Huruma Centre,-1.2582827,36.87186459999999,primary_school
8, Ruaraka,Mathare North,-1.251788,36.87077217,87f5b9ae44a6ea4d1941328e4a68c7eacce4ab02,Bishop kitonga academy huruma primary school,-1.2620948,36.866212,primary_school
9, Ruaraka,Mathare North,-1.251788,36.87077217,c357fd4995ec0461bb88bca7bfe226d309d687eb,Missions of Hope International Baba Dogo Centre,-1.2482871,36.8833432,primary_school
10, Ruaraka,Mathare North,-1.251788,36.87077217,e10821c6be084ac8a6a4f355e8df4162945bb030,Missions of Hope International Korogocho Nyayo Centre,-1.2544963,36.8870446,primary_school
11, Ruaraka,Mathare North,-1.251788,36.87077217,89cf193230d2959594b178c7b40614109a017767,Missions of Hope International,-1.2496521,36.8874912,primary_school
12, Ruaraka,Mathare North,-1.251788,36.87077217,50079a74d622470bd73b9175493f2aa82b0c5290,Missions of Hope International Korogocho B Centre,-1.253413,36.8879289,primary_school
13, Ruaraka,Mathare North,-1.251788,36.87077217,4523f3629c502054f906d2620e31ce28cd5832a1,Missions of Hope International,-1.2620476,36.8552537,primary_school
14, Ruaraka,Mathare North,-1.251788,36.87077217,676df1c15bd0b25a66bd03f2bed9688086048c20,Missions of Hope International - Kosovo Centre,-1.2625423,36.8506376,primary_school
15, Ruaraka,Mathare North,-1.251788,36.87077217,ab8865b6446121688f6d64e6e1eb5b6dfbf24c4c,Missions of Hope International,-1.2643454,36.8449255,primary_school
16, Ruaraka,Mathare North,-1.251788,36.87077217,69fd2f88e888822bf8805bee635b31993faebc6c,Missions of Hope International - Bondeni Centre,-1.2679719,36.8433644,primary_school
17, Ruaraka,Mathare North,-1.251788,36.87077217,bdf6d81a42372c015367255599dd2f8ad6607dc5,Antocy Christian School,-1.2777514,36.889976,primary_school
18, Ruaraka,Mathare North,-1.251788,36.87077217,8b43c77eca2752e657d686711f310e5eb7dbc1a2,Ruaraka Academy,-1.2154774,36.8764847,primary_school
19, Ruaraka,Mathare North,-1.251788,36.87077217,09fb2f2170182f650e758a9ed6b2859c60b20c26,Akima Springs Junior School,-1.2136826,36.8658984,primary_school
20, Ruaraka,Mathare North,-1.251788,36.87077217,ae1583b10069abeaf05021ffa8f8f48048f064bf,Silver Gate Academy,-1.2559799,36.9143716,primary_school
21, Ruaraka,Mathare North,-1.251788,36.87077217,3f62ca29293ec747d063b83e7b6bd3f1e6b37de3,Lakewood School,-1.2732324,36.91020549999999,primary_school
22, Ruaraka,Mathare North,-1.251788,36.87077217,8807abd637ef76c0897bd71b16dd54fe775bebda,Thika Road Christian School,-1.2235282,36.8863522,primary_school
23, Ruaraka,Mathare North,-1.251788,36.87077217,411d00d5d113f0c7789c56e583bda35f4c98f9ad,Young Heirs Academy Primary School,-1.2514192,36.87081190000001,primary_school
24, Ruaraka,Mathare North,-1.251788,36.87077217,4e714fcad55daee43c2fd618a86e692c090b769d,Jojo Junior School,-1.251454,36.8710935,primary_school
25, Ruaraka,Mathare North,-1.251788,36.87077217,dd050f75b35bc1a7aa3a835d81c04282884fe034,Amson Education Centre,-1.2524113,36.8709265,primary_school
26, Ruaraka,Mathare North,-1.251788,36.87077217,f02acee60cff007f05d255ba2d20c33bf1af471a,Mercury Junior Academy Primary School,-1.2518858,36.87156830000001,primary_school
27, Ruaraka,Mathare North,-1.251788,36.87077217,a145d6680cc3df6c21d2e0ad4980550b3a9a2076,Mercury Junior A. Centre,-1.2517634,36.8716725,primary_school
28, Ruaraka,Mathare North,-1.251788,36.87077217,b19689d32588167d3421d49d08c7ec896d34d308,Young Heirs School,-1.2515834,36.8716564,primary_school
29, Ruaraka,Mathare North,-1.251788,36.87077217,88997e78365fe6555c157cfc874f5bf2a22ffed8,Luceta Junior Primary School,-1.2526769,36.8700072,primary_school
30, Ruaraka,Mathare North,-1.251788,36.87077217,6e38381b1423db1bca00b52e093597973c8fa38e,Mwito Academy Primary School,-1.2524476,36.8723595,primary_school
31, Ruaraka,Mathare North,-1.251788,36.87077217,111760bcf35555bfaa4d61f27be5d3dd3dd623a1,Drive Inn Primary School,-1.2499926,36.8712883,primary_school
32, Ruaraka,Mathare North,-1.251788,36.87077217,9566effbbb97f65388a18dc2479159f01909a76f,Happy Times Academy Primary School,-1.2519153,36.8688029,primary_school
33, Ruaraka,Mathare North,-1.251788,36.87077217,e7b78cac9df2f340171f5b99c91b2b0953f09eb5,Queenrose Daycare Primary School,-1.2513656,36.8728128,primary_school
34, Ruaraka,Mathare North,-1.251788,36.87077217,bb85b9e8c7c4668ba95379d49ff9d16c8eb62c77,Mogra Star Junior Academy Primary School,-1.2523256,36.8686634,primary_school
35, Ruaraka,Mathare North,-1.251788,36.87077217,22cc06438f4a72c83110edfba7e3a9247b3b76ab,Koyove Academy Primary School,-1.2537053,36.8720564,primary_school
36, Ruaraka,Mathare North,-1.251788,36.87077217,d4df33e9f0e0eb445bc7696948677170b60d2c94,Bright Angels Junior Primary School,-1.2535765,36.8692937,primary_school
37, Ruaraka,Mathare North,-1.251788,36.87077217,9811e67d72a0470460b7be95b937bdf1859cdd0c,Goshen Education Center Primary School,-1.253657,36.86924279999999,primary_school
38, Ruaraka,Mathare North,-1.251788,36.87077217,fa2fff6a1092b407557b58c5fb6cc7feeec52c4c,Highview Primary School,-1.2541075,36.8716246,primary_school
39, Ruaraka,Mathare North,-1.251788,36.87077217,ca126d01a097f5e617a3bbc0026304f9c5385246,Future Kids Academy Primary School,-1.2528646,36.8735464,primary_school
