,constituency,ward,clat,clon,place_id,place_name,place_lat,place_long,place_type
0, Embakasi East,Mihango,-1.2692818000000001,36.952990500000006,7ea9851d2baa00442137dee3e333aa6b3390b3d2,Kwa Vaitee,-1.2511839,36.95303699999999,shopping_mall
1, Embakasi East,Mihango,-1.2692818000000001,36.952990500000006,5ec15f3aaf1a3c5452d0daaf92c31b586d6fcbe8,Casa Moko Plaza,-1.2891198,36.9499186,shopping_mall
2, Embakasi East,Mihango,-1.2692818000000001,36.952990500000006,779013f539c3d012019465ea15423d4afe111a5c,Glorack electronics,-1.264758,36.9838819,shopping_mall
3, Embakasi East,Mihango,-1.2692818000000001,36.952990500000006,0c31fc38348caf857d41e7551446a41724bd71f1,Jenico Poshomill,-1.2718795,36.9161922,shopping_mall
4, Embakasi East,Mihango,-1.2692818000000001,36.952990500000006,ad6eac42d642008165140690a5dd9e162f335981,Ruai Town,-1.2710938,36.9962709,shopping_mall
5, Embakasi East,Mihango,-1.2692818000000001,36.952990500000006,a00d6ae4da0a895d53d3c5c275fdd8b825d5d784,Murage Gas Ponint,-1.2723012,36.9491756,shopping_mall
6, Embakasi East,Mihango,-1.2692818000000001,36.952990500000006,991f6ba81b5386a7e7d888388344fb66552d432c,Mihago Market,-1.273412,36.95009530000001,shopping_mall
7, Embakasi East,Mihango,-1.2692818000000001,36.952990500000006,a0ba90e67a753f8e6865367c2e32d44a13f26e83,Kongoni Tours Mpesa and Shop,-1.2711642,36.9461384,shopping_mall
8, Embakasi East,Mihango,-1.2692818000000001,36.952990500000006,394489db84292389c39c16ab28b7be52eee2ec07,Valley View Estate,-1.2764665,36.9520196,shopping_mall
9, Embakasi East,Mihango,-1.2692818000000001,36.952990500000006,c5a8c31932df818736a3a1fe3d7160d537ed24cc,Mihang'o Shopping Center,-1.2714404,36.9460297,shopping_mall
10, Embakasi East,Mihango,-1.2692818000000001,36.952990500000006,8722c763ab6fa218ccd4089af7d933e96341e55f,"Utawala Riverside court, Nairobi",-1.2759348,36.9597936,shopping_mall
11, Embakasi East,Mihango,-1.2692818000000001,36.952990500000006,4bb5cc1d041f3ebfff344b8d772c2773812336a7,KNK PLACE,-1.277728,36.94755300000001,shopping_mall
12, Embakasi East,Mihango,-1.2692818000000001,36.952990500000006,3bd90109888f75a1ff20d1d0f13459ba0dbf96fb,Diamond Salon Petwill Utawala,-1.2788669,36.9498385,shopping_mall
13, Embakasi East,Mihango,-1.2692818000000001,36.952990500000006,18faed547b3512f16d7e892709b590792290aaeb,Oasis Court Hera,-1.2591901,36.9514216,shopping_mall
14, Embakasi East,Mihango,-1.2692818000000001,36.952990500000006,824ea183ebf5faf763cd15e1d1b6c8eb1a880675,Splash Water Refill,-1.2796677,36.9580397,shopping_mall
15, Embakasi East,Mihango,-1.2692818000000001,36.952990500000006,570e8bc73eaf6b587971eb43caca48434c488719,"V Mall, Corradini",-1.2797107,36.9583106,shopping_mall
16, Embakasi East,Mihango,-1.2692818000000001,36.952990500000006,a6a998756d5640774a5e6ac3fa7f9212ed2d40e3,Grace and Trendz Hair Studio,-1.2798196,36.9582576,shopping_mall
17, Embakasi East,Mihango,-1.2692818000000001,36.952990500000006,4345e56b994599dcca075bda45523eb6807f726c,Think Twice Second Hand Clothing,-1.2799121,36.95825959999999,shopping_mall
18, Embakasi East,Mihango,-1.2692818000000001,36.952990500000006,983bb5fe63d77a91f67b81ef7a0ae8bced277fac,Kijani Court,-1.2811727,36.9560656,shopping_mall
19, Embakasi East,Mihango,-1.2692818000000001,36.952990500000006,b5d471f8a79ed9ab2c69ec3ea16ea1bc85e6f5bd,Haapple Apartment,-1.2820516,36.9543827,shopping_mall
20, Embakasi East,Mihango,-1.2692818000000001,36.952990500000006,6be1c5d8627aacc4a22043b0dc22c8c9cea79e94,PRIDE HOME APPILIANCES,-1.2566192,36.9591865,shopping_mall
21, Embakasi East,Mihango,-1.2692818000000001,36.952990500000006,e73ddd355c24a945ddbe9d5d744220cd67c25f69,TANIAS SUPERMARKET,-1.2824344,36.947446,shopping_mall
22, Embakasi East,Mihango,-1.2692818000000001,36.952990500000006,ad263888fd396b46bebd1f5f9db5b841c08ac711,Ashnera Complex,-1.275454,36.9662811,shopping_mall
23, Embakasi East,Mihango,-1.2692818000000001,36.952990500000006,e15ad0a05e298ee79ef90bd4db04ecd7c4f3effe,Shikamoo Shopping Centre,-1.2755894,36.9396944,shopping_mall
24, Embakasi East,Mihango,-1.2692818000000001,36.952990500000006,6102ceefcf1869a979d8fef34b773cc7fb45defa,Bosco Flats,-1.2812511,36.9618717,shopping_mall
25, Embakasi East,Mihango,-1.2692818000000001,36.952990500000006,2bfb45830320e233e985856f7a2d8cdcbd4b78e1,Smallvilla Shopping Center,-1.2813373,36.9618018,shopping_mall
26, Embakasi East,Mihango,-1.2692818000000001,36.952990500000006,f8bc8842f93e7418589276b0cc17e287ceee5027,Park Plaza,-1.2843163,36.9571521,shopping_mall
27, Embakasi East,Mihango,-1.2692818000000001,36.952990500000006,dd222fe3c18a1f5c37d4083b05af36eee861c083,Polytech Labe,-1.2803974,36.9639677,shopping_mall
28, Embakasi East,Mihango,-1.2692818000000001,36.952990500000006,8b231d28b59934ce0c6f22d0284c80d7cc2f6fb0,Los Angeles Court,-1.2566939,36.94312620000001,shopping_mall
29, Embakasi East,Mihango,-1.2692818000000001,36.952990500000006,c4c584d2328905c8f84732f32ca34475517e1632,Magunas supr utawara,-1.2793288,36.9659166,shopping_mall
30, Embakasi East,Mihango,-1.2692818000000001,36.952990500000006,c77d747adc14cd4151e79c9fba8b58ec01b67a6c,The BigBox,-1.2857821,36.950761,shopping_mall
31, Embakasi East,Mihango,-1.2692818000000001,36.952990500000006,41006ae8098c9d29c6841cde40cf521adf02750a,The BigBox,-1.28587,36.9507083,shopping_mall
32, Embakasi East,Mihango,-1.2692818000000001,36.952990500000006,cf83d2e50017e44ac97002c4352ad3387e45958a,Kimson Plaza,-1.2790919,36.9670272,shopping_mall
33, Embakasi East,Mihango,-1.2692818000000001,36.952990500000006,63377a24444d4879fa092802bd9a9efb91a0fcb2,Orchard Apartments,-1.28265,36.964471,shopping_mall
34, Embakasi East,Mihango,-1.2692818000000001,36.952990500000006,e445e1a9eee9909ef4c5621cd4db45ae8f3b0034,Bluna electrical & Electronics supplies,-1.2790617,36.9676711,shopping_mall
35, Embakasi East,Mihango,-1.2692818000000001,36.952990500000006,13ea4f93011ce2bf1d058fa22f202a6fefce69e3,Full Gospel Church Chokaa,-1.251567,36.9526736,shopping_mall
36, Embakasi East,Mihango,-1.2692818000000001,36.952990500000006,1123c060c1b343f99e8dc8a2d33d08006d726b57,AIRWAYS CROSSROADS,-1.278878,36.96793,shopping_mall
37, Embakasi East,Mihango,-1.2692818000000001,36.952990500000006,0af68eeba756de875aedf650dadd2a1f05d6a309,Bramo ARCADE,-1.2872025,36.9513893,shopping_mall
38, Embakasi East,Mihango,-1.2692818000000001,36.952990500000006,0fec4976903a916a19206c982521d34bf47f4f33,Kimson Plaza,-1.2878927,36.9518972,shopping_mall
39, Embakasi East,Mihango,-1.2692818000000001,36.952990500000006,8cbc7084d5bf16812df06cf387fb1f545c45d834,CHOKAMATT SUPERMARKET,-1.2503679,36.9529447,shopping_mall
40, Embakasi East,Mihango,-1.2692818000000001,36.952990500000006,8960f437fbf0b55948bbbaff73c1e144a7ab19c0,Florida House,-1.2798062,36.9688855,shopping_mall
41, Embakasi East,Mihango,-1.2692818000000001,36.952990500000006,4d1edcf50cccc07d249e86f23449f9bc4a85b9b8,M-Mart Utawala,-1.2856604,36.9429039,shopping_mall
42, Embakasi East,Mihango,-1.2692818000000001,36.952990500000006,7c52e2e1114d524a01e5b7f5d133c2cdf3240494,Amrash Business Park,-1.2883971,36.9506197,shopping_mall
43, Embakasi East,Mihango,-1.2692818000000001,36.952990500000006,79a39e9d304dfcbcdde9562c305e0df3e5a81e76,Burgei Plaza,-1.2505393,36.9484236,shopping_mall
44, Embakasi East,Mihango,-1.2692818000000001,36.952990500000006,d1f69c34942af9a0e70113bc056db0fe980aa646,LD Urban Shopping,-1.2891239,36.949921,shopping_mall
45, Embakasi East,Mihango,-1.2692818000000001,36.952990500000006,5b447755c7d491f9de8e0a3c185bc1205603916e,Balong House,-1.280867,36.9699098,shopping_mall
46, Embakasi East,Mihango,-1.2692818000000001,36.952990500000006,d0b01a6d3cef52ac1d4d2324a26920c2831e933a,Ruai Makongeni,-1.2591045,36.9717353,shopping_mall
47, Embakasi East,Mihango,-1.2692818000000001,36.952990500000006,e98322f0c63caab35fecc95a49c693c4cc9ee226,Lofty Butchery Capital Hill Ruai,-1.265834,36.9747317,shopping_mall
48, Embakasi East,Mihango,-1.2692818000000001,36.952990500000006,ba8572061984e45ac0556d6e6b5d15945a89271d,Njiru Shopping Centre,-1.2510223,36.940088,shopping_mall
49, Embakasi East,Mihango,-1.2692818000000001,36.952990500000006,2dbdc5388e524a9c715535ed23837b2f543b0eae,Baba Yao Goks,-1.2623637,36.9311281,shopping_mall
50, Embakasi East,Mihango,-1.2692818000000001,36.952990500000006,9efa37ab1ac64b56b551c92fc1e42f4d942df5d6,Nicks Shop,-1.2616625,36.9309487,shopping_mall
51, Embakasi East,Mihango,-1.2692818000000001,36.952990500000006,31c5abb1ef551bcb97a010edaaa60de40f0d668d,Capital Mall,-1.2841604,36.9729799,shopping_mall
52, Embakasi East,Mihango,-1.2692818000000001,36.952990500000006,36dcbd21d467b1483e78cfe8f13db31f481ebf38,Waiya Shop,-1.2573713,36.93048899999999,shopping_mall
53, Embakasi East,Mihango,-1.2692818000000001,36.952990500000006,1a0cb7c2f8724910c0efce306206d3f6100b2f42,119 General Shop,-1.258405,36.9290235,shopping_mall
54, Embakasi East,Mihango,-1.2692818000000001,36.952990500000006,8bdcbb8a181477c5220017934357da9df2d711e7,Ustadh M General Shop,-1.2632989,36.9267178,shopping_mall
55, Embakasi East,Mihango,-1.2692818000000001,36.952990500000006,67e5f3d190bfa87e706d4425fc45b7e6893823a4,Fairways Hardware Ltd,-1.2860228,36.9741965,shopping_mall
56, Embakasi East,Mihango,-1.2692818000000001,36.952990500000006,f433d682b78295a434ce292a445041c0ff452d5e,Mama Abbys Shop,-1.249697,36.9341931,shopping_mall
57, Embakasi East,Mihango,-1.2692818000000001,36.952990500000006,de45f310a0874cf03c914a12d1a4f7ded659689a,mugweru's metal works,-1.2896369,36.9719293,shopping_mall
58, Embakasi East,Mihango,-1.2692818000000001,36.952990500000006,64b8bcf404340e6f10d91e52eb9b5ee00169948d,mama owen shop,-1.265239,36.9242401,shopping_mall
59, Embakasi East,Mihango,-1.2692818000000001,36.952990500000006,676b3b0793bf4ee86497d97c1eb1750bc9143926,Maasai Parking,-1.2652319,36.924153,shopping_mall
