,constituency,ward,clat,clon,place_id,place_name,place_lat,place_long,place_type
0, Westlands,Kitisuru,-1.2395542,36.7839651,6e1330bf17c69b4380ecb461c6850ae43a095d4f,Cloud Hotel & Suites,-1.2580078,36.8185433,gym
1, Westlands,Kitisuru,-1.2395542,36.7839651,26195291d824d9626dc2713ac98b010d209a6695,Power Vibe Studio/ Westlands branch,-1.260254,36.784195,gym
2, Westlands,Kitisuru,-1.2395542,36.7839651,36cab3c0ebde3d1cd2d145cc7e6b410cf967f23d,Revitalize Wellness Center at New Muthaiga,-1.2360405,36.7924038,gym
3, Westlands,Kitisuru,-1.2395542,36.7839651,815ba14e45bd42c46aa556c30edd3408bc6b0f69,Atelier Pilates,-1.2488811,36.7837051,gym
4, Westlands,Kitisuru,-1.2395542,36.7839651,d3feba51daea4b93026d7c3aea470f31e6556eb0,Planet House,-1.2542144,36.7768524,gym
5, Westlands,Kitisuru,-1.2395542,36.7839651,0f787adb2b6c0aaef9958f83563487c1326024f5,MOM3NTUM Fitness,-1.2582983,36.7886333,gym
6, Westlands,Kitisuru,-1.2395542,36.7839651,74cf6763895587aa466b3c6a40c6bd400f8a982b,Desmond Tutu Conference Centre,-1.2600817,36.7867645,gym
7, Westlands,Kitisuru,-1.2395542,36.7839651,2708aa532d345059909246c937da26ed961ebf73,"VLCC Slimming | Beauty | Fitness, Nairobi",-1.2605329,36.7842846,gym
8, Westlands,Kitisuru,-1.2395542,36.7839651,ced2e615e382239b5f93e2054f3823d4e928f87b,Zen Cycle,-1.2566587,36.8010724,gym
9, Westlands,Kitisuru,-1.2395542,36.7839651,c0f1c64ff382e15a428603c9459e32e287cdfeb9,Prime Serviced Residence Westlands,-1.2639207,36.78249080000001,gym
10, Westlands,Kitisuru,-1.2395542,36.7839651,d8eb1c38b94e491fdd3062bf6bc61564b7b66050,Arena Ltd,-1.2611318,36.8017745,gym
11, Westlands,Kitisuru,-1.2395542,36.7839651,c28eba663b1f763fabf25959933a9f44ad105481,Minah Heights,-1.2641844,36.7971571,gym
12, Westlands,Kitisuru,-1.2395542,36.7839651,abc98dbb94167eedf8b34ec807b996c3b35ff07b,Asmin Court,-1.2654246,36.7955584,gym
13, Westlands,Kitisuru,-1.2395542,36.7839651,f0e63bf7067322446f591165cc9e00faf6a8c3f5,Acacia Studios,-1.2641614,36.8007696,gym
14, Westlands,Kitisuru,-1.2395542,36.7839651,2674f7b3a2b6d5ac615dfd464273a3d0488a13c6,Physiq & Tone Gyms,-1.2065952,36.7844289,gym
15, Westlands,Kitisuru,-1.2395542,36.7839651,6fb30dcfe4f6e8457e7ddad4a30d92e15bc5f817,The Concord Hotel & Suites,-1.2545608,36.815443,gym
16, Westlands,Kitisuru,-1.2395542,36.7839651,99d3ad9855c14fc8b89bc684b9da3777765ed7d6,Ascend Sports Limited,-1.239702,36.7463546,gym
17, Westlands,Kitisuru,-1.2395542,36.7839651,40a0ca37d2473545cb4a7253e88b9a68fc2af230,Workout Express Ltd,-1.2580087,36.81889170000001,gym
18, Westlands,Kitisuru,-1.2395542,36.7839651,e6fa33a2d334b57461f2623c38697c68c70f7bfc,Shasyl Spa and Barber,-1.271728,36.81054220000001,gym
19, Westlands,Kitisuru,-1.2395542,36.7839651,3b5da6fc00166a867da720003b78b4709efdc4f7,Activ Kenya Ltd,-1.2778459,36.8051541,gym
20, Westlands,Kitisuru,-1.2395542,36.7839651,f99b2d950d234bcbdc6632ac47ded8e63d6dc6e5,Enzyne Creation Limited,-1.2760732,36.8080978,gym
21, Westlands,Kitisuru,-1.2395542,36.7839651,3b5f9a4aec8a01542423e825cc25076d80257c9e,Fitness - One,-1.26483,36.7799728,gym
22, Westlands,Kitisuru,-1.2395542,36.7839651,2268264adcc3fc09e871abbca0117356c2fde34c,Power Vibe Studio Kitisuru Branch/Power Plate Studio,-1.2397084,36.781475,gym
23, Westlands,Kitisuru,-1.2395542,36.7839651,094a99d47c224335f00a0a38c605eb7d6076fe5c,Burn Body,-1.2406048,36.7809209,gym
24, Westlands,Kitisuru,-1.2395542,36.7839651,6d09294bd7285beed8cffb910d95b13460803955,Zuberi Pilates Studio,-1.2316398,36.7900293,gym
25, Westlands,Kitisuru,-1.2395542,36.7839651,1e552bd74b5f3e039a181b8407864cef719de195,Maxwell Ltd,-1.2372367,36.7735471,gym
26, Westlands,Kitisuru,-1.2395542,36.7839651,28f407430ba639098f9c5b7161aa848a7db80470,AER Aerial + Flow Arts Sanctuary,-1.2351301,36.7938242,gym
27, Westlands,Kitisuru,-1.2395542,36.7839651,a62aaf4c4c7ba7261a76c2d4406027ae555586be,Gigiri serenity spa,-1.2506205,36.7758432,gym
28, Westlands,Kitisuru,-1.2395542,36.7839651,ab6bd75f4061d34afb2459afd2465d7675666403,Space Of The Heart,-1.245284,36.76978139999999,gym
29, Westlands,Kitisuru,-1.2395542,36.7839651,93f278cbe7aade20fc41b93317a161966f791287,Fitness Wheel Gym And Aerobics,-1.223249,36.7809448,gym
30, Westlands,Kitisuru,-1.2395542,36.7839651,b3da9a835e85f7d54c85acfaac2eedfb24a2ad4a,Japheth's Powered Fitness,-1.2548381,36.79541469999999,gym
31, Westlands,Kitisuru,-1.2395542,36.7839651,b059d1b1ea6a4495d0b49352556445257ec669b2,Clarence House Hotel Nairobi,-1.257778,36.793706,gym
32, Westlands,Kitisuru,-1.2395542,36.7839651,067569d7d09de442fa8b0834e1a4f5b737dc83d6,Yoga for Wellness Africa,-1.2250491,36.7682259,gym
33, Westlands,Kitisuru,-1.2395542,36.7839651,9b2ff5f89187fe3c7a2e0d70a9ec0a35fac70fbf,Saffro,-1.2610447,36.784379,gym
34, Westlands,Kitisuru,-1.2395542,36.7839651,9d08eef460272ad31f951b5b968592f59626b1f5,School Pavilion and Gym,-1.2616615,36.7808492,gym
35, Westlands,Kitisuru,-1.2395542,36.7839651,94b8b1909124e8f93014ec686fc1aeb24e4fb619,Children's Play area,-1.2297732,36.80444200000001,gym
36, Westlands,Kitisuru,-1.2395542,36.7839651,2b4a56577995e14d96c8e1b5df11b4307fa1f744,Level 24 Gym and Fitness Centre,-1.2616018,36.7893599,gym
37, Westlands,Kitisuru,-1.2395542,36.7839651,322a510fd28fd0f9124ad93efe19cda567e2e972,Doctore Athletics,-1.260593,36.77523,gym
38, Westlands,Kitisuru,-1.2395542,36.7839651,46d2991e2e77e02310335a833fea571341a3b7ff,Bustani Day Spa,-1.2355348,36.806413,gym
39, Westlands,Kitisuru,-1.2395542,36.7839651,d2aa21837f71e21f7563ba41e45f81438a03f8f1,BODY by Alison Caroline,-1.2607203,36.7753494,gym
